{"pageProps":{"locale":"ro","admin2":{"geonameid":662485,"name":"Comuna Voloiac","country":"RO","admin1":"26","admin2":"113974","admin3":"","latitude":"44.6324100","longitude":"23.0594800"},"admin1":{"geonameid":673612,"name":"Mehedinţi","admin1":"26"},"locations":[{"geonameid":680466,"name":"Cotoroaia","asciiname":"Cotoroaia","alternatenames":"Cotoroaia,Cotoroaia de Sus","latitude":"44.6492200","longitude":"23.0339800","fclass":"P","fcode":"PPL","country":"RO","cc2":"RO","admin1":"26","admin2":"113974","admin3":"","admin4":"","population":561,"elevation":0,"gtopo30":239,"timezone":"Europe/Bucharest","moddate":"2013-04-21T00:00:00.000Z"},{"geonameid":680467,"name":"Cotoroaia de Jos","asciiname":"Cotoroaia de Jos","alternatenames":"","latitude":"44.6333300","longitude":"23.0500000","fclass":"P","fcode":"PPL","country":"RO","cc2":"","admin1":"26","admin2":"113974","admin3":"","admin4":"","population":0,"elevation":0,"gtopo30":314,"timezone":"Europe/Bucharest","moddate":"2016-02-07T00:00:00.000Z"},{"geonameid":675113,"name":"Lac","asciiname":"Lac","alternatenames":"","latitude":"44.6166700","longitude":"23.0666700","fclass":"P","fcode":"PPL","country":"RO","cc2":"","admin1":"26","admin2":"113974","admin3":"","admin4":"","population":128,"elevation":0,"gtopo30":275,"timezone":"Europe/Bucharest","moddate":"2015-12-11T00:00:00.000Z"},{"geonameid":668440,"name":"Ruptura","asciiname":"Ruptura","alternatenames":"","latitude":"44.6255100","longitude":"23.0381900","fclass":"P","fcode":"PPL","country":"RO","cc2":"","admin1":"26","admin2":"113974","admin3":"","admin4":"","population":102,"elevation":0,"gtopo30":262,"timezone":"Europe/Bucharest","moddate":"2013-04-21T00:00:00.000Z"},{"geonameid":666370,"name":"Sperlești","asciiname":"Sperlesti","alternatenames":"","latitude":"44.6491400","longitude":"23.0098800","fclass":"P","fcode":"PPL","country":"RO","cc2":"","admin1":"26","admin2":"113974","admin3":"","admin4":"","population":114,"elevation":0,"gtopo30":251,"timezone":"Europe/Bucharest","moddate":"2013-04-21T00:00:00.000Z"},{"geonameid":664895,"name":"Țițirigi","asciiname":"Titirigi","alternatenames":"","latitude":"44.6393700","longitude":"23.0487000","fclass":"P","fcode":"PPL","country":"RO","cc2":"","admin1":"26","admin2":"113974","admin3":"","admin4":"","population":87,"elevation":0,"gtopo30":248,"timezone":"Europe/Bucharest","moddate":"2013-04-21T00:00:00.000Z"},{"geonameid":663867,"name":"Valea Bună","asciiname":"Valea Buna","alternatenames":"","latitude":"44.6359800","longitude":"23.1108000","fclass":"P","fcode":"PPL","country":"RO","cc2":"","admin1":"26","admin2":"113974","admin3":"","admin4":"","population":474,"elevation":0,"gtopo30":213,"timezone":"Europe/Bucharest","moddate":"2013-04-20T00:00:00.000Z"},{"geonameid":662486,"name":"Voloiac","asciiname":"Voloiac","alternatenames":"","latitude":"44.6166700","longitude":"23.1000000","fclass":"P","fcode":"PPLA2","country":"RO","cc2":"","admin1":"26","admin2":"113974","admin3":"","admin4":"","population":472,"elevation":0,"gtopo30":239,"timezone":"Europe/Bucharest","moddate":"2015-12-11T00:00:00.000Z"},{"geonameid":662484,"name":"Voloicel","asciiname":"Voloicel","alternatenames":"Voloicelu,Voloicelul","latitude":"44.6232800","longitude":"23.0643400","fclass":"P","fcode":"PPL","country":"RO","cc2":"RO","admin1":"26","admin2":"113974","admin3":"","admin4":"","population":122,"elevation":0,"gtopo30":212,"timezone":"Europe/Bucharest","moddate":"2013-04-20T00:00:00.000Z"}],"admin3":[],"alternateNames":[]},"__N_SSG":true}