{"pageProps":{"locale":"ro","admin2":{"geonameid":679748,"name":"Comuna Dăneţi","country":"RO","admin1":"17","admin2":"71956","admin3":"","latitude":"43.9775000","longitude":"24.0401500"},"admin1":{"geonameid":679134,"name":"jud. Dolj","admin1":"17"},"locations":[{"geonameid":683982,"name":"Brabeți","asciiname":"Brabeti","alternatenames":"","latitude":"43.9609800","longitude":"24.0133900","fclass":"P","fcode":"PPL","country":"RO","cc2":"","admin1":"17","admin2":"71956","admin3":"","admin4":"","population":1389,"elevation":0,"gtopo30":103,"timezone":"Europe/Bucharest","moddate":"2013-04-21T00:00:00.000Z"},{"geonameid":683868,"name":"Braniște","asciiname":"Braniste","alternatenames":"","latitude":"43.9822500","longitude":"24.0119500","fclass":"P","fcode":"PPL","country":"RO","cc2":"","admin1":"17","admin2":"71956","admin3":"","admin4":"","population":800,"elevation":0,"gtopo30":105,"timezone":"Europe/Bucharest","moddate":"2013-04-21T00:00:00.000Z"},{"geonameid":679749,"name":"Dăneţi","asciiname":"Daneti","alternatenames":"Danet,Daneti,Daneţ,Dăneţi","latitude":"43.9833300","longitude":"24.0500000","fclass":"P","fcode":"PPLA2","country":"RO","cc2":"","admin1":"17","admin2":"71956","admin3":"","admin4":"","population":7110,"elevation":0,"gtopo30":110,"timezone":"Europe/Bucharest","moddate":"2012-06-12T00:00:00.000Z"},{"geonameid":674630,"name":"Locusteni","asciiname":"Locusteni","alternatenames":"","latitude":"43.9745600","longitude":"23.9975400","fclass":"P","fcode":"PPL","country":"RO","cc2":"","admin1":"17","admin2":"71956","admin3":"","admin4":"","population":800,"elevation":0,"gtopo30":100,"timezone":"Europe/Bucharest","moddate":"2013-04-21T00:00:00.000Z"},{"geonameid":666537,"name":"Sohoteşti","asciiname":"Sohotesti","alternatenames":"","latitude":"43.9833300","longitude":"24.0500000","fclass":"P","fcode":"PPL","country":"RO","cc2":"","admin1":"17","admin2":"71956","admin3":"","admin4":"","population":0,"elevation":0,"gtopo30":110,"timezone":"Europe/Bucharest","moddate":"2016-02-07T00:00:00.000Z"}],"admin3":[],"alternateNames":[]},"__N_SSG":true}