{"pageProps":{"locale":"ro","admin2":{"geonameid":678727,"name":"Comuna Dumbrava","country":"RO","admin1":"30","admin2":"133090","admin3":"","latitude":"44.8626600","longitude":"26.2146300"},"admin1":{"geonameid":669737,"name":"Prahova","admin1":"30"},"locations":[{"geonameid":681409,"name":"Ciupelnița","asciiname":"Ciupelnita","alternatenames":"","latitude":"44.8449900","longitude":"26.2347600","fclass":"P","fcode":"PPL","country":"RO","cc2":"","admin1":"30","admin2":"133090","admin3":"","admin4":"","population":747,"elevation":0,"gtopo30":89,"timezone":"Europe/Bucharest","moddate":"2013-04-21T00:00:00.000Z"},{"geonameid":680722,"name":"Cornu de Sus","asciiname":"Cornu de Sus","alternatenames":"Cornu de Sus,Cornul de Sus,Cornurile de Sus","latitude":"44.8424600","longitude":"26.2396100","fclass":"P","fcode":"PPL","country":"RO","cc2":"RO","admin1":"30","admin2":"133090","admin3":"","admin4":"","population":805,"elevation":0,"gtopo30":88,"timezone":"Europe/Bucharest","moddate":"2013-04-21T00:00:00.000Z"},{"geonameid":678755,"name":"Dumbrava","asciiname":"Dumbrava","alternatenames":"Dumbrava,Dumbrava-Netoti,Netoti,Netoţi","latitude":"44.8833300","longitude":"26.1833300","fclass":"P","fcode":"PPLA2","country":"RO","cc2":"","admin1":"30","admin2":"133090","admin3":"","admin4":"","population":4394,"elevation":0,"gtopo30":101,"timezone":"Europe/Bucharest","moddate":"2012-06-12T00:00:00.000Z"},{"geonameid":664623,"name":"Trestienii de Jos","asciiname":"Trestienii de Jos","alternatenames":"","latitude":"44.8654200","longitude":"26.2324300","fclass":"P","fcode":"PPL","country":"RO","cc2":"","admin1":"30","admin2":"133090","admin3":"","admin4":"","population":156,"elevation":0,"gtopo30":91,"timezone":"Europe/Bucharest","moddate":"2013-04-21T00:00:00.000Z"},{"geonameid":664622,"name":"Trestienii de Sus","asciiname":"Trestienii de Sus","alternatenames":"","latitude":"44.8825800","longitude":"26.2263900","fclass":"P","fcode":"PPL","country":"RO","cc2":"","admin1":"30","admin2":"133090","admin3":"","admin4":"","population":244,"elevation":0,"gtopo30":96,"timezone":"Europe/Bucharest","moddate":"2013-04-21T00:00:00.000Z"},{"geonameid":662311,"name":"Zănoaga","asciiname":"Zanoaga","alternatenames":"","latitude":"44.8669700","longitude":"26.1637500","fclass":"P","fcode":"PPL","country":"RO","cc2":"","admin1":"30","admin2":"133090","admin3":"","admin4":"","population":909,"elevation":0,"gtopo30":99,"timezone":"Europe/Bucharest","moddate":"2013-04-20T00:00:00.000Z"}],"admin3":[],"alternateNames":[{"alternatenameId":8326236,"geonameid":669737,"isoLanguage":"en","alternateName":"Prahova","isPreferredName":true,"isShortName":true,"isColloquial":false,"isHistoric":false}]},"__N_SSG":true}