{"pageProps":{"locale":"ro","admin2":{"geonameid":679469,"name":"Comuna Derna","country":"RO","admin1":"05","admin2":"29038","admin3":"","latitude":"47.2080000","longitude":"22.2882100"},"admin1":{"geonameid":684878,"name":"Bihor","admin1":"05"},"locations":[{"geonameid":679471,"name":"Derna","asciiname":"Derna","alternatenames":"Derna","latitude":"47.2000000","longitude":"22.3000000","fclass":"P","fcode":"PPLA2","country":"RO","cc2":"","admin1":"05","admin2":"29038","admin3":"","admin4":"","population":2963,"elevation":0,"gtopo30":202,"timezone":"Europe/Bucharest","moddate":"2012-06-12T00:00:00.000Z"},{"geonameid":679468,"name":"Dernișoara","asciiname":"Dernisoara","alternatenames":"","latitude":"47.2206700","longitude":"22.2530400","fclass":"P","fcode":"PPL","country":"RO","cc2":"","admin1":"05","admin2":"29038","admin3":"","admin4":"","population":725,"elevation":0,"gtopo30":149,"timezone":"Europe/Bucharest","moddate":"2013-04-21T00:00:00.000Z"},{"geonameid":668346,"name":"Sacalasău","asciiname":"Sacalasau","alternatenames":"Sacalasau,Sacalasau Vechi,Sacalasu,Sacalaşu,Săcălăşău,Săcălăşău Vechi","latitude":"47.1968000","longitude":"22.2862500","fclass":"P","fcode":"PPL","country":"RO","cc2":"RO","admin1":"05","admin2":"29038","admin3":"","admin4":"","population":786,"elevation":0,"gtopo30":170,"timezone":"Europe/Bucharest","moddate":"2013-04-21T00:00:00.000Z"},{"geonameid":668345,"name":"Sacalasău Nou","asciiname":"Sacalasau Nou","alternatenames":"","latitude":"47.1842700","longitude":"22.3281300","fclass":"P","fcode":"PPL","country":"RO","cc2":"","admin1":"05","admin2":"29038","admin3":"","admin4":"","population":420,"elevation":0,"gtopo30":257,"timezone":"Europe/Bucharest","moddate":"2013-04-21T00:00:00.000Z"},{"geonameid":664615,"name":"Tria","asciiname":"Tria","alternatenames":"Terje,Tria","latitude":"47.2334200","longitude":"22.2658100","fclass":"P","fcode":"PPL","country":"RO","cc2":"RO","admin1":"05","admin2":"29038","admin3":"","admin4":"","population":514,"elevation":0,"gtopo30":163,"timezone":"Europe/Bucharest","moddate":"2013-04-21T00:00:00.000Z"}],"admin3":[],"alternateNames":[]},"__N_SSG":true}