{"pageProps":{"locale":"ro","admin2":{"geonameid":665454,"name":"Comuna Tătărăni","country":"RO","admin1":"38","admin2":"166315","admin3":"","latitude":"46.7089400","longitude":"27.9560200"},"admin1":{"geonameid":663116,"name":"Vaslui","admin1":"38"},"locations":[{"geonameid":685548,"name":"Bălțați","asciiname":"Baltati","alternatenames":"","latitude":"46.6991100","longitude":"27.9002000","fclass":"P","fcode":"PPL","country":"RO","cc2":"","admin1":"38","admin2":"166315","admin3":"","admin4":"","population":688,"elevation":0,"gtopo30":148,"timezone":"Europe/Bucharest","moddate":"2013-04-21T00:00:00.000Z"},{"geonameid":680303,"name":"Crăsnășeni","asciiname":"Crasnaseni","alternatenames":"","latitude":"46.6706400","longitude":"27.9568800","fclass":"P","fcode":"PPL","country":"RO","cc2":"","admin1":"38","admin2":"166315","admin3":"","admin4":"","population":190,"elevation":0,"gtopo30":179,"timezone":"Europe/Bucharest","moddate":"2013-04-21T00:00:00.000Z"},{"geonameid":677115,"name":"Giurgești","asciiname":"Giurgesti","alternatenames":"","latitude":"46.7349400","longitude":"27.9773800","fclass":"P","fcode":"PPL","country":"RO","cc2":"","admin1":"38","admin2":"166315","admin3":"","admin4":"","population":149,"elevation":0,"gtopo30":243,"timezone":"Europe/Bucharest","moddate":"2013-04-21T00:00:00.000Z"},{"geonameid":674872,"name":"Leoști","asciiname":"Leosti","alternatenames":"Leosti,Leostii,Leoşti,Leoştii","latitude":"46.6618900","longitude":"27.9481400","fclass":"P","fcode":"PPL","country":"RO","cc2":"RO","admin1":"38","admin2":"166315","admin3":"","admin4":"","population":313,"elevation":0,"gtopo30":133,"timezone":"Europe/Bucharest","moddate":"2013-04-21T00:00:00.000Z"},{"geonameid":673902,"name":"Mantu","asciiname":"Mantu","alternatenames":"Mantu,Mantul,Manţu,Martinestii,Martineştii","latitude":"46.7332300","longitude":"27.9299900","fclass":"P","fcode":"PPL","country":"RO","cc2":"RO","admin1":"38","admin2":"166315","admin3":"","admin4":"","population":50,"elevation":0,"gtopo30":139,"timezone":"Europe/Bucharest","moddate":"2013-04-21T00:00:00.000Z"},{"geonameid":665935,"name":"Stroiești","asciiname":"Stroiesti","alternatenames":"","latitude":"46.7253100","longitude":"27.9774000","fclass":"P","fcode":"PPL","country":"RO","cc2":"","admin1":"38","admin2":"166315","admin3":"","admin4":"","population":254,"elevation":0,"gtopo30":246,"timezone":"Europe/Bucharest","moddate":"2013-04-21T00:00:00.000Z"},{"geonameid":665458,"name":"Tătărăni","asciiname":"Tatarani","alternatenames":"Tatarani,Tătărăni","latitude":"46.6942200","longitude":"27.9644300","fclass":"P","fcode":"PPLA2","country":"RO","cc2":"","admin1":"38","admin2":"166315","admin3":"","admin4":"","population":734,"elevation":0,"gtopo30":171,"timezone":"Europe/Bucharest","moddate":"2013-04-21T00:00:00.000Z"},{"geonameid":663704,"name":"Valea lui Bosie","asciiname":"Valea lui Bosie","alternatenames":"","latitude":"46.7100700","longitude":"27.9735600","fclass":"P","fcode":"PPL","country":"RO","cc2":"","admin1":"38","admin2":"166315","admin3":"","admin4":"","population":163,"elevation":0,"gtopo30":216,"timezone":"Europe/Bucharest","moddate":"2013-04-20T00:00:00.000Z"},{"geonameid":663422,"name":"Valea Seacă","asciiname":"Valea Seaca","alternatenames":"","latitude":"46.7510900","longitude":"27.9762100","fclass":"P","fcode":"PPL","country":"RO","cc2":"","admin1":"38","admin2":"166315","admin3":"","admin4":"","population":42,"elevation":0,"gtopo30":212,"timezone":"Europe/Bucharest","moddate":"2013-04-20T00:00:00.000Z"}],"admin3":[],"alternateNames":[]},"__N_SSG":true}