{"pageProps":{"locale":"ro","admin2":{"geonameid":683478,"name":"Comuna Buda","country":"RO","admin1":"11","admin2":"45673","admin3":"","latitude":"45.5090700","longitude":"26.9043400"},"admin1":{"geonameid":683121,"name":"Buzău","admin1":"11"},"locations":[{"geonameid":686492,"name":"Alexandru Odobescu","asciiname":"Alexandru Odobescu","alternatenames":"Alexandru Odobescu,Mucestii de Jos,Muceştii de Jos","latitude":"45.5158500","longitude":"26.9128500","fclass":"P","fcode":"PPL","country":"RO","cc2":"RO","admin1":"11","admin2":"45673","admin3":"","admin4":"","population":600,"elevation":0,"gtopo30":292,"timezone":"Europe/Bucharest","moddate":"2013-04-21T00:00:00.000Z"},{"geonameid":683496,"name":"Buda","asciiname":"Buda","alternatenames":"Buda","latitude":"45.5000000","longitude":"26.9000000","fclass":"P","fcode":"PPLA2","country":"RO","cc2":"","admin1":"11","admin2":"45673","admin3":"","admin4":"","population":3257,"elevation":0,"gtopo30":284,"timezone":"Europe/Bucharest","moddate":"2012-06-12T00:00:00.000Z"},{"geonameid":679742,"name":"Dănulești","asciiname":"Danulesti","alternatenames":"","latitude":"45.5074800","longitude":"26.9365400","fclass":"P","fcode":"PPL","country":"RO","cc2":"","admin1":"11","admin2":"45673","admin3":"","admin4":"","population":255,"elevation":0,"gtopo30":367,"timezone":"Europe/Bucharest","moddate":"2013-04-21T00:00:00.000Z"},{"geonameid":677796,"name":"Fundu Budei","asciiname":"Fundu Budei","alternatenames":"Fundu Budei,Fundul Budei","latitude":"45.4833300","longitude":"26.8833300","fclass":"P","fcode":"PPLX","country":"RO","cc2":"","admin1":"11","admin2":"45673","admin3":"","admin4":"","population":0,"elevation":0,"gtopo30":389,"timezone":"Europe/Bucharest","moddate":"2016-02-07T00:00:00.000Z"},{"geonameid":672707,"name":"Mucești-Dănulești","asciiname":"Mucesti-Danulesti","alternatenames":"Mucesti,Mucesti-Danulesti,Muceşti,Muceşti-Dănuleşti","latitude":"45.5216100","longitude":"26.9293300","fclass":"P","fcode":"PPL","country":"RO","cc2":"RO","admin1":"11","admin2":"45673","admin3":"","admin4":"","population":593,"elevation":0,"gtopo30":294,"timezone":"Europe/Bucharest","moddate":"2013-04-21T00:00:00.000Z"},{"geonameid":671012,"name":"Petreanu","asciiname":"Petreanu","alternatenames":"","latitude":"45.5000000","longitude":"26.9000000","fclass":"P","fcode":"PPLX","country":"RO","cc2":"","admin1":"11","admin2":"45673","admin3":"","admin4":"","population":0,"elevation":0,"gtopo30":284,"timezone":"Europe/Bucharest","moddate":"2016-02-07T00:00:00.000Z"},{"geonameid":670943,"name":"Petroiu","asciiname":"Petroiu","alternatenames":"","latitude":"45.4833300","longitude":"26.9166700","fclass":"P","fcode":"PPLX","country":"RO","cc2":"","admin1":"11","admin2":"45673","admin3":"","admin4":"","population":0,"elevation":0,"gtopo30":233,"timezone":"Europe/Bucharest","moddate":"2016-02-07T00:00:00.000Z"},{"geonameid":666363,"name":"Spidele","asciiname":"Spidele","alternatenames":"","latitude":"45.5183900","longitude":"26.8484200","fclass":"P","fcode":"PPL","country":"RO","cc2":"","admin1":"11","admin2":"45673","admin3":"","admin4":"","population":62,"elevation":0,"gtopo30":403,"timezone":"Europe/Bucharest","moddate":"2013-04-21T00:00:00.000Z"},{"geonameid":664712,"name":"Toropălești","asciiname":"Toropalesti","alternatenames":"","latitude":"45.4925100","longitude":"26.9185100","fclass":"P","fcode":"PPL","country":"RO","cc2":"","admin1":"11","admin2":"45673","admin3":"","admin4":"","population":513,"elevation":0,"gtopo30":243,"timezone":"Europe/Bucharest","moddate":"2013-04-21T00:00:00.000Z"},{"geonameid":663717,"name":"Valea Largă","asciiname":"Valea Larga","alternatenames":"","latitude":"45.5096800","longitude":"26.8839100","fclass":"P","fcode":"PPL","country":"RO","cc2":"","admin1":"11","admin2":"45673","admin3":"","admin4":"","population":103,"elevation":0,"gtopo30":323,"timezone":"Europe/Bucharest","moddate":"2013-04-20T00:00:00.000Z"}],"admin3":[],"alternateNames":[]},"__N_SSG":true}