{"pageProps":{"locale":"ro","admin2":{"geonameid":670551,"name":"Comuna Plătăreşti","country":"RO","admin1":"41","admin2":"104635","admin3":"","latitude":"44.3447600","longitude":"26.3825500"},"admin1":{"geonameid":683016,"name":"Călăraşi","admin1":"41"},"locations":[{"geonameid":680022,"name":"Cucuieți","asciiname":"Cucuieti","alternatenames":"Cucueti-Suditi,Cucuetii-Suditi,Cucuetii-Sudiţi,Cucueţi-Sudiţi,Cucuieti,Cucuieti-Suditi,Cucuieţi,Cucuieţi-Sudiţi","latitude":"44.3310200","longitude":"26.3940200","fclass":"P","fcode":"PPL","country":"RO","cc2":"RO","admin1":"41","admin2":"104635","admin3":"","admin4":"","population":686,"elevation":0,"gtopo30":48,"timezone":"Europe/Bucharest","moddate":"2013-04-21T00:00:00.000Z"},{"geonameid":680021,"name":"Cucuieţi-Moară","asciiname":"Cucuieti-Moara","alternatenames":"Cucueti-Moara,Cucuetii-Moara,Cucueţi-Moara,Cucuieti-Moara,Cucuieţi-Moară","latitude":"44.3333300","longitude":"26.3833300","fclass":"P","fcode":"PPL","country":"RO","cc2":"RO","admin1":"41","admin2":"104635","admin3":"","admin4":"","population":0,"elevation":0,"gtopo30":37,"timezone":"Europe/Bucharest","moddate":"2020-06-10T00:00:00.000Z"},{"geonameid":679073,"name":"Dorobanțu","asciiname":"Dorobantu","alternatenames":"Dorobanti,Dorobantul,Dorobanţi,Dorobanţul","latitude":"44.3541600","longitude":"26.3934100","fclass":"P","fcode":"PPL","country":"RO","cc2":"RO","admin1":"41","admin2":"104635","admin3":"","admin4":"","population":1275,"elevation":0,"gtopo30":53,"timezone":"Europe/Bucharest","moddate":"2013-04-21T00:00:00.000Z"},{"geonameid":670552,"name":"Plătăreşti","asciiname":"Plataresti","alternatenames":"Plataresti,Plătăreşti","latitude":"44.3500000","longitude":"26.3666700","fclass":"P","fcode":"PPLA2","country":"RO","cc2":"","admin1":"41","admin2":"104635","admin3":"","admin4":"","population":4260,"elevation":0,"gtopo30":40,"timezone":"Europe/Bucharest","moddate":"2012-06-12T00:00:00.000Z"},{"geonameid":670279,"name":"Podu Pitarului","asciiname":"Podu Pitarului","alternatenames":"Podu Pitarului,Podul Pitarului","latitude":"44.3404800","longitude":"26.3788900","fclass":"P","fcode":"PPL","country":"RO","cc2":"RO","admin1":"41","admin2":"104635","admin3":"","admin4":"","population":501,"elevation":0,"gtopo30":41,"timezone":"Europe/Bucharest","moddate":"2013-04-21T00:00:00.000Z"},{"geonameid":668966,"name":"Renaşterea","asciiname":"Renasterea","alternatenames":"Renascerea,Renasterea,Renaşterea","latitude":"44.3500000","longitude":"26.3833300","fclass":"P","fcode":"PPL","country":"RO","cc2":"","admin1":"41","admin2":"104635","admin3":"","admin4":"","population":0,"elevation":0,"gtopo30":52,"timezone":"Europe/Bucharest","moddate":"2020-06-10T00:00:00.000Z"}],"admin3":[],"alternateNames":[]},"__N_SSG":true}