{"pageProps":{"locale":"ro","admin2":{"geonameid":685472,"name":"Comuna Băneasa","country":"RO","admin1":"42","admin2":"101001","admin3":"","latitude":"44.0378500","longitude":"26.0607100"},"admin1":{"geonameid":677104,"name":"Giurgiu","admin1":"42"},"locations":[{"geonameid":685477,"name":"Băneasa","asciiname":"Baneasa","alternatenames":"Baneasa,Băneasa","latitude":"44.0461100","longitude":"26.0641700","fclass":"P","fcode":"PPLA2","country":"RO","cc2":"","admin1":"42","admin2":"101001","admin3":"","admin4":"","population":5582,"elevation":0,"gtopo30":92,"timezone":"Europe/Bucharest","moddate":"2012-06-12T00:00:00.000Z"},{"geonameid":677939,"name":"Frasinu","asciiname":"Frasinu","alternatenames":"Frasinu,Frasinul","latitude":"44.0258000","longitude":"26.0227700","fclass":"P","fcode":"PPL","country":"RO","cc2":"RO","admin1":"42","admin2":"101001","admin3":"","admin4":"","population":644,"elevation":0,"gtopo30":92,"timezone":"Europe/Bucharest","moddate":"2013-04-21T00:00:00.000Z"},{"geonameid":673603,"name":"Meletie","asciiname":"Meletie","alternatenames":"","latitude":"44.0500000","longitude":"26.0833300","fclass":"P","fcode":"PPL","country":"RO","cc2":"","admin1":"42","admin2":"101001","admin3":"","admin4":"","population":0,"elevation":0,"gtopo30":90,"timezone":"Europe/Bucharest","moddate":"2016-02-07T00:00:00.000Z"},{"geonameid":670855,"name":"Pietrele","asciiname":"Pietrele","alternatenames":"Petrile,Pietrele,Pietrile","latitude":"44.0625800","longitude":"26.1201900","fclass":"P","fcode":"PPL","country":"RO","cc2":"RO","admin1":"42","admin2":"101001","admin3":"","admin4":"","population":1462,"elevation":0,"gtopo30":51,"timezone":"Europe/Bucharest","moddate":"2013-04-21T00:00:00.000Z"},{"geonameid":667309,"name":"Sfântu Gheorghe","asciiname":"Sfantu Gheorghe","alternatenames":"Sfantu Gheorghe,Sfintu Gheorghe,Sfântu Gheorghe,Sfîntu Gheorghe","latitude":"44.0156600","longitude":"26.0328600","fclass":"P","fcode":"PPL","country":"RO","cc2":"RO","admin1":"42","admin2":"101001","admin3":"","admin4":"","population":370,"elevation":0,"gtopo30":56,"timezone":"Europe/Bucharest","moddate":"2013-04-21T00:00:00.000Z"}],"admin3":[],"alternateNames":[]},"__N_SSG":true}