{"pageProps":{"locale":"ro","admin2":{"geonameid":683923,"name":"Comuna Brăduţ","country":"RO","admin1":"15","admin2":"64041","admin3":"","latitude":"46.1257400","longitude":"25.6032900"},"admin1":{"geonameid":680428,"name":"Covasna","admin1":"15"},"locations":[{"geonameid":683924,"name":"Brăduţ","asciiname":"Bradut","alternatenames":"Bardocz,Bardócz,Bradut,Brăduţ","latitude":"46.1333300","longitude":"25.6166700","fclass":"P","fcode":"PPLA2","country":"RO","cc2":"","admin1":"15","admin2":"64041","admin3":"","admin4":"","population":4616,"elevation":0,"gtopo30":513,"timezone":"Europe/Bucharest","moddate":"2012-06-12T00:00:00.000Z"},{"geonameid":679271,"name":"Doboșeni","asciiname":"Doboseni","alternatenames":"Doboseni,Doboşeni,Szekelyszaldobos,Szèkelyszáldobos","latitude":"46.1243100","longitude":"25.5934700","fclass":"P","fcode":"PPL","country":"RO","cc2":"RO","admin1":"15","admin2":"64041","admin3":"","admin4":"","population":1409,"elevation":0,"gtopo30":495,"timezone":"Europe/Bucharest","moddate":"2013-04-21T00:00:00.000Z"},{"geonameid":678263,"name":"Filia","asciiname":"Filia","alternatenames":"Erdofule,Filia,Fule,Füle","latitude":"46.1440900","longitude":"25.6214000","fclass":"P","fcode":"PPL","country":"RO","cc2":"RO","admin1":"15","admin2":"64041","admin3":"","admin4":"","population":1312,"elevation":0,"gtopo30":518,"timezone":"Europe/Bucharest","moddate":"2013-04-21T00:00:00.000Z"},{"geonameid":665609,"name":"Tălișoara","asciiname":"Talisoara","alternatenames":"Olasztelek,Talisoara,Tălişoara","latitude":"46.1051600","longitude":"25.5887500","fclass":"P","fcode":"PPL","country":"RO","cc2":"RO","admin1":"15","admin2":"64041","admin3":"","admin4":"","population":773,"elevation":0,"gtopo30":495,"timezone":"Europe/Bucharest","moddate":"2013-04-21T00:00:00.000Z"}],"admin3":[],"alternateNames":[]},"__N_SSG":true}