{"pageProps":{"locale":"ro","admin2":{"geonameid":679246,"name":"Comuna Dobreşti","country":"RO","admin1":"17","admin2":"72098","admin3":"","latitude":"43.9677100","longitude":"23.9534100"},"admin1":{"geonameid":679134,"name":"jud. Dolj","admin1":"17"},"locations":[{"geonameid":683078,"name":"Căciulătești","asciiname":"Caciulatesti","alternatenames":"","latitude":"43.9381300","longitude":"23.9493100","fclass":"P","fcode":"PPL","country":"RO","cc2":"","admin1":"17","admin2":"72098","admin3":"","admin4":"","population":659,"elevation":0,"gtopo30":89,"timezone":"Europe/Bucharest","moddate":"2013-04-21T00:00:00.000Z"},{"geonameid":679255,"name":"Dobreşti","asciiname":"Dobresti","alternatenames":"","latitude":"43.9666700","longitude":"23.9500000","fclass":"P","fcode":"PPLA2","country":"RO","cc2":"","admin1":"17","admin2":"72098","admin3":"","admin4":"","population":2799,"elevation":0,"gtopo30":93,"timezone":"Europe/Bucharest","moddate":"2012-06-12T00:00:00.000Z"},{"geonameid":677249,"name":"Georocel","asciiname":"Georocel","alternatenames":"Georocel,Georocelul,Giorocel","latitude":"43.9812500","longitude":"23.9699100","fclass":"P","fcode":"PPL","country":"RO","cc2":"RO","admin1":"17","admin2":"72098","admin3":"","admin4":"","population":390,"elevation":0,"gtopo30":98,"timezone":"Europe/Bucharest","moddate":"2013-04-21T00:00:00.000Z"},{"geonameid":672598,"name":"Murta","asciiname":"Murta","alternatenames":"","latitude":"43.9822900","longitude":"23.9498500","fclass":"P","fcode":"PPL","country":"RO","cc2":"","admin1":"17","admin2":"72098","admin3":"","admin4":"","population":680,"elevation":0,"gtopo30":66,"timezone":"Europe/Bucharest","moddate":"2013-04-21T00:00:00.000Z"},{"geonameid":664877,"name":"Toceni","asciiname":"Toceni","alternatenames":"","latitude":"43.9646400","longitude":"23.9470000","fclass":"P","fcode":"PPL","country":"RO","cc2":"","admin1":"17","admin2":"72098","admin3":"","admin4":"","population":711,"elevation":0,"gtopo30":58,"timezone":"Europe/Bucharest","moddate":"2013-04-21T00:00:00.000Z"}],"admin3":[],"alternateNames":[]},"__N_SSG":true}