{"pageProps":{"locale":"ro","admin2":{"geonameid":672166,"name":"Comuna Noşlac","country":"RO","admin1":"01","admin2":"6048","admin3":"","latitude":"46.4130000","longitude":"23.9766800"},"admin1":{"geonameid":686581,"name":"Alba","admin1":"01"},"locations":[{"geonameid":682778,"name":"Căptălan","asciiname":"Captalan","alternatenames":"","latitude":"46.4093900","longitude":"23.9430700","fclass":"P","fcode":"PPL","country":"RO","cc2":"","admin1":"01","admin2":"6048","admin3":"","admin4":"","population":396,"elevation":0,"gtopo30":265,"timezone":"Europe/Bucharest","moddate":"2013-04-21T00:00:00.000Z"},{"geonameid":680905,"name":"Copand","asciiname":"Copand","alternatenames":"","latitude":"46.4201300","longitude":"23.9811600","fclass":"P","fcode":"PPL","country":"RO","cc2":"","admin1":"01","admin2":"6048","admin3":"","admin4":"","population":234,"elevation":0,"gtopo30":273,"timezone":"Europe/Bucharest","moddate":"2013-04-21T00:00:00.000Z"},{"geonameid":677748,"name":"Găbud","asciiname":"Gabud","alternatenames":"","latitude":"46.4093000","longitude":"24.0130800","fclass":"P","fcode":"PPL","country":"RO","cc2":"","admin1":"01","admin2":"6048","admin3":"","admin4":"","population":335,"elevation":0,"gtopo30":334,"timezone":"Europe/Bucharest","moddate":"2013-04-21T00:00:00.000Z"},{"geonameid":672167,"name":"Noşlac","asciiname":"Noslac","alternatenames":"Noslac,Noşlac","latitude":"46.4000000","longitude":"23.9333300","fclass":"P","fcode":"PPLA2","country":"RO","cc2":"","admin1":"01","admin2":"6048","admin3":"","admin4":"","population":1992,"elevation":0,"gtopo30":303,"timezone":"Europe/Bucharest","moddate":"2012-06-12T00:00:00.000Z"},{"geonameid":666140,"name":"Stâna de Mureş","asciiname":"Stana de Mures","alternatenames":"Ciuci,Ciuciu,Ciuciul,Stana de Mures,Stina de Mures,Stâna de Mureş,Stîna de Mureş","latitude":"46.4166700","longitude":"24.0000000","fclass":"P","fcode":"PPL","country":"RO","cc2":"RO","admin1":"01","admin2":"6048","admin3":"","admin4":"","population":0,"elevation":0,"gtopo30":344,"timezone":"Europe/Bucharest","moddate":"2020-03-08T00:00:00.000Z"},{"geonameid":665774,"name":"Şumud","asciiname":"Sumud","alternatenames":"","latitude":"46.4000000","longitude":"23.9333300","fclass":"P","fcode":"PPL","country":"RO","cc2":"","admin1":"01","admin2":"6048","admin3":"","admin4":"","population":0,"elevation":0,"gtopo30":303,"timezone":"Europe/Bucharest","moddate":"2016-02-07T00:00:00.000Z"},{"geonameid":663830,"name":"Valea Ciuciului","asciiname":"Valea Ciuciului","alternatenames":"","latitude":"46.4080200","longitude":"23.9943900","fclass":"P","fcode":"PPL","country":"RO","cc2":"","admin1":"01","admin2":"6048","admin3":"","admin4":"","population":91,"elevation":0,"gtopo30":343,"timezone":"Europe/Bucharest","moddate":"2013-04-20T00:00:00.000Z"}],"admin3":[],"alternateNames":[]},"__N_SSG":true}