{"pageProps":{"locale":"ro","admin2":{"geonameid":662532,"name":"Comuna Voila","country":"RO","admin1":"09","admin2":"42307","admin3":"","latitude":"45.8181500","longitude":"24.8406000"},"admin1":{"geonameid":683843,"name":"Braşov","admin1":"09"},"locations":[{"geonameid":681828,"name":"Cincșor","asciiname":"Cincsor","alternatenames":"Kissink","latitude":"45.8372900","longitude":"24.8332200","fclass":"P","fcode":"PPL","country":"RO","cc2":"","admin1":"09","admin2":"42307","admin3":"","admin4":"","population":589,"elevation":0,"gtopo30":419,"timezone":"Europe/Bucharest","moddate":"2015-11-19T00:00:00.000Z"},{"geonameid":678832,"name":"Dridif","asciiname":"Dridif","alternatenames":"Dridif,Dridifu","latitude":"45.8215000","longitude":"24.8831700","fclass":"P","fcode":"PPL","country":"RO","cc2":"RO","admin1":"09","admin2":"42307","admin3":"","admin4":"","population":0,"elevation":0,"gtopo30":424,"timezone":"Europe/Bucharest","moddate":"2016-02-07T00:00:00.000Z"},{"geonameid":674546,"name":"Ludișor","asciiname":"Ludisor","alternatenames":"","latitude":"45.7752900","longitude":"24.8873600","fclass":"P","fcode":"PPL","country":"RO","cc2":"","admin1":"09","admin2":"42307","admin3":"","admin4":"","population":241,"elevation":0,"gtopo30":482,"timezone":"Europe/Bucharest","moddate":"2013-04-21T00:00:00.000Z"},{"geonameid":667142,"name":"Sâmbăta de Jos","asciiname":"Sambata de Jos","alternatenames":"Alsoszombatfalva,Alsószombatfalva,Sambata-de Jos,Simbata Apuseana,Simbata de Jos,Sâmbăta-de Jos,Sîmbăta Apuseană,Sîmbăta de Jos","latitude":"45.8113000","longitude":"24.8210400","fclass":"P","fcode":"PPL","country":"RO","cc2":"RO","admin1":"09","admin2":"42307","admin3":"","admin4":"","population":548,"elevation":0,"gtopo30":421,"timezone":"Europe/Bucharest","moddate":"2014-01-19T00:00:00.000Z"},{"geonameid":662533,"name":"Voila","asciiname":"Voila","alternatenames":"Voila","latitude":"45.8183900","longitude":"24.8421500","fclass":"P","fcode":"PPLA2","country":"RO","cc2":"","admin1":"09","admin2":"42307","admin3":"","admin4":"","population":4513,"elevation":0,"gtopo30":421,"timezone":"Europe/Bucharest","moddate":"2012-06-12T00:00:00.000Z"},{"geonameid":662500,"name":"Voivodeni","asciiname":"Voivodeni","alternatenames":"","latitude":"45.7799100","longitude":"24.8614600","fclass":"P","fcode":"PPL","country":"RO","cc2":"","admin1":"09","admin2":"42307","admin3":"","admin4":"","population":556,"elevation":0,"gtopo30":470,"timezone":"Europe/Bucharest","moddate":"2013-04-20T00:00:00.000Z"},{"geonameid":662493,"name":"Voivodenii Mari","asciiname":"Voivodenii Mari","alternatenames":"","latitude":"45.7786600","longitude":"24.8572500","fclass":"P","fcode":"PPL","country":"RO","cc2":"","admin1":"09","admin2":"42307","admin3":"","admin4":"","population":0,"elevation":0,"gtopo30":471,"timezone":"Europe/Bucharest","moddate":"2016-02-07T00:00:00.000Z"},{"geonameid":662492,"name":"Voivodenii Mici","asciiname":"Voivodenii Mici","alternatenames":"","latitude":"45.7666700","longitude":"24.8500000","fclass":"P","fcode":"PPLX","country":"RO","cc2":"","admin1":"09","admin2":"42307","admin3":"","admin4":"","population":0,"elevation":0,"gtopo30":484,"timezone":"Europe/Bucharest","moddate":"2016-02-07T00:00:00.000Z"}],"admin3":[],"alternateNames":[]},"__N_SSG":true}