{"pageProps":{"locale":"ro","admin2":{"geonameid":674539,"name":"Oraş Luduş","country":"RO","admin1":"27","admin2":"114710","admin3":"","latitude":"46.5028000","longitude":"24.0823400"},"admin1":{"geonameid":672628,"name":"Mureş","admin1":"27"},"locations":[{"geonameid":686022,"name":"Avrămești","asciiname":"Avramesti","alternatenames":"","latitude":"46.5362100","longitude":"24.0992800","fclass":"P","fcode":"PPL","country":"RO","cc2":"","admin1":"27","admin2":"114710","admin3":"","admin4":"","population":208,"elevation":0,"gtopo30":328,"timezone":"Europe/Bucharest","moddate":"2013-04-21T00:00:00.000Z"},{"geonameid":681783,"name":"Cioarga","asciiname":"Cioarga","alternatenames":"","latitude":"46.4953100","longitude":"24.0716200","fclass":"P","fcode":"PPL","country":"RO","cc2":"","admin1":"27","admin2":"114710","admin3":"","admin4":"","population":209,"elevation":0,"gtopo30":370,"timezone":"Europe/Bucharest","moddate":"2013-04-21T00:00:00.000Z"},{"geonameid":681373,"name":"Ciurgău","asciiname":"Ciurgau","alternatenames":"Csorgo,Csorgó","latitude":"46.5019900","longitude":"24.1031400","fclass":"P","fcode":"PPL","country":"RO","cc2":"","admin1":"27","admin2":"114710","admin3":"","admin4":"","population":93,"elevation":0,"gtopo30":280,"timezone":"Europe/Bucharest","moddate":"2015-12-16T00:00:00.000Z"},{"geonameid":677826,"name":"Fundătura","asciiname":"Fundatura","alternatenames":"","latitude":"46.5432900","longitude":"24.0435700","fclass":"P","fcode":"PPL","country":"RO","cc2":"","admin1":"27","admin2":"114710","admin3":"","admin4":"","population":5,"elevation":0,"gtopo30":411,"timezone":"Europe/Bucharest","moddate":"2013-04-21T00:00:00.000Z"},{"geonameid":677482,"name":"Gheja","asciiname":"Gheja","alternatenames":"","latitude":"46.4472700","longitude":"24.0649100","fclass":"P","fcode":"PPL","country":"RO","cc2":"","admin1":"27","admin2":"114710","admin3":"","admin4":"","population":1429,"elevation":0,"gtopo30":272,"timezone":"Europe/Bucharest","moddate":"2013-04-21T00:00:00.000Z"},{"geonameid":674541,"name":"Luduş","asciiname":"Ludus","alternatenames":"Ludas,Ludos,Ludus,Luduş","latitude":"46.4833300","longitude":"24.1000000","fclass":"P","fcode":"PPLA2","country":"RO","cc2":"","admin1":"27","admin2":"114710","admin3":"","admin4":"","population":17165,"elevation":0,"gtopo30":272,"timezone":"Europe/Bucharest","moddate":"2020-02-12T00:00:00.000Z"},{"geonameid":668619,"name":"Roșiori","asciiname":"Rosiori","alternatenames":"","latitude":"46.5143300","longitude":"24.0947600","fclass":"P","fcode":"PPL","country":"RO","cc2":"","admin1":"27","admin2":"114710","admin3":"","admin4":"","population":849,"elevation":0,"gtopo30":293,"timezone":"Europe/Bucharest","moddate":"2013-04-21T00:00:00.000Z"}],"admin3":[],"alternateNames":[]},"__N_SSG":true}