{"pageProps":{"locale":"en","admin2":{"geonameid":2634354,"name":"West Lothian","country":"GB","admin1":"SCT","admin2":"W9","admin3":"","latitude":"55.9166700","longitude":"-3.5000000"},"admin1":{"geonameid":2638360,"name":"Scotland","admin1":"SCT"},"locations":[{"geonameid":11592106,"name":"Addiebrownhill","admin3":""},{"geonameid":2657681,"name":"Addiewell","admin3":""},{"geonameid":2657067,"name":"Armadale","admin3":""},{"geonameid":9257712,"name":"Ballencrieff","admin3":""},{"geonameid":2656169,"name":"Bathgate","admin3":""},{"geonameid":2655879,"name":"Bents","admin3":""},{"geonameid":2655523,"name":"Blackburn","admin3":""},{"geonameid":11592119,"name":"Blackridge","admin3":""},{"geonameid":11592120,"name":"Bridgend","admin3":""},{"geonameid":2654480,"name":"Broxburn","admin3":""},{"geonameid":2651949,"name":"Crofthead","admin3":""},{"geonameid":2651574,"name":"Dalmeny","admin3":""},{"geonameid":11592141,"name":"Dechmont","admin3":""},{"geonameid":2650489,"name":"East Calder","admin3":""},{"geonameid":11592279,"name":"East Whitburn","admin3":""},{"geonameid":2649624,"name":"Fauldhouse","admin3":""},{"geonameid":2648218,"name":"Grange","admin3":""},{"geonameid":2645241,"name":"Kirknewton","admin3":""},{"geonameid":2644444,"name":"Linlithgow","admin3":""},{"geonameid":2644204,"name":"Livingston","admin3":""},{"geonameid":11592151,"name":"Longridge","admin3":""},{"geonameid":2642632,"name":"Mid Calder","admin3":""},{"geonameid":2640318,"name":"Philpstoun","admin3":""},{"geonameid":11592289,"name":"Polbeth","admin3":""},{"geonameid":2639852,"name":"Pumpherston","admin3":""},{"geonameid":11592211,"name":"Seafield","admin3":""},{"geonameid":11592214,"name":"Stoneyburn","admin3":""},{"geonameid":2635653,"name":"Torphichen","admin3":""},{"geonameid":2635159,"name":"Uphall","admin3":""},{"geonameid":2634477,"name":"West Calder","admin3":""},{"geonameid":2634417,"name":"Westfield","admin3":""},{"geonameid":2634137,"name":"Whitburn","admin3":""},{"geonameid":11592024,"name":"Winchburgh","admin3":""}],"admin3":[],"alternateNames":[]},"__N_SSG":true}