{"pageProps":{"locale":"ro","admin2":{"geonameid":662821,"name":"Comuna Vânători Neamţ","country":"RO","admin1":"28","admin2":"125016","admin3":"","latitude":"47.2353400","longitude":"26.2770000"},"admin1":{"geonameid":672460,"name":"Neamţ","admin1":"28"},"locations":[{"geonameid":680968,"name":"Condreni","asciiname":"Condreni","alternatenames":"","latitude":"47.2000000","longitude":"26.3333300","fclass":"P","fcode":"PPLX","country":"RO","cc2":"","admin1":"28","admin2":"125016","admin3":"","admin4":"","population":0,"elevation":0,"gtopo30":391,"timezone":"Europe/Bucharest","moddate":"2016-02-07T00:00:00.000Z"},{"geonameid":674463,"name":"Lunca","asciiname":"Lunca","alternatenames":"","latitude":"47.2276500","longitude":"26.2997900","fclass":"P","fcode":"PPL","country":"RO","cc2":"","admin1":"28","admin2":"125016","admin3":"","admin4":"","population":1202,"elevation":0,"gtopo30":407,"timezone":"Europe/Bucharest","moddate":"2013-04-21T00:00:00.000Z"},{"geonameid":673240,"name":"Mânăstirea Neamţ","asciiname":"Manastirea Neamt","alternatenames":"Manastirea Neamt,Manastirea Neamtu,Manastirea-Neamt,Minastirea Neamt,Mânăstirea Neamţ,Mânăstirea Neamţu,Mânăstirea-Neamţ,Mînăstirea Neamţ,Schitu-Icoana,Secu,Sihastria,Silipia","latitude":"47.2666700","longitude":"26.2000000","fclass":"P","fcode":"PPL","country":"RO","cc2":"RO","admin1":"28","admin2":"125016","admin3":"","admin4":"","population":0,"elevation":0,"gtopo30":499,"timezone":"Europe/Bucharest","moddate":"2020-03-08T00:00:00.000Z"},{"geonameid":672317,"name":"Nemțișor","asciiname":"Nemtisor","alternatenames":"Nemtisor,Nemtisoru,Nemţişor,Nemţişoru","latitude":"47.2396200","longitude":"26.2720900","fclass":"P","fcode":"PPL","country":"RO","cc2":"RO","admin1":"28","admin2":"125016","admin3":"","admin4":"","population":1595,"elevation":0,"gtopo30":444,"timezone":"Europe/Bucharest","moddate":"2013-04-21T00:00:00.000Z"},{"geonameid":662822,"name":"Vânători-Neamţ","asciiname":"Vanatori-Neamt","alternatenames":"Draguta,Drahutel,Drăguţa,Drăhutel,Schitu-Procov,Schitu-Sihlea,Schitu-Vovidenia,Schitul Sihlea,Todiriteni,Todiriţeni,Tudoriteni,Ungureni,Valea Drahutel,Valea Drăhuţel,Vanatori-Neamt,Vanatori-Neamtu,Vanatorii-Neamt,Vinatori-Neamt,Vânători-Neamţ,Vânători-Neamţu,Vânătorii-Neamţ,Vînători-Neamţ","latitude":"47.2000000","longitude":"26.3166700","fclass":"P","fcode":"PPL","country":"RO","cc2":"","admin1":"28","admin2":"125016","admin3":"","admin4":"","population":8707,"elevation":0,"gtopo30":445,"timezone":"Europe/Bucharest","moddate":"2020-03-08T00:00:00.000Z"}],"admin3":[],"alternateNames":[]},"__N_SSG":true}