{"pageProps":{"locale":"ro","admin2":{"geonameid":664608,"name":"Comuna Trifeşti","country":"RO","admin1":"28","admin2":"124723","admin3":"","latitude":"46.9090600","longitude":"26.8331100"},"admin1":{"geonameid":672460,"name":"Neamţ","admin1":"28"},"locations":[{"geonameid":683850,"name":"Brănişteni","asciiname":"Branisteni","alternatenames":"","latitude":"46.9166700","longitude":"26.7833300","fclass":"P","fcode":"PPL","country":"RO","cc2":"","admin1":"28","admin2":"124723","admin3":"","admin4":"","population":0,"elevation":0,"gtopo30":280,"timezone":"Europe/Bucharest","moddate":"2016-02-07T00:00:00.000Z"},{"geonameid":683849,"name":"Brăniştenii de Jos","asciiname":"Branistenii de Jos","alternatenames":"","latitude":"46.9166700","longitude":"26.7833300","fclass":"P","fcode":"PPLX","country":"RO","cc2":"","admin1":"28","admin2":"124723","admin3":"","admin4":"","population":0,"elevation":0,"gtopo30":280,"timezone":"Europe/Bucharest","moddate":"2016-02-07T00:00:00.000Z"},{"geonameid":683848,"name":"Brăniştenii de Sus","asciiname":"Branistenii de Sus","alternatenames":"","latitude":"46.9166700","longitude":"26.7833300","fclass":"P","fcode":"PPLX","country":"RO","cc2":"","admin1":"28","admin2":"124723","admin3":"","admin4":"","population":0,"elevation":0,"gtopo30":280,"timezone":"Europe/Bucharest","moddate":"2016-02-07T00:00:00.000Z"},{"geonameid":677349,"name":"Ghiniţeşti","asciiname":"Ghinitesti","alternatenames":"","latitude":"46.9166700","longitude":"26.7833300","fclass":"P","fcode":"PPLX","country":"RO","cc2":"","admin1":"28","admin2":"124723","admin3":"","admin4":"","population":0,"elevation":0,"gtopo30":280,"timezone":"Europe/Bucharest","moddate":"2016-02-07T00:00:00.000Z"},{"geonameid":673109,"name":"Miron Costin","asciiname":"Miron Costin","alternatenames":"","latitude":"46.9203000","longitude":"26.8056700","fclass":"P","fcode":"PPL","country":"RO","cc2":"","admin1":"28","admin2":"124723","admin3":"","admin4":"","population":1939,"elevation":0,"gtopo30":243,"timezone":"Europe/Bucharest","moddate":"2013-04-21T00:00:00.000Z"},{"geonameid":669017,"name":"Rediu","asciiname":"Rediu","alternatenames":"","latitude":"46.8833300","longitude":"26.8666700","fclass":"P","fcode":"PPL","country":"RO","cc2":"","admin1":"28","admin2":"124723","admin3":"","admin4":"","population":0,"elevation":0,"gtopo30":207,"timezone":"Europe/Bucharest","moddate":"2016-02-07T00:00:00.000Z"},{"geonameid":666567,"name":"Sofrăceşti","asciiname":"Sofracesti","alternatenames":"","latitude":"46.8666700","longitude":"26.8666700","fclass":"P","fcode":"PPL","country":"RO","cc2":"","admin1":"28","admin2":"124723","admin3":"","admin4":"","population":0,"elevation":0,"gtopo30":206,"timezone":"Europe/Bucharest","moddate":"2016-02-07T00:00:00.000Z"},{"geonameid":664610,"name":"Trifeşti","asciiname":"Trifesti","alternatenames":"Trifesti,Trifeşti","latitude":"46.9166700","longitude":"26.8166700","fclass":"P","fcode":"PPLA2","country":"RO","cc2":"","admin1":"28","admin2":"124723","admin3":"","admin4":"","population":5018,"elevation":0,"gtopo30":235,"timezone":"Europe/Bucharest","moddate":"2012-06-12T00:00:00.000Z"}],"admin3":[],"alternateNames":[]},"__N_SSG":true}