{"pageProps":{"locale":"ro","admin2":{"geonameid":679094,"name":"Comuna Dor Mărunt","country":"RO","admin1":"41","admin2":"93370","admin3":"","latitude":"44.4411600","longitude":"26.9941700"},"admin1":{"geonameid":683016,"name":"Călăraşi","admin1":"41"},"locations":[{"geonameid":679406,"name":"Dâlga","asciiname":"Dalga","alternatenames":"","latitude":"44.4422700","longitude":"27.0730400","fclass":"P","fcode":"PPL","country":"RO","cc2":"","admin1":"41","admin2":"93370","admin3":"","admin4":"","population":707,"elevation":0,"gtopo30":49,"timezone":"Europe/Bucharest","moddate":"2015-11-23T00:00:00.000Z"},{"geonameid":677604,"name":"Dâlga-Gară","asciiname":"Dalga-Gara","alternatenames":"","latitude":"44.4333300","longitude":"27.0500000","fclass":"P","fcode":"PPL","country":"RO","cc2":"","admin1":"41","admin2":"93370","admin3":"","admin4":"","population":1449,"elevation":0,"gtopo30":48,"timezone":"Europe/Bucharest","moddate":"2015-11-23T00:00:00.000Z"},{"geonameid":679095,"name":"Dor Mărunt","asciiname":"Dor Marunt","alternatenames":"Dor Marunt,Dor Mărunt","latitude":"44.4500000","longitude":"26.9166700","fclass":"P","fcode":"PPLA2","country":"RO","cc2":"","admin1":"41","admin2":"93370","admin3":"","admin4":"","population":6806,"elevation":0,"gtopo30":49,"timezone":"Europe/Bucharest","moddate":"2012-06-12T00:00:00.000Z"},{"geonameid":675601,"name":"Înfrățirea","asciiname":"Infratirea","alternatenames":"Infratirea,Infratzirea,Înfrăţirea","latitude":"44.4072700","longitude":"26.9912800","fclass":"P","fcode":"PPL","country":"RO","cc2":"RO","admin1":"41","admin2":"93370","admin3":"","admin4":"","population":437,"elevation":0,"gtopo30":47,"timezone":"Europe/Bucharest","moddate":"2013-04-21T00:00:00.000Z"},{"geonameid":671949,"name":"Ogoru","asciiname":"Ogoru","alternatenames":"Ogoru,Rainic","latitude":"44.4554500","longitude":"26.9043100","fclass":"P","fcode":"PPL","country":"RO","cc2":"RO","admin1":"41","admin2":"93370","admin3":"","admin4":"","population":440,"elevation":0,"gtopo30":52,"timezone":"Europe/Bucharest","moddate":"2013-04-21T00:00:00.000Z"},{"geonameid":671169,"name":"Pelinu","asciiname":"Pelinu","alternatenames":"Pelinu,Pelinul","latitude":"44.4628800","longitude":"27.0133800","fclass":"P","fcode":"PPL","country":"RO","cc2":"RO","admin1":"41","admin2":"93370","admin3":"","admin4":"","population":167,"elevation":0,"gtopo30":48,"timezone":"Europe/Bucharest","moddate":"2013-04-21T00:00:00.000Z"},{"geonameid":667224,"name":"Sighireanu","asciiname":"Sighireanu","alternatenames":"Sighireanu,Sighireanul","latitude":"44.4333300","longitude":"26.9500000","fclass":"P","fcode":"PPLX","country":"RO","cc2":"","admin1":"41","admin2":"93370","admin3":"","admin4":"","population":0,"elevation":0,"gtopo30":50,"timezone":"Europe/Bucharest","moddate":"2016-02-07T00:00:00.000Z"}],"admin3":[],"alternateNames":[]},"__N_SSG":true}