{"pageProps":{"locale":"ro","admin2":{"geonameid":665735,"name":"Comuna Surdila-Greci","country":"RO","admin1":"08","admin2":"42771","admin3":"","latitude":"45.0728800","longitude":"27.2684000"},"admin1":{"geonameid":683901,"name":"Brăila","admin1":"08"},"locations":[{"geonameid":683810,"name":"Brateșu Vechi","asciiname":"Bratesu Vechi","alternatenames":"Bratesu,Bratesu Vechi,Bratesul-Vechi,Bratesul-Vechiu,Brateşu,Brateşu Vechi,Brateşul-Vechi,Brateşul-Vechiu","latitude":"45.0653100","longitude":"27.2924000","fclass":"P","fcode":"PPL","country":"RO","cc2":"RO","admin1":"08","admin2":"42771","admin3":"","admin4":"","population":147,"elevation":0,"gtopo30":40,"timezone":"Europe/Bucharest","moddate":"2013-04-21T00:00:00.000Z"},{"geonameid":678387,"name":"Făurei Sat","asciiname":"Faurei Sat","alternatenames":"Faurei,Faurei-Sat,Făurei,Făurei-Sat","latitude":"45.0582000","longitude":"27.2254200","fclass":"P","fcode":"PPL","country":"RO","cc2":"RO","admin1":"08","admin2":"42771","admin3":"","admin4":"","population":452,"elevation":0,"gtopo30":44,"timezone":"Europe/Bucharest","moddate":"2013-04-21T00:00:00.000Z"},{"geonameid":676011,"name":"Horia","asciiname":"Horia","alternatenames":"","latitude":"45.1039200","longitude":"27.2942200","fclass":"P","fcode":"PPL","country":"RO","cc2":"","admin1":"08","admin2":"42771","admin3":"","admin4":"","population":415,"elevation":0,"gtopo30":42,"timezone":"Europe/Bucharest","moddate":"2013-04-21T00:00:00.000Z"},{"geonameid":665736,"name":"Surdila-Greci","asciiname":"Surdila-Greci","alternatenames":"Greci,Surdila-Greci","latitude":"45.0666700","longitude":"27.2666700","fclass":"P","fcode":"PPLA2","country":"RO","cc2":"","admin1":"08","admin2":"42771","admin3":"","admin4":"","population":1635,"elevation":0,"gtopo30":39,"timezone":"Europe/Bucharest","moddate":"2012-06-12T00:00:00.000Z"}],"admin3":[],"alternateNames":[]},"__N_SSG":true}