{"pageProps":{"locale":"ro","admin2":{"geonameid":671335,"name":"Comuna Parincea","country":"RO","admin1":"04","admin2":"24089","admin3":"","latitude":"46.4784100","longitude":"27.1287700"},"admin1":{"geonameid":685947,"name":"Bacău","admin1":"04"},"locations":[{"geonameid":684836,"name":"Barna","asciiname":"Barna","alternatenames":"Barna,Bira,Birna,Bârna,Bîra,Bîrna","latitude":"46.4956500","longitude":"27.1686700","fclass":"P","fcode":"PPL","country":"RO","cc2":"","admin1":"04","admin2":"24089","admin3":"","admin4":"","population":32,"elevation":0,"gtopo30":316,"timezone":"Europe/Bucharest","moddate":"2015-11-13T00:00:00.000Z"},{"geonameid":675792,"name":"Iazul","asciiname":"Iazul","alternatenames":"Catalusa,Catelusa,Căţeluşa,Căţăluşa,Iazul","latitude":"46.4666700","longitude":"27.1000000","fclass":"P","fcode":"PPLX","country":"RO","cc2":"","admin1":"04","admin2":"24089","admin3":"","admin4":"","population":0,"elevation":0,"gtopo30":216,"timezone":"Europe/Bucharest","moddate":"2016-02-07T00:00:00.000Z"},{"geonameid":673310,"name":"Mileştii de Jos","asciiname":"Milestii de Jos","alternatenames":"Milesti-de Jos,Milestii de Jos,Mileşti-de Jos,Mileştii de Jos","latitude":"46.4796500","longitude":"27.0721100","fclass":"P","fcode":"PPL","country":"RO","cc2":"","admin1":"04","admin2":"24089","admin3":"","admin4":"","population":0,"elevation":0,"gtopo30":221,"timezone":"Europe/Bucharest","moddate":"2015-11-13T00:00:00.000Z"},{"geonameid":673309,"name":"Mileștii de Sus","asciiname":"Milestii de Sus","alternatenames":"Burdugani,Milesti-de Sus","latitude":"46.4934300","longitude":"27.0725400","fclass":"P","fcode":"PPL","country":"RO","cc2":"","admin1":"04","admin2":"24089","admin3":"","admin4":"","population":118,"elevation":0,"gtopo30":231,"timezone":"Europe/Bucharest","moddate":"2015-11-13T00:00:00.000Z"},{"geonameid":672516,"name":"Nănești","asciiname":"Nanesti","alternatenames":"Nanesti,Nanesti-Deal,Năneşti,Năneşti-Deal","latitude":"46.4548300","longitude":"27.1139000","fclass":"P","fcode":"PPL","country":"RO","cc2":"RO","admin1":"04","admin2":"24089","admin3":"","admin4":"","population":835,"elevation":0,"gtopo30":247,"timezone":"Europe/Bucharest","moddate":"2013-04-21T00:00:00.000Z"},{"geonameid":672513,"name":"Năneşti-Vale","asciiname":"Nanesti-Vale","alternatenames":"","latitude":"46.4833300","longitude":"27.1000000","fclass":"P","fcode":"PPL","country":"RO","cc2":"","admin1":"04","admin2":"24089","admin3":"","admin4":"","population":0,"elevation":0,"gtopo30":216,"timezone":"Europe/Bucharest","moddate":"2016-02-07T00:00:00.000Z"},{"geonameid":672495,"name":"Năstăseni","asciiname":"Nastaseni","alternatenames":"","latitude":"46.4777000","longitude":"27.1902500","fclass":"P","fcode":"PPL","country":"RO","cc2":"","admin1":"04","admin2":"24089","admin3":"","admin4":"","population":121,"elevation":0,"gtopo30":307,"timezone":"Europe/Bucharest","moddate":"2013-04-21T00:00:00.000Z"},{"geonameid":671337,"name":"Parincea","asciiname":"Parincea","alternatenames":"Parincea,Parincea-Tirg,Parincea-Tîrg","latitude":"46.4833300","longitude":"27.1000000","fclass":"P","fcode":"PPLA2","country":"RO","cc2":"","admin1":"04","admin2":"24089","admin3":"","admin4":"","population":3836,"elevation":0,"gtopo30":216,"timezone":"Europe/Bucharest","moddate":"2012-06-12T00:00:00.000Z"},{"geonameid":671334,"name":"Parincea-Sat","asciiname":"Parincea-Sat","alternatenames":"","latitude":"46.4833300","longitude":"27.1000000","fclass":"P","fcode":"PPL","country":"RO","cc2":"","admin1":"04","admin2":"24089","admin3":"","admin4":"","population":0,"elevation":0,"gtopo30":216,"timezone":"Europe/Bucharest","moddate":"2016-02-07T00:00:00.000Z"},{"geonameid":670215,"name":"Poieni","asciiname":"Poieni","alternatenames":"","latitude":"46.4808700","longitude":"27.1707700","fclass":"P","fcode":"PPL","country":"RO","cc2":"","admin1":"04","admin2":"24089","admin3":"","admin4":"","population":88,"elevation":0,"gtopo30":291,"timezone":"Europe/Bucharest","moddate":"2015-11-13T00:00:00.000Z"},{"geonameid":667822,"name":"Satu Nou","asciiname":"Satu Nou","alternatenames":"Parlituri,Pirlituri,Pârlituri,Pîrlituri","latitude":"46.5034600","longitude":"27.1650400","fclass":"P","fcode":"PPL","country":"RO","cc2":"","admin1":"04","admin2":"24089","admin3":"","admin4":"","population":73,"elevation":0,"gtopo30":353,"timezone":"Europe/Bucharest","moddate":"2015-11-15T00:00:00.000Z"},{"geonameid":663277,"name":"Văleni","asciiname":"Valeni","alternatenames":"","latitude":"46.4661200","longitude":"27.0775800","fclass":"P","fcode":"PPL","country":"RO","cc2":"","admin1":"04","admin2":"24089","admin3":"","admin4":"","population":640,"elevation":0,"gtopo30":173,"timezone":"Europe/Bucharest","moddate":"2013-04-20T00:00:00.000Z"},{"geonameid":662761,"name":"Vârlăneşti","asciiname":"Varlanesti","alternatenames":"Varlanesti,Virlanesti,Vârlăneşti,Vîrlăneşti","latitude":"46.4666700","longitude":"27.1666700","fclass":"P","fcode":"PPL","country":"RO","cc2":"RO","admin1":"04","admin2":"24089","admin3":"","admin4":"","population":0,"elevation":0,"gtopo30":412,"timezone":"Europe/Bucharest","moddate":"2020-03-08T00:00:00.000Z"},{"geonameid":662596,"name":"Vladnic","asciiname":"Vladnic","alternatenames":"","latitude":"46.4454200","longitude":"27.1381600","fclass":"P","fcode":"PPL","country":"RO","cc2":"","admin1":"04","admin2":"24089","admin3":"","admin4":"","population":941,"elevation":0,"gtopo30":246,"timezone":"Europe/Bucharest","moddate":"2013-04-20T00:00:00.000Z"}],"admin3":[],"alternateNames":[]},"__N_SSG":true}