{"pageProps":{"locale":"en","admin2":{"geonameid":3333137,"name":"Calderdale","country":"GB","admin1":"ENG","admin2":"C2","admin3":"","latitude":"53.7000000","longitude":"-2.0000000","localeAltName":"Calderdale"},"admin1":{"geonameid":6269131,"name":"England","admin1":"ENG","localeAltName":"England"},"locations":[{"geonameid":2656329,"name":"Barkisland","asciiname":"Barkisland","alternatenames":"","latitude":"53.6761400","longitude":"-1.9184000","fclass":"P","fcode":"PPL","country":"GB","cc2":"","admin1":"ENG","admin2":"C2","admin3":"00CY005","admin4":"","population":1004,"elevation":0,"gtopo30":230,"timezone":"Europe/London","moddate":"2017-06-12T00:00:00.000Z"},{"geonameid":2654715,"name":"Brighouse","asciiname":"Brighouse","alternatenames":"Brigaus,Бригаус,بریج‌هاوس","latitude":"53.7032200","longitude":"-1.7842800","fclass":"P","fcode":"PPL","country":"GB","cc2":"","admin1":"ENG","admin2":"C2","admin3":"00CZ003","admin4":"","population":32872,"elevation":0,"gtopo30":80,"timezone":"Europe/London","moddate":"2011-03-03T00:00:00.000Z"},{"geonameid":2652360,"name":"Cornholme","asciiname":"Cornholme","alternatenames":"Cornholme","latitude":"53.7323000","longitude":"-2.1385100","fclass":"P","fcode":"PPL","country":"GB","cc2":"","admin1":"ENG","admin2":"C2","admin3":"00CY006","admin4":"","population":1690,"elevation":0,"gtopo30":190,"timezone":"Europe/London","moddate":"2017-06-12T00:00:00.000Z"},{"geonameid":11611428,"name":"Cragg vale","asciiname":"Cragg vale","alternatenames":"","latitude":"53.7061600","longitude":"-1.9993400","fclass":"P","fcode":"PPL","country":"GB","cc2":"","admin1":"ENG","admin2":"C2","admin3":"00CY003","admin4":"","population":650,"elevation":0,"gtopo30":192,"timezone":"Europe/London","moddate":"2017-07-24T00:00:00.000Z"},{"geonameid":2650308,"name":"Eastwood","asciiname":"Eastwood","alternatenames":"Eastwood","latitude":"53.7166700","longitude":"-2.0500000","fclass":"P","fcode":"PPL","country":"GB","cc2":"","admin1":"ENG","admin2":"C2","admin3":"00CY006","admin4":"","population":0,"elevation":0,"gtopo30":222,"timezone":"Europe/London","moddate":"2016-06-22T00:00:00.000Z"},{"geonameid":2650110,"name":"Elland","asciiname":"Elland","alternatenames":"aylnd  ywrkshr ghrby,ایلند، یورکشر غربی","latitude":"53.6851000","longitude":"-1.8387800","fclass":"P","fcode":"PPL","country":"GB","cc2":"","admin1":"ENG","admin2":"C2","admin3":"00CY005","admin4":"","population":15625,"elevation":0,"gtopo30":105,"timezone":"Europe/London","moddate":"2017-06-12T00:00:00.000Z"},{"geonameid":2649804,"name":"Exley","asciiname":"Exley","alternatenames":"","latitude":"53.6986100","longitude":"-1.8524100","fclass":"P","fcode":"PPLX","country":"GB","cc2":"","admin1":"ENG","admin2":"C2","admin3":"00CY005","admin4":"","population":0,"elevation":0,"gtopo30":118,"timezone":"Europe/London","moddate":"2011-03-03T00:00:00.000Z"},{"geonameid":2647933,"name":"Greetland","asciiname":"Greetland","alternatenames":"Greetland","latitude":"53.6870900","longitude":"-1.8741600","fclass":"P","fcode":"PPL","country":"GB","cc2":"","admin1":"ENG","admin2":"C2","admin3":"00CY005","admin4":"","population":0,"elevation":0,"gtopo30":154,"timezone":"Europe/London","moddate":"2011-03-03T00:00:00.000Z"},{"geonameid":2647632,"name":"Halifax","asciiname":"Halifax","alternatenames":"Galifaks,Halifax,Halifax i England,Khalifaks,ha li fa ke si,haellipaegseu,harifakusu,hlyfks,Галифакс,Халифакс,האליפאקס,هلیفکس,ハリファクス,哈利法克斯,핼리팩스","latitude":"53.7166700","longitude":"-1.8500000","fclass":"P","fcode":"PPLA2","country":"GB","cc2":"","admin1":"ENG","admin2":"C2","admin3":"","admin4":"","population":82624,"elevation":0,"gtopo30":150,"timezone":"Europe/London","moddate":"2010-10-16T00:00:00.000Z"},{"geonameid":2647207,"name":"Hebden Bridge","asciiname":"Hebden Bridge","alternatenames":"","latitude":"53.7409300","longitude":"-2.0133700","fclass":"P","fcode":"PPL","country":"GB","cc2":"","admin1":"ENG","admin2":"C2","admin3":"00CY003","admin4":"","population":4235,"elevation":0,"gtopo30":102,"timezone":"Europe/London","moddate":"2017-06-12T00:00:00.000Z"},{"geonameid":2647078,"name":"Heptonstall","asciiname":"Heptonstall","alternatenames":"","latitude":"53.7491400","longitude":"-2.0209300","fclass":"P","fcode":"PPL","country":"GB","cc2":"","admin1":"ENG","admin2":"C2","admin3":"00CY004","admin4":"","population":0,"elevation":0,"gtopo30":258,"timezone":"Europe/London","moddate":"2011-03-03T00:00:00.000Z"},{"geonameid":2646837,"name":"Hipperholme","asciiname":"Hipperholme","alternatenames":"Hipperholme","latitude":"53.7255100","longitude":"-1.8117300","fclass":"P","fcode":"PPL","country":"GB","cc2":"","admin1":"ENG","admin2":"C2","admin3":"00CX010","admin4":"","population":0,"elevation":0,"gtopo30":159,"timezone":"Europe/London","moddate":"2011-03-03T00:00:00.000Z"},{"geonameid":11203943,"name":"Holywell Green","asciiname":"Holywell Green","alternatenames":"","latitude":"53.6740600","longitude":"-1.8668200","fclass":"P","fcode":"PPL","country":"GB","cc2":"","admin1":"ENG","admin2":"C2","admin3":"","admin4":"","population":3178,"elevation":0,"gtopo30":147,"timezone":"Europe/London","moddate":"2017-06-12T00:00:00.000Z"},{"geonameid":2643437,"name":"Luddenden Foot","asciiname":"Luddenden Foot","alternatenames":"","latitude":"53.7187300","longitude":"-1.9458200","fclass":"P","fcode":"PPL","country":"GB","cc2":"","admin1":"ENG","admin2":"C2","admin3":"","admin4":"","population":2190,"elevation":0,"gtopo30":114,"timezone":"Europe/London","moddate":"2017-06-12T00:00:00.000Z"},{"geonameid":2643324,"name":"Lydgate","asciiname":"Lydgate","alternatenames":"","latitude":"53.7166700","longitude":"-2.1166700","fclass":"P","fcode":"PPL","country":"GB","cc2":"","admin1":"ENG","admin2":"C2","admin3":"00CY006","admin4":"","population":0,"elevation":0,"gtopo30":292,"timezone":"Europe/London","moddate":"2016-06-22T00:00:00.000Z"},{"geonameid":12089028,"name":"Midgley","asciiname":"Midgley","alternatenames":"","latitude":"53.7333000","longitude":"-1.9600600","fclass":"P","fcode":"PPLL","country":"GB","cc2":"","admin1":"ENG","admin2":"C2","admin3":"00CY003","admin4":"","population":0,"elevation":0,"gtopo30":135,"timezone":"Europe/London","moddate":"2019-10-03T00:00:00.000Z"},{"geonameid":2641923,"name":"Mytholm","asciiname":"Mytholm","alternatenames":"","latitude":"53.7333300","longitude":"-2.0333300","fclass":"P","fcode":"PPL","country":"GB","cc2":"","admin1":"ENG","admin2":"C2","admin3":"00CY002","admin4":"","population":0,"elevation":0,"gtopo30":220,"timezone":"Europe/London","moddate":"2016-06-22T00:00:00.000Z"},{"geonameid":2641922,"name":"Mytholmroyd","asciiname":"Mytholmroyd","alternatenames":"","latitude":"53.7306500","longitude":"-1.9825800","fclass":"P","fcode":"PPL","country":"GB","cc2":"","admin1":"ENG","admin2":"C2","admin3":"00CY003","admin4":"","population":3949,"elevation":0,"gtopo30":94,"timezone":"Europe/London","moddate":"2017-06-12T00:00:00.000Z"},{"geonameid":2640779,"name":"Ovenden","asciiname":"Ovenden","alternatenames":"","latitude":"53.7428500","longitude":"-1.8812900","fclass":"P","fcode":"PPL","country":"GB","cc2":"","admin1":"ENG","admin2":"C2","admin3":"00CX003","admin4":"","population":0,"elevation":0,"gtopo30":209,"timezone":"Europe/London","moddate":"2011-03-03T00:00:00.000Z"},{"geonameid":2639995,"name":"Portsmouth","asciiname":"Portsmouth","alternatenames":"Portsmouth","latitude":"53.7333300","longitude":"-2.1500000","fclass":"P","fcode":"PPL","country":"GB","cc2":"","admin1":"ENG","admin2":"C2","admin3":"00CY006","admin4":"","population":0,"elevation":0,"gtopo30":241,"timezone":"Europe/London","moddate":"2016-06-22T00:00:00.000Z"},{"geonameid":12060359,"name":"Rastrick","asciiname":"Rastrick","alternatenames":"","latitude":"53.6921000","longitude":"-1.7883000","fclass":"P","fcode":"PPL","country":"GB","cc2":"","admin1":"ENG","admin2":"C2","admin3":"","admin4":"","population":11351,"elevation":0,"gtopo30":73,"timezone":"Europe/London","moddate":"2019-06-20T00:00:00.000Z"},{"geonameid":2639320,"name":"Ripponden","asciiname":"Ripponden","alternatenames":"","latitude":"53.6744900","longitude":"-1.9418300","fclass":"P","fcode":"PPL","country":"GB","cc2":"","admin1":"ENG","admin2":"C2","admin3":"00CY005","admin4":"","population":4665,"elevation":0,"gtopo30":135,"timezone":"Europe/London","moddate":"2017-06-12T00:00:00.000Z"},{"geonameid":2639309,"name":"Rishworth","asciiname":"Rishworth","alternatenames":"","latitude":"53.6607300","longitude":"-1.9493000","fclass":"P","fcode":"PPL","country":"GB","cc2":"","admin1":"ENG","admin2":"C2","admin3":"00CY005","admin4":"","population":0,"elevation":0,"gtopo30":169,"timezone":"Europe/London","moddate":"2011-03-03T00:00:00.000Z"},{"geonameid":11549259,"name":"Shelf","asciiname":"Shelf","alternatenames":"","latitude":"53.7564800","longitude":"-1.8144600","fclass":"P","fcode":"PPL","country":"GB","cc2":"","admin1":"ENG","admin2":"C2","admin3":"","admin4":"","population":0,"elevation":0,"gtopo30":262,"timezone":"Europe/London","moddate":"2017-05-19T00:00:00.000Z"},{"geonameid":2637350,"name":"Southowram","asciiname":"Southowram","alternatenames":"","latitude":"53.7098800","longitude":"-1.8318100","fclass":"P","fcode":"PPL","country":"GB","cc2":"","admin1":"ENG","admin2":"C2","admin3":"00CY005","admin4":"","population":2003,"elevation":0,"gtopo30":227,"timezone":"Europe/London","moddate":"2011-03-03T00:00:00.000Z"},{"geonameid":2637268,"name":"Sowerby Bridge","asciiname":"Sowerby Bridge","alternatenames":"","latitude":"53.7090300","longitude":"-1.9092900","fclass":"P","fcode":"PPL","country":"GB","cc2":"","admin1":"ENG","admin2":"C2","admin3":"00CY005","admin4":"","population":9948,"elevation":0,"gtopo30":86,"timezone":"Europe/London","moddate":"2012-04-12T00:00:00.000Z"},{"geonameid":2637122,"name":"Stainland","asciiname":"Stainland","alternatenames":"Stainland","latitude":"53.6706800","longitude":"-1.8843200","fclass":"P","fcode":"PPL","country":"GB","cc2":"","admin1":"ENG","admin2":"C2","admin3":"00CY005","admin4":"","population":0,"elevation":0,"gtopo30":222,"timezone":"Europe/London","moddate":"2011-03-03T00:00:00.000Z"},{"geonameid":2635744,"name":"Todmorden","asciiname":"Todmorden","alternatenames":"Todmorden,twdmwrdn,تودموردن","latitude":"53.7143400","longitude":"-2.0970100","fclass":"P","fcode":"PPL","country":"GB","cc2":"","admin1":"ENG","admin2":"C2","admin3":"00CY006","admin4":"","population":11690,"elevation":0,"gtopo30":129,"timezone":"Europe/London","moddate":"2017-06-12T00:00:00.000Z"},{"geonameid":2634851,"name":"Walsden","asciiname":"Walsden","alternatenames":"Walsden","latitude":"53.6936100","longitude":"-2.1000100","fclass":"P","fcode":"PPL","country":"GB","cc2":"","admin1":"ENG","admin2":"C2","admin3":"00CY006","admin4":"","population":2000,"elevation":0,"gtopo30":163,"timezone":"Europe/London","moddate":"2017-07-20T00:00:00.000Z"}],"admin3":[{"geonameid":7298332,"name":"Blackshaw","admin3":"00CY001"},{"geonameid":7298743,"name":"Erringden","admin3":"00CY002"},{"geonameid":7296187,"name":"Hebden Royd","admin3":"00CY003"},{"geonameid":7298744,"name":"Heptonstall","admin3":"00CY004"},{"geonameid":7298333,"name":"Ripponden","admin3":"00CY005"},{"geonameid":7299809,"name":"Todmorden","admin3":"00CY006"},{"geonameid":7298745,"name":"Wadsworth","admin3":"00CY007"}],"alternateNames":[{"alternatenameId":8666489,"geonameid":3333137,"isoLanguage":"en","alternateName":"Calderdale","isPreferredName":true,"isShortName":true,"isColloquial":false,"isHistoric":false},{"alternatenameId":1626647,"geonameid":6269131,"isoLanguage":"en","alternateName":"England","isPreferredName":true,"isShortName":true,"isColloquial":false,"isHistoric":false}]},"__N_SSG":true}