{"pageProps":{"locale":"ro","admin2":{"geonameid":666082,"name":"Comuna Ştiuca","country":"RO","admin1":"36","admin2":"158804","admin3":"","latitude":"45.5628300","longitude":"21.9798800"},"admin1":{"geonameid":665091,"name":"Timiş","admin1":"36"},"locations":[{"geonameid":678925,"name":"Dragomirești","asciiname":"Dragomiresti","alternatenames":"Dragomer,Dragomirest,Dragomiresti,Dragomiresty,Dragomireşti,Dragomér","latitude":"45.5441000","longitude":"21.9519800","fclass":"P","fcode":"PPL","country":"RO","cc2":"RO","admin1":"36","admin2":"158804","admin3":"","admin4":"","population":383,"elevation":0,"gtopo30":231,"timezone":"Europe/Bucharest","moddate":"2013-04-21T00:00:00.000Z"},{"geonameid":671860,"name":"Oloșag","asciiname":"Olosag","alternatenames":"Olahsag,Ollosag,Ollóság,Olosag,Oloşag,Oláhság","latitude":"45.6030900","longitude":"21.9588300","fclass":"P","fcode":"PPL","country":"RO","cc2":"RO","admin1":"36","admin2":"158804","admin3":"","admin4":"","population":305,"elevation":0,"gtopo30":149,"timezone":"Europe/Bucharest","moddate":"2013-04-21T00:00:00.000Z"},{"geonameid":666083,"name":"Ştiuca","asciiname":"Stiuca","alternatenames":"Csukas,Csukás,Ebendorf,Stiuca,Styuka,Ştiuca","latitude":"45.5713900","longitude":"21.9766700","fclass":"P","fcode":"PPLA2","country":"RO","cc2":"","admin1":"36","admin2":"158804","admin3":"","admin4":"","population":1821,"elevation":0,"gtopo30":183,"timezone":"Europe/Bucharest","moddate":"2012-06-12T00:00:00.000Z"},{"geonameid":662214,"name":"Zgribești","asciiname":"Zgribesti","alternatenames":"","latitude":"45.5328800","longitude":"22.0259000","fclass":"P","fcode":"PPL","country":"RO","cc2":"","admin1":"36","admin2":"158804","admin3":"","admin4":"","population":300,"elevation":0,"gtopo30":190,"timezone":"Europe/Bucharest","moddate":"2013-04-20T00:00:00.000Z"}],"admin3":[],"alternateNames":[]},"__N_SSG":true}