{"pageProps":{"locale":"en","admin2":{"geonameid":3333246,"name":"Newport","country":"GB","admin1":"WLS","admin2":"Y6","admin3":"","latitude":"51.5833300","longitude":"-3.0000000"},"admin1":{"geonameid":2634895,"name":"Wales","admin1":"WLS","localeAltName":"Wales"},"locations":[{"geonameid":2656189,"name":"Bassaleg","asciiname":"Bassaleg","alternatenames":"Bassaleg","latitude":"51.5773200","longitude":"-3.0473900","fclass":"P","fcode":"PPL","country":"GB","cc2":"","admin1":"WLS","admin2":"Y6","admin3":"00PR010","admin4":"","population":0,"elevation":0,"gtopo30":36,"timezone":"Europe/London","moddate":"2011-03-03T00:00:00.000Z"},{"geonameid":2655546,"name":"Bishton","asciiname":"Bishton","alternatenames":"Bishton","latitude":"51.5819400","longitude":"-2.8783300","fclass":"P","fcode":"PPLA3","country":"GB","cc2":"","admin1":"WLS","admin2":"Y6","admin3":"00PR005","admin4":"","population":0,"elevation":0,"gtopo30":5,"timezone":"Europe/London","moddate":"2011-07-31T00:00:00.000Z"},{"geonameid":2654093,"name":"Caerleon","asciiname":"Caerleon","alternatenames":"Caerleon,Caerllion,karlywn,كارليون","latitude":"51.6095200","longitude":"-2.9537800","fclass":"P","fcode":"PPL","country":"GB","cc2":"","admin1":"WLS","admin2":"Y6","admin3":"00PR006","admin4":"","population":8747,"elevation":0,"gtopo30":19,"timezone":"Europe/London","moddate":"2017-06-12T00:00:00.000Z"},{"geonameid":2653544,"name":"Castleton","asciiname":"Castleton","alternatenames":"Castleton","latitude":"51.5422200","longitude":"-3.0758300","fclass":"P","fcode":"PPL","country":"GB","cc2":"","admin1":"WLS","admin2":"Y6","admin3":"00PR016","admin4":"","population":0,"elevation":0,"gtopo30":19,"timezone":"Europe/London","moddate":"2016-06-22T00:00:00.000Z"},{"geonameid":2653074,"name":"Christchurch","asciiname":"Christchurch","alternatenames":"Christchurch","latitude":"51.6000000","longitude":"-2.9500000","fclass":"P","fcode":"PPL","country":"GB","cc2":"","admin1":"WLS","admin2":"Y6","admin3":"00PR006","admin4":"","population":0,"elevation":0,"gtopo30":44,"timezone":"Europe/London","moddate":"2016-06-22T00:00:00.000Z"},{"geonameid":3345332,"name":"Duffryn","asciiname":"Duffryn","alternatenames":"Duffryn","latitude":"51.5544400","longitude":"-2.9986100","fclass":"P","fcode":"PPL","country":"GB","cc2":"","admin1":"WLS","admin2":"Y6","admin3":"00PR029","admin4":"","population":0,"elevation":0,"gtopo30":4,"timezone":"Europe/London","moddate":"2016-06-22T00:00:00.000Z"},{"geonameid":2648354,"name":"Goldcliff","asciiname":"Goldcliff","alternatenames":"Goldcliff","latitude":"51.5422200","longitude":"-2.9177800","fclass":"P","fcode":"PPLA3","country":"GB","cc2":"","admin1":"WLS","admin2":"Y6","admin3":"00PR009","admin4":"","population":0,"elevation":0,"gtopo30":7,"timezone":"Europe/London","moddate":"2011-07-31T00:00:00.000Z"},{"geonameid":6620345,"name":"Langstone","asciiname":"Langstone","alternatenames":"","latitude":"51.6055400","longitude":"-2.9120600","fclass":"P","fcode":"PPLA3","country":"GB","cc2":"","admin1":"WLS","admin2":"Y6","admin3":"00PR011","admin4":"","population":0,"elevation":0,"gtopo30":32,"timezone":"Europe/London","moddate":"2011-07-31T00:00:00.000Z"},{"geonameid":2643929,"name":"Llanvaches","asciiname":"Llanvaches","alternatenames":"Llanvaches","latitude":"51.6211100","longitude":"-2.8183300","fclass":"P","fcode":"PPLA3","country":"GB","cc2":"","admin1":"WLS","admin2":"Y6","admin3":"00PR013","admin4":"","population":0,"elevation":0,"gtopo30":66,"timezone":"Europe/London","moddate":"2011-07-31T00:00:00.000Z"},{"geonameid":2643916,"name":"Llanwern","asciiname":"Llanwern","alternatenames":"Llanwern","latitude":"51.5888900","longitude":"-2.9136100","fclass":"P","fcode":"PPLA3","country":"GB","cc2":"","admin1":"WLS","admin2":"Y6","admin3":"00PR014","admin4":"","population":0,"elevation":0,"gtopo30":9,"timezone":"Europe/London","moddate":"2011-07-31T00:00:00.000Z"},{"geonameid":2643530,"name":"Lower Clapton","asciiname":"Lower Clapton","alternatenames":"","latitude":"51.5500000","longitude":"-3.0000000","fclass":"P","fcode":"PPLX","country":"GB","cc2":"","admin1":"WLS","admin2":"Y6","admin3":"00PR029","admin4":"","population":0,"elevation":0,"gtopo30":6,"timezone":"Europe/London","moddate":"2016-06-22T00:00:00.000Z"},{"geonameid":2642980,"name":"Marshfield","asciiname":"Marshfield","alternatenames":"Marshfield,Marshfields","latitude":"51.5338900","longitude":"-3.0730600","fclass":"P","fcode":"PPLA3","country":"GB","cc2":"","admin1":"WLS","admin2":"Y6","admin3":"00PR016","admin4":"","population":3054,"elevation":0,"gtopo30":8,"timezone":"Europe/London","moddate":"2017-06-12T00:00:00.000Z"},{"geonameid":2641873,"name":"Nash","asciiname":"Nash","alternatenames":"","latitude":"51.5488900","longitude":"-2.9461100","fclass":"P","fcode":"PPLA3","country":"GB","cc2":"","admin1":"WLS","admin2":"Y6","admin3":"00PR018","admin4":"","population":0,"elevation":0,"gtopo30":6,"timezone":"Europe/London","moddate":"2011-07-31T00:00:00.000Z"},{"geonameid":2641598,"name":"Newport","asciiname":"Newport","alternatenames":"Casnewydd,N'jupart,N'juport,Newport,Newport (Wales),Niouport,Niuportas,Njuport,Novus Burgus,Nuporta,Nyuport,Trefdraeth,XNE,n'yuporta,niu bo te,niw phxrt,nyupoteu,nyupoto,nywbwrt,nywpwrt,Ņūporta,Νιούπορτ,Њупорт,Ньюпарт,Ньюпорт,Нюпорт,Նյուպորտ,ניופורט,نيوبورت,نیوپورت,نیوپورٹ,نیوپورٹ، ویلز,न्यूपोर्ट,นิวพอร์ต,ニューポート,纽波特,뉴포트","latitude":"51.5877400","longitude":"-2.9983500","fclass":"P","fcode":"PPLA2","country":"GB","cc2":"","admin1":"WLS","admin2":"Y6","admin3":"00PR026","admin4":"","population":306844,"elevation":0,"gtopo30":16,"timezone":"Europe/London","moddate":"2020-10-24T00:00:00.000Z"},{"geonameid":3345340,"name":"Parc Seymour","asciiname":"Parc Seymour","alternatenames":"Parc Seymour","latitude":"51.6219400","longitude":"-2.8575000","fclass":"P","fcode":"PPL","country":"GB","cc2":"","admin1":"WLS","admin2":"Y6","admin3":"00PR019","admin4":"","population":744,"elevation":0,"gtopo30":85,"timezone":"Europe/London","moddate":"2017-06-12T00:00:00.000Z"},{"geonameid":3345330,"name":"Peterstone Wentlooge","asciiname":"Peterstone Wentlooge","alternatenames":"","latitude":"51.5161100","longitude":"-3.0563900","fclass":"P","fcode":"PPL","country":"GB","cc2":"","admin1":"WLS","admin2":"Y6","admin3":"00PR029","admin4":"","population":0,"elevation":0,"gtopo30":7,"timezone":"Europe/London","moddate":"2016-06-22T00:00:00.000Z"},{"geonameid":2639522,"name":"Redwick","asciiname":"Redwick","alternatenames":"Redwick","latitude":"51.5527800","longitude":"-2.8500000","fclass":"P","fcode":"PPLA3","country":"GB","cc2":"","admin1":"WLS","admin2":"Y6","admin3":"00PR021","admin4":"","population":0,"elevation":0,"gtopo30":7,"timezone":"Europe/London","moddate":"2011-07-31T00:00:00.000Z"},{"geonameid":2639214,"name":"Rogerstone","asciiname":"Rogerstone","alternatenames":"Rogerstone","latitude":"51.5918200","longitude":"-3.0600900","fclass":"P","fcode":"PPL","country":"GB","cc2":"","admin1":"WLS","admin2":"Y6","admin3":"00PR023","admin4":"","population":0,"elevation":0,"gtopo30":47,"timezone":"Europe/London","moddate":"2011-03-03T00:00:00.000Z"},{"geonameid":3345331,"name":"Saint Brides Wentlooge","asciiname":"Saint Brides Wentlooge","alternatenames":"","latitude":"51.5338900","longitude":"-3.0175000","fclass":"P","fcode":"PPL","country":"GB","cc2":"","admin1":"WLS","admin2":"Y6","admin3":"00PR029","admin4":"","population":0,"elevation":0,"gtopo30":7,"timezone":"Europe/London","moddate":"2016-06-22T00:00:00.000Z"},{"geonameid":3345336,"name":"Whitson","asciiname":"Whitson","alternatenames":"Whitson","latitude":"51.5485600","longitude":"-2.8998600","fclass":"P","fcode":"PPL","country":"GB","cc2":"","admin1":"WLS","admin2":"Y6","admin3":"00PR009","admin4":"","population":0,"elevation":0,"gtopo30":6,"timezone":"Europe/London","moddate":"2011-03-03T00:00:00.000Z"}],"admin3":[{"geonameid":7298349,"name":"Allt-yr-Yn","admin3":"00PR001"},{"geonameid":7294307,"name":"Alway","admin3":"00PR002"},{"geonameid":7292959,"name":"Beechwood","admin3":"00PR003"},{"geonameid":7298867,"name":"Bettws","admin3":"00PR004"},{"geonameid":7294308,"name":"Bishton","admin3":"00PR005"},{"geonameid":7294309,"name":"Caerleon","admin3":"00PR006"},{"geonameid":7298351,"name":"Coedkernew","admin3":"00PR007"},{"geonameid":7294310,"name":"Gaer","admin3":"00PR008"},{"geonameid":7298352,"name":"Goldcliff","admin3":"00PR009"},{"geonameid":7292960,"name":"Graig","admin3":"00PR010"},{"geonameid":7294311,"name":"Langstone","admin3":"00PR011"},{"geonameid":7292961,"name":"Liswerry","admin3":"00PR012"},{"geonameid":7292962,"name":"Llanvaches","admin3":"00PR013"},{"geonameid":7291108,"name":"Llanwern","admin3":"00PR014"},{"geonameid":7294312,"name":"Malpas","admin3":"00PR015"},{"geonameid":7290868,"name":"Marshfield","admin3":"00PR016"},{"geonameid":7290869,"name":"Michaelstone-y-Fedw","admin3":"00PR017"},{"geonameid":7294300,"name":"Nash","admin3":"00PR018"},{"geonameid":7298859,"name":"Penhow","admin3":"00PR019"},{"geonameid":7291136,"name":"Pillgwenlly","admin3":"00PR020"},{"geonameid":7298866,"name":"Redwick","admin3":"00PR021"},{"geonameid":7298350,"name":"Ringland","admin3":"00PR022"},{"geonameid":7298343,"name":"Rogerstone","admin3":"00PR023"},{"geonameid":7294313,"name":"Shaftesbury","admin3":"00PR025"},{"geonameid":7298837,"name":"St. Julians","admin3":"00PR024"},{"geonameid":7301651,"name":"Stow Hill","admin3":"00PR026"},{"geonameid":7294295,"name":"Tredegar Park","admin3":"00PR027"},{"geonameid":7299214,"name":"Victoria","admin3":"00PR028"},{"geonameid":7294314,"name":"Wentlooge","admin3":"00PR029"}],"alternateNames":[{"alternatenameId":1626654,"geonameid":2634895,"isoLanguage":"en","alternateName":"Wales","isPreferredName":true,"isShortName":true,"isColloquial":false,"isHistoric":false}]},"__N_SSG":true}