{"pageProps":{"locale":"ro","admin2":{"geonameid":669817,"name":"Comuna Porumbacu de Jos","country":"RO","admin1":"33","admin2":"145293","admin3":"","latitude":"45.7507800","longitude":"24.4955100"},"admin1":{"geonameid":667267,"name":"Sibiu","admin1":"33"},"locations":[{"geonameid":681039,"name":"Colun","asciiname":"Colun","alternatenames":"","latitude":"45.7804900","longitude":"24.5059400","fclass":"P","fcode":"PPL","country":"RO","cc2":"","admin1":"33","admin2":"145293","admin3":"","admin4":"","population":182,"elevation":0,"gtopo30":402,"timezone":"Europe/Bucharest","moddate":"2013-04-21T00:00:00.000Z"},{"geonameid":669818,"name":"Porumbacu de Jos","asciiname":"Porumbacu de Jos","alternatenames":"Porumbacu de Jos,Porumbacul de Jos","latitude":"45.7500000","longitude":"24.4500000","fclass":"P","fcode":"PPLA2","country":"RO","cc2":"","admin1":"33","admin2":"145293","admin3":"","admin4":"","population":3166,"elevation":0,"gtopo30":407,"timezone":"Europe/Bucharest","moddate":"2012-06-12T00:00:00.000Z"},{"geonameid":669816,"name":"Porumbacu de Sus","asciiname":"Porumbacu de Sus","alternatenames":"Porumbacu de Sus,Porumbacul-de Sus","latitude":"45.7145700","longitude":"24.4726700","fclass":"P","fcode":"PPL","country":"RO","cc2":"RO","admin1":"33","admin2":"145293","admin3":"","admin4":"","population":915,"elevation":0,"gtopo30":457,"timezone":"Europe/Bucharest","moddate":"2013-04-21T00:00:00.000Z"},{"geonameid":668050,"name":"SÄƒrata","asciiname":"Sarata","alternatenames":"","latitude":"45.7413200","longitude":"24.5077200","fclass":"P","fcode":"PPL","country":"RO","cc2":"","admin1":"33","admin2":"145293","admin3":"","admin4":"","population":436,"elevation":0,"gtopo30":423,"timezone":"Europe/Bucharest","moddate":"2013-04-21T00:00:00.000Z"},{"geonameid":667599,"name":"Scoreiu","asciiname":"Scoreiu","alternatenames":"Scorei,Scoreiu,Scoreiul","latitude":"45.7587200","longitude":"24.5323000","fclass":"P","fcode":"PPL","country":"RO","cc2":"RO","admin1":"33","admin2":"145293","admin3":"","admin4":"","population":730,"elevation":0,"gtopo30":412,"timezone":"Europe/Bucharest","moddate":"2013-04-21T00:00:00.000Z"}],"admin3":[],"alternateNames":[]},"__N_SSG":true}