{"pageProps":{"locale":"ro","admin2":{"geonameid":675888,"name":"Comuna Husnicioara","country":"RO","admin1":"26","admin2":"112129","admin3":"","latitude":"44.6628300","longitude":"22.8393900"},"admin1":{"geonameid":673612,"name":"Mehedinţi","admin1":"26"},"locations":[{"geonameid":686405,"name":"Alunișul","asciiname":"Alunisul","alternatenames":"Alunisul,Alunişul,Ciolani","latitude":"44.6345600","longitude":"22.8604000","fclass":"P","fcode":"PPL","country":"RO","cc2":"RO","admin1":"26","admin2":"112129","admin3":"","admin4":"","population":92,"elevation":0,"gtopo30":341,"timezone":"Europe/Bucharest","moddate":"2013-04-21T00:00:00.000Z"},{"geonameid":685885,"name":"Bădițești","asciiname":"Baditesti","alternatenames":"","latitude":"44.6391500","longitude":"22.8693200","fclass":"P","fcode":"PPL","country":"RO","cc2":"","admin1":"26","admin2":"112129","admin3":"","admin4":"","population":247,"elevation":0,"gtopo30":300,"timezone":"Europe/Bucharest","moddate":"2013-04-21T00:00:00.000Z"},{"geonameid":684175,"name":"Borogea","asciiname":"Borogea","alternatenames":"Borogea,Borogea din Fata,Borogia","latitude":"44.6527800","longitude":"22.9143000","fclass":"P","fcode":"PPL","country":"RO","cc2":"RO","admin1":"26","admin2":"112129","admin3":"","admin4":"","population":114,"elevation":0,"gtopo30":344,"timezone":"Europe/Bucharest","moddate":"2013-04-21T00:00:00.000Z"},{"geonameid":682429,"name":"Celnata","asciiname":"Celnata","alternatenames":"","latitude":"44.6776500","longitude":"22.8090600","fclass":"P","fcode":"PPL","country":"RO","cc2":"","admin1":"26","admin2":"112129","admin3":"","admin4":"","population":127,"elevation":0,"gtopo30":312,"timezone":"Europe/Bucharest","moddate":"2013-04-21T00:00:00.000Z"},{"geonameid":678690,"name":"Dumbrăvița","asciiname":"Dumbravita","alternatenames":"Dumbravica,Dumbravita,Dumbrăviţa","latitude":"44.6685300","longitude":"22.7899700","fclass":"P","fcode":"PPL","country":"RO","cc2":"RO","admin1":"26","admin2":"112129","admin3":"","admin4":"","population":13,"elevation":0,"gtopo30":279,"timezone":"Europe/Bucharest","moddate":"2013-04-21T00:00:00.000Z"},{"geonameid":675889,"name":"Husnicioara","asciiname":"Husnicioara","alternatenames":"Husnicioara","latitude":"44.6780600","longitude":"22.8425000","fclass":"P","fcode":"PPLA2","country":"RO","cc2":"","admin1":"26","admin2":"112129","admin3":"","admin4":"","population":1699,"elevation":0,"gtopo30":283,"timezone":"Europe/Bucharest","moddate":"2012-06-12T00:00:00.000Z"},{"geonameid":673757,"name":"Marmanu","asciiname":"Marmanu","alternatenames":"","latitude":"44.6427900","longitude":"22.8026500","fclass":"P","fcode":"PPL","country":"RO","cc2":"","admin1":"26","admin2":"112129","admin3":"","admin4":"","population":56,"elevation":0,"gtopo30":315,"timezone":"Europe/Bucharest","moddate":"2013-04-21T00:00:00.000Z"},{"geonameid":671788,"name":"Oprănești","asciiname":"Opranesti","alternatenames":"","latitude":"44.6571300","longitude":"22.7850200","fclass":"P","fcode":"PPL","country":"RO","cc2":"","admin1":"26","admin2":"112129","admin3":"","admin4":"","population":173,"elevation":0,"gtopo30":326,"timezone":"Europe/Bucharest","moddate":"2013-04-21T00:00:00.000Z"},{"geonameid":671124,"name":"Peri","asciiname":"Peri","alternatenames":"Peri,Perii","latitude":"44.6570500","longitude":"22.8947600","fclass":"P","fcode":"PPL","country":"RO","cc2":"RO","admin1":"26","admin2":"112129","admin3":"","admin4":"","population":468,"elevation":0,"gtopo30":259,"timezone":"Europe/Bucharest","moddate":"2013-04-21T00:00:00.000Z"},{"geonameid":669655,"name":"Priboiești","asciiname":"Priboiesti","alternatenames":"Priboesti,Priboeşti,Pribojesti,Priboješti","latitude":"44.7103900","longitude":"22.8188400","fclass":"P","fcode":"PPL","country":"RO","cc2":"RO","admin1":"26","admin2":"112129","admin3":"","admin4":"","population":111,"elevation":0,"gtopo30":343,"timezone":"Europe/Bucharest","moddate":"2013-04-21T00:00:00.000Z"},{"geonameid":667412,"name":"Selișteni","asciiname":"Selisteni","alternatenames":"","latitude":"44.6725600","longitude":"22.8429900","fclass":"P","fcode":"PPL","country":"RO","cc2":"","admin1":"26","admin2":"112129","admin3":"","admin4":"","population":278,"elevation":0,"gtopo30":300,"timezone":"Europe/Bucharest","moddate":"2013-04-21T00:00:00.000Z"},{"geonameid":663524,"name":"Valea Petrii","asciiname":"Valea Petrii","alternatenames":"Valea Petri,Valea Petrii","latitude":"44.6666700","longitude":"22.8833300","fclass":"P","fcode":"PPL","country":"RO","cc2":"RO","admin1":"26","admin2":"112129","admin3":"","admin4":"","population":0,"elevation":0,"gtopo30":274,"timezone":"Europe/Bucharest","moddate":"2016-02-07T00:00:00.000Z"}],"admin3":[],"alternateNames":[]},"__N_SSG":true}