{"pageProps":{"locale":"ro","admin2":{"geonameid":671567,"name":"Comuna Păcureţi","country":"RO","admin1":"30","admin2":"134336","admin3":"","latitude":"45.1469600","longitude":"26.1399700"},"admin1":{"geonameid":669737,"name":"Prahova","admin1":"30"},"locations":[{"geonameid":684711,"name":"Bârzila","asciiname":"Barzila","alternatenames":"Barzila,Birzila,Bârzila,Bîrzila","latitude":"45.1333300","longitude":"26.1166700","fclass":"P","fcode":"PPL","country":"RO","cc2":"RO","admin1":"30","admin2":"134336","admin3":"","admin4":"","population":0,"elevation":0,"gtopo30":318,"timezone":"Europe/Bucharest","moddate":"2020-03-08T00:00:00.000Z"},{"geonameid":679924,"name":"Curmătura","asciiname":"Curmatura","alternatenames":"","latitude":"45.1507300","longitude":"26.1284800","fclass":"P","fcode":"PPL","country":"RO","cc2":"","admin1":"30","admin2":"134336","admin3":"","admin4":"","population":384,"elevation":0,"gtopo30":298,"timezone":"Europe/Bucharest","moddate":"2013-04-21T00:00:00.000Z"},{"geonameid":673668,"name":"Matița","asciiname":"Matita","alternatenames":"","latitude":"45.1420000","longitude":"26.1638800","fclass":"P","fcode":"PPL","country":"RO","cc2":"","admin1":"30","admin2":"134336","admin3":"","admin4":"","population":874,"elevation":0,"gtopo30":190,"timezone":"Europe/Bucharest","moddate":"2013-04-21T00:00:00.000Z"},{"geonameid":671568,"name":"Păcureţi","asciiname":"Pacureti","alternatenames":"","latitude":"45.1500000","longitude":"26.1333300","fclass":"P","fcode":"PPLA2","country":"RO","cc2":"","admin1":"30","admin2":"134336","admin3":"","admin4":"","population":2252,"elevation":0,"gtopo30":291,"timezone":"Europe/Bucharest","moddate":"2012-06-12T00:00:00.000Z"},{"geonameid":668057,"name":"Sărari","asciiname":"Sarari","alternatenames":"","latitude":"45.1500000","longitude":"26.1500000","fclass":"P","fcode":"PPLX","country":"RO","cc2":"","admin1":"30","admin2":"134336","admin3":"","admin4":"","population":0,"elevation":0,"gtopo30":236,"timezone":"Europe/Bucharest","moddate":"2016-02-07T00:00:00.000Z"},{"geonameid":666732,"name":"Slavu","asciiname":"Slavu","alternatenames":"","latitude":"45.1600900","longitude":"26.1255400","fclass":"P","fcode":"PPL","country":"RO","cc2":"","admin1":"30","admin2":"134336","admin3":"","admin4":"","population":247,"elevation":0,"gtopo30":365,"timezone":"Europe/Bucharest","moddate":"2013-04-21T00:00:00.000Z"},{"geonameid":664526,"name":"Tulburea","asciiname":"Tulburea","alternatenames":"Tulburea,Turburea","latitude":"45.1500000","longitude":"26.1166700","fclass":"P","fcode":"PPL","country":"RO","cc2":"","admin1":"30","admin2":"134336","admin3":"","admin4":"","population":0,"elevation":0,"gtopo30":271,"timezone":"Europe/Bucharest","moddate":"2016-02-07T00:00:00.000Z"}],"admin3":[],"alternateNames":[{"alternatenameId":8326236,"geonameid":669737,"isoLanguage":"en","alternateName":"Prahova","isPreferredName":true,"isShortName":true,"isColloquial":false,"isHistoric":false}]},"__N_SSG":true}