{"pageProps":{"locale":"ro","admin2":{"geonameid":663104,"name":"Comuna Vătava","country":"RO","admin1":"27","admin2":"120138","admin3":"","latitude":"46.9474500","longitude":"24.7795100"},"admin1":{"geonameid":672628,"name":"Mureş","admin1":"27"},"locations":[{"geonameid":678740,"name":"Dumbrava","asciiname":"Dumbrava","alternatenames":"Dumbrava,Marosliget","latitude":"46.9420700","longitude":"24.8049100","fclass":"P","fcode":"PPL","country":"RO","cc2":"RO","admin1":"27","admin2":"120138","admin3":"","admin4":"","population":842,"elevation":0,"gtopo30":507,"timezone":"Europe/Bucharest","moddate":"2013-04-21T00:00:00.000Z"},{"geonameid":678711,"name":"Dumbrava-Vale","asciiname":"Dumbrava-Vale","alternatenames":"","latitude":"46.9333300","longitude":"24.8166700","fclass":"P","fcode":"PPLX","country":"RO","cc2":"","admin1":"27","admin2":"120138","admin3":"","admin4":"","population":0,"elevation":0,"gtopo30":489,"timezone":"Europe/Bucharest","moddate":"2016-02-07T00:00:00.000Z"},{"geonameid":668854,"name":"Râpa de Jos","asciiname":"Rapa de Jos","alternatenames":"Alsorepa,Alsòrèpa,Rapa de Jos,Ripa de Jos,Râpa de Jos,Rîpa de Jos","latitude":"46.9391900","longitude":"24.7685500","fclass":"P","fcode":"PPL","country":"RO","cc2":"RO","admin1":"27","admin2":"120138","admin3":"","admin4":"","population":608,"elevation":0,"gtopo30":531,"timezone":"Europe/Bucharest","moddate":"2013-04-21T00:00:00.000Z"},{"geonameid":663522,"name":"Valea Petrişului","asciiname":"Valea Petrisului","alternatenames":"Kovesdpatak,Kövesdpatak,Valea Petrisului,Valea Petrişului,Valea Pietrisului,Valea Pietrişului","latitude":"46.9333300","longitude":"24.8000000","fclass":"P","fcode":"PPL","country":"RO","cc2":"","admin1":"27","admin2":"120138","admin3":"","admin4":"","population":0,"elevation":0,"gtopo30":528,"timezone":"Europe/Bucharest","moddate":"2016-02-07T00:00:00.000Z"},{"geonameid":663105,"name":"Vătava","asciiname":"Vatava","alternatenames":"Felsorepa,Felsörèpa,Vatava,Vătava","latitude":"46.9666700","longitude":"24.7666700","fclass":"P","fcode":"PPLA2","country":"RO","cc2":"","admin1":"27","admin2":"120138","admin3":"","admin4":"","population":2099,"elevation":0,"gtopo30":635,"timezone":"Europe/Bucharest","moddate":"2012-06-12T00:00:00.000Z"}],"admin3":[],"alternateNames":[]},"__N_SSG":true}