{"pageProps":{"locale":"ro","admin2":{"geonameid":680873,"name":"Comuna Corbiţa","country":"RO","admin1":"40","admin2":"175787","admin3":"","latitude":"46.1632500","longitude":"27.3086100"},"admin1":{"geonameid":662447,"name":"Vrancea","admin1":"40","localeAltName":"Vrancea"},"locations":[{"geonameid":683495,"name":"Buda","asciiname":"Buda","alternatenames":"","latitude":"46.1317900","longitude":"27.3027900","fclass":"P","fcode":"PPL","country":"RO","cc2":"","admin1":"40","admin2":"175787","admin3":"","admin4":"","population":636,"elevation":0,"gtopo30":216,"timezone":"Europe/Bucharest","moddate":"2013-04-21T00:00:00.000Z"},{"geonameid":680874,"name":"Corbiţa","asciiname":"Corbita","alternatenames":"Corbita,Corbiţa","latitude":"46.1500000","longitude":"27.3000000","fclass":"P","fcode":"PPLA2","country":"RO","cc2":"","admin1":"40","admin2":"175787","admin3":"","admin4":"","population":2091,"elevation":0,"gtopo30":136,"timezone":"Europe/Bucharest","moddate":"2012-06-12T00:00:00.000Z"},{"geonameid":675380,"name":"Izvoarele","asciiname":"Izvoarele","alternatenames":"Bou Ros,Bou Rosu,Bou Roş,Bou Roşu,Boul Rosu,Boul Roşu,Izvoarele","latitude":"46.1558000","longitude":"27.3438900","fclass":"P","fcode":"PPL","country":"RO","cc2":"RO","admin1":"40","admin2":"175787","admin3":"","admin4":"","population":135,"elevation":0,"gtopo30":254,"timezone":"Europe/Bucharest","moddate":"2013-04-21T00:00:00.000Z"},{"geonameid":675018,"name":"Lărgășeni","asciiname":"Largaseni","alternatenames":"Largaseni,Largasenii,Lărgăşeni,Lărgăşenii","latitude":"46.1943000","longitude":"27.2955300","fclass":"P","fcode":"PPL","country":"RO","cc2":"RO","admin1":"40","admin2":"175787","admin3":"","admin4":"","population":147,"elevation":0,"gtopo30":120,"timezone":"Europe/Bucharest","moddate":"2013-04-21T00:00:00.000Z"},{"geonameid":672041,"name":"Ocheșești","asciiname":"Ochesesti","alternatenames":"Ochesesti,Ochesestii,Ocheşeşti,Ocheşeştii","latitude":"46.1472000","longitude":"27.3237700","fclass":"P","fcode":"PPL","country":"RO","cc2":"RO","admin1":"40","admin2":"175787","admin3":"","admin4":"","population":206,"elevation":0,"gtopo30":123,"timezone":"Europe/Bucharest","moddate":"2013-04-21T00:00:00.000Z"},{"geonameid":669296,"name":"Rădăcinești","asciiname":"Radacinesti","alternatenames":"Radacinesti,Radacinestii,Rădăcineşti,Rădăcineştii","latitude":"46.1862300","longitude":"27.2983600","fclass":"P","fcode":"PPL","country":"RO","cc2":"RO","admin1":"40","admin2":"175787","admin3":"","admin4":"","population":344,"elevation":0,"gtopo30":150,"timezone":"Europe/Bucharest","moddate":"2013-04-21T00:00:00.000Z"},{"geonameid":668165,"name":"Sălcuţa","asciiname":"Salcuta","alternatenames":"","latitude":"46.1166700","longitude":"27.3000000","fclass":"P","fcode":"PPL","country":"RO","cc2":"","admin1":"40","admin2":"175787","admin3":"","admin4":"","population":0,"elevation":0,"gtopo30":187,"timezone":"Europe/Bucharest","moddate":"2016-02-07T00:00:00.000Z"},{"geonameid":667372,"name":"Șerbănești","asciiname":"Serbanesti","alternatenames":"Serbanesti,Serbanestii,Şerbăneşti,Şerbăneştii","latitude":"46.1658800","longitude":"27.2989600","fclass":"P","fcode":"PPL","country":"RO","cc2":"RO","admin1":"40","admin2":"175787","admin3":"","admin4":"","population":254,"elevation":0,"gtopo30":165,"timezone":"Europe/Bucharest","moddate":"2013-04-21T00:00:00.000Z"},{"geonameid":664890,"name":"Tuțu","asciiname":"Tutu","alternatenames":"","latitude":"46.1833300","longitude":"27.2666700","fclass":"P","fcode":"PPL","country":"RO","cc2":"","admin1":"40","admin2":"175787","admin3":"","admin4":"","population":74,"elevation":0,"gtopo30":273,"timezone":"Europe/Bucharest","moddate":"2015-11-07T00:00:00.000Z"},{"geonameid":662873,"name":"Vâlcelele","asciiname":"Valcelele","alternatenames":"Stramba,Strimba,Strâmba,Strîmba,Vilcelele,Vîlcelele","latitude":"46.1617700","longitude":"27.3362300","fclass":"P","fcode":"PPL","country":"RO","cc2":"RO","admin1":"40","admin2":"175787","admin3":"","admin4":"","population":70,"elevation":0,"gtopo30":173,"timezone":"Europe/Bucharest","moddate":"2013-04-20T00:00:00.000Z"}],"admin3":[],"alternateNames":[{"alternatenameId":391637,"geonameid":662447,"isoLanguage":"ro","alternateName":"Vrancea","isPreferredName":true,"isShortName":true,"isColloquial":false,"isHistoric":false}]},"__N_SSG":true}