{"pageProps":{"locale":"ro","admin2":{"geonameid":677806,"name":"Comuna Fundeni","country":"RO","admin1":"41","admin2":"103014","admin3":"","latitude":"44.3832500","longitude":"26.3496800"},"admin1":{"geonameid":683016,"name":"Călăraşi","admin1":"41"},"locations":[{"geonameid":683407,"name":"Buduleasa","asciiname":"Buduleasa","alternatenames":"Buduleasa,Ferma Baduleasa","latitude":"44.4166700","longitude":"26.4000000","fclass":"P","fcode":"PPLX","country":"RO","cc2":"","admin1":"41","admin2":"103014","admin3":"","admin4":"","population":0,"elevation":0,"gtopo30":74,"timezone":"Europe/Bucharest","moddate":"2016-02-07T00:00:00.000Z"},{"geonameid":682845,"name":"Canela","asciiname":"Canela","alternatenames":"","latitude":"44.3666700","longitude":"26.3333300","fclass":"P","fcode":"PPLX","country":"RO","cc2":"","admin1":"41","admin2":"103014","admin3":"","admin4":"","population":0,"elevation":0,"gtopo30":43,"timezone":"Europe/Bucharest","moddate":"2016-02-07T00:00:00.000Z"},{"geonameid":677860,"name":"Frunzăneşti","asciiname":"Frunzanesti","alternatenames":"","latitude":"44.3666700","longitude":"26.3500000","fclass":"P","fcode":"PPL","country":"RO","cc2":"","admin1":"41","admin2":"103014","admin3":"","admin4":"","population":0,"elevation":0,"gtopo30":43,"timezone":"Europe/Bucharest","moddate":"2016-02-07T00:00:00.000Z"},{"geonameid":677812,"name":"Fundeni","asciiname":"Fundeni","alternatenames":"Fundeni,Fundenii","latitude":"44.3833300","longitude":"26.3500000","fclass":"P","fcode":"PPLA2","country":"RO","cc2":"","admin1":"41","admin2":"103014","admin3":"","admin4":"","population":5443,"elevation":0,"gtopo30":54,"timezone":"Europe/Bucharest","moddate":"2012-06-12T00:00:00.000Z"},{"geonameid":674784,"name":"Lilieci","asciiname":"Lilieci","alternatenames":"","latitude":"44.4000000","longitude":"26.4333300","fclass":"P","fcode":"PPLX","country":"RO","cc2":"","admin1":"41","admin2":"103014","admin3":"","admin4":"","population":0,"elevation":0,"gtopo30":62,"timezone":"Europe/Bucharest","moddate":"2016-02-07T00:00:00.000Z"},{"geonameid":671763,"name":"Orasca","asciiname":"Orasca","alternatenames":"","latitude":"44.3500000","longitude":"26.3500000","fclass":"P","fcode":"PPLX","country":"RO","cc2":"","admin1":"41","admin2":"103014","admin3":"","admin4":"","population":0,"elevation":0,"gtopo30":42,"timezone":"Europe/Bucharest","moddate":"2016-02-07T00:00:00.000Z"},{"geonameid":671327,"name":"Păroaia","asciiname":"Paroaia","alternatenames":"","latitude":"44.3666700","longitude":"26.3333300","fclass":"P","fcode":"PPL","country":"RO","cc2":"","admin1":"41","admin2":"103014","admin3":"","admin4":"","population":0,"elevation":0,"gtopo30":43,"timezone":"Europe/Bucharest","moddate":"2016-02-07T00:00:00.000Z"},{"geonameid":671113,"name":"Perişanu","asciiname":"Perisanu","alternatenames":"","latitude":"44.4000000","longitude":"26.3500000","fclass":"P","fcode":"PPLX","country":"RO","cc2":"","admin1":"41","admin2":"103014","admin3":"","admin4":"","population":0,"elevation":0,"gtopo30":58,"timezone":"Europe/Bucharest","moddate":"2016-02-07T00:00:00.000Z"},{"geonameid":665065,"name":"Tânganu Moară","asciiname":"Tanganu Moara","alternatenames":"Tanganu Moara,Tanganul-Moara,Tinganu Moara,Tânganu Moară,Tânganul-Moara,Tînganu Moară","latitude":"44.3833300","longitude":"26.3166700","fclass":"P","fcode":"PPL","country":"RO","cc2":"RO","admin1":"41","admin2":"103014","admin3":"","admin4":"","population":0,"elevation":0,"gtopo30":47,"timezone":"Europe/Bucharest","moddate":"2020-03-08T00:00:00.000Z"},{"geonameid":665064,"name":"Tânganu Nou","asciiname":"Tanganu Nou","alternatenames":"Tanganu Nou,Tanganul-Nou,Tinganu Nou,Tânganu Nou,Tânganul-Nou,Tînganu Nou","latitude":"44.3833300","longitude":"26.3166700","fclass":"P","fcode":"PPLX","country":"RO","cc2":"RO","admin1":"41","admin2":"103014","admin3":"","admin4":"","population":0,"elevation":0,"gtopo30":47,"timezone":"Europe/Bucharest","moddate":"2020-03-08T00:00:00.000Z"}],"admin3":[],"alternateNames":[]},"__N_SSG":true}