{"pageProps":{"locale":"ro","admin2":{"geonameid":675765,"name":"Comuna Iclănzel","country":"RO","admin1":"27","admin2":"117667","admin3":"","latitude":"46.5366300","longitude":"24.2715300"},"admin1":{"geonameid":672628,"name":"Mureş","admin1":"27"},"locations":[{"geonameid":682752,"name":"Căpuşu de Câmpie","asciiname":"Capusu de Campie","alternatenames":"Capusu de Campie,Capusu de Cimpie,Capusul de Campie,Capusul-de-Camp,Căpuşu de Câmpie,Căpuşu de Cîmpie,Căpuşul de Câmpie,Căpuşul-de-Câmp","latitude":"46.5500000","longitude":"24.3166700","fclass":"P","fcode":"PPL","country":"RO","cc2":"RO","admin1":"27","admin2":"117667","admin3":"","admin4":"","population":0,"elevation":0,"gtopo30":291,"timezone":"Europe/Bucharest","moddate":"2020-03-08T00:00:00.000Z"},{"geonameid":682023,"name":"Chisălița","asciiname":"Chisalita","alternatenames":"","latitude":"46.5680900","longitude":"24.3147600","fclass":"P","fcode":"PPL","country":"RO","cc2":"","admin1":"27","admin2":"117667","admin3":"","admin4":"","population":25,"elevation":0,"gtopo30":376,"timezone":"Europe/Bucharest","moddate":"2013-04-21T00:00:00.000Z"},{"geonameid":678624,"name":"După Deal","asciiname":"Dupa Deal","alternatenames":"","latitude":"46.5174100","longitude":"24.2463000","fclass":"P","fcode":"PPL","country":"RO","cc2":"","admin1":"27","admin2":"117667","admin3":"","admin4":"","population":13,"elevation":0,"gtopo30":392,"timezone":"Europe/Bucharest","moddate":"2013-04-21T00:00:00.000Z"},{"geonameid":678231,"name":"Fânațe","asciiname":"Fanate","alternatenames":"Szenafu,Szénafű","latitude":"46.5340100","longitude":"24.2210400","fclass":"P","fcode":"PPL","country":"RO","cc2":"","admin1":"27","admin2":"117667","admin3":"","admin4":"","population":0,"elevation":0,"gtopo30":338,"timezone":"Europe/Bucharest","moddate":"2015-12-16T00:00:00.000Z"},{"geonameid":678215,"name":"Fânaţele Căpuşului","asciiname":"Fanatele Capusului","alternatenames":"Fanatele Capusului,Finatele Capusului,Fânaţele Căpuşului,Fînaţele Căpuşului","latitude":"46.5333300","longitude":"24.3166700","fclass":"P","fcode":"PPL","country":"RO","cc2":"","admin1":"27","admin2":"117667","admin3":"","admin4":"","population":0,"elevation":0,"gtopo30":327,"timezone":"Europe/Bucharest","moddate":"2020-03-08T00:00:00.000Z"},{"geonameid":677402,"name":"Ghidașteu","asciiname":"Ghidasteu","alternatenames":"","latitude":"46.5546000","longitude":"24.2681000","fclass":"P","fcode":"PPL","country":"RO","cc2":"","admin1":"27","admin2":"117667","admin3":"","admin4":"","population":28,"elevation":0,"gtopo30":336,"timezone":"Europe/Bucharest","moddate":"2013-04-21T00:00:00.000Z"},{"geonameid":675767,"name":"Iclandu Mare","asciiname":"Iclandu Mare","alternatenames":"Iclandu Mare,Iclandul,Iclandul-Mare","latitude":"46.5281000","longitude":"24.2653700","fclass":"P","fcode":"PPL","country":"RO","cc2":"RO","admin1":"27","admin2":"117667","admin3":"","admin4":"","population":671,"elevation":0,"gtopo30":306,"timezone":"Europe/Bucharest","moddate":"2013-04-21T00:00:00.000Z"},{"geonameid":675766,"name":"Iclănzel","asciiname":"Iclanzel","alternatenames":"Iclanzeiu,Iclanzel,Iclanzelul,Iclausel,Iclănzeiu,Iclănzel,Iclănzelul,Iclăuşel","latitude":"46.5333300","longitude":"24.2833300","fclass":"P","fcode":"PPLA2","country":"RO","cc2":"","admin1":"27","admin2":"117667","admin3":"","admin4":"","population":2255,"elevation":0,"gtopo30":310,"timezone":"Europe/Bucharest","moddate":"2012-06-12T00:00:00.000Z"},{"geonameid":674208,"name":"Mădărășeni","asciiname":"Madaraseni","alternatenames":"","latitude":"46.5032600","longitude":"24.2568800","fclass":"P","fcode":"PPL","country":"RO","cc2":"","admin1":"27","admin2":"117667","admin3":"","admin4":"","population":115,"elevation":0,"gtopo30":294,"timezone":"Europe/Bucharest","moddate":"2013-04-21T00:00:00.000Z"},{"geonameid":665639,"name":"Tăblășeni","asciiname":"Tablaseni","alternatenames":"","latitude":"46.5176300","longitude":"24.3066700","fclass":"P","fcode":"PPL","country":"RO","cc2":"","admin1":"27","admin2":"117667","admin3":"","admin4":"","population":25,"elevation":0,"gtopo30":409,"timezone":"Europe/Bucharest","moddate":"2013-04-21T00:00:00.000Z"},{"geonameid":663731,"name":"Valea Iclandului","asciiname":"Valea Iclandului","alternatenames":"Valea Iclandului,Valea Iclanlului","latitude":"46.5343900","longitude":"24.2539100","fclass":"P","fcode":"PPL","country":"RO","cc2":"RO","admin1":"27","admin2":"117667","admin3":"","admin4":"","population":19,"elevation":0,"gtopo30":312,"timezone":"Europe/Bucharest","moddate":"2013-04-20T00:00:00.000Z"}],"admin3":[],"alternateNames":[]},"__N_SSG":true}