{"pageProps":{"locale":"ro","admin2":{"geonameid":674611,"name":"Comuna Lopadea Nouă","country":"RO","admin1":"01","admin2":"5210","admin3":"","latitude":"46.2778200","longitude":"23.8497500"},"admin1":{"geonameid":686581,"name":"Alba","admin1":"01"},"locations":[{"geonameid":686079,"name":"Asinip","asciiname":"Asinip","alternatenames":"","latitude":"46.2977100","longitude":"23.8889600","fclass":"P","fcode":"PPL","country":"RO","cc2":"","admin1":"01","admin2":"5210","admin3":"","admin4":"","population":230,"elevation":0,"gtopo30":343,"timezone":"Europe/Bucharest","moddate":"2013-04-21T00:00:00.000Z"},{"geonameid":685868,"name":"Băgău","asciiname":"Bagau","alternatenames":"","latitude":"46.3104700","longitude":"23.7939900","fclass":"P","fcode":"PPL","country":"RO","cc2":"","admin1":"01","admin2":"5210","admin3":"","admin4":"","population":623,"elevation":0,"gtopo30":271,"timezone":"Europe/Bucharest","moddate":"2013-04-21T00:00:00.000Z"},{"geonameid":684962,"name":"Beța","asciiname":"Beta","alternatenames":"","latitude":"46.2536100","longitude":"23.8153400","fclass":"P","fcode":"PPL","country":"RO","cc2":"","admin1":"01","admin2":"5210","admin3":"","admin4":"","population":549,"elevation":0,"gtopo30":360,"timezone":"Europe/Bucharest","moddate":"2013-04-21T00:00:00.000Z"},{"geonameid":681943,"name":"Cicârd","asciiname":"Cicard","alternatenames":"Cicird,Cicirda,Cicîrd,Cicîrda","latitude":"46.2754600","longitude":"23.9067100","fclass":"P","fcode":"PPL","country":"RO","cc2":"","admin1":"01","admin2":"5210","admin3":"","admin4":"","population":0,"elevation":0,"gtopo30":300,"timezone":"Europe/Bucharest","moddate":"2015-11-08T00:00:00.000Z"},{"geonameid":681461,"name":"Ciuguzel","asciiname":"Ciuguzel","alternatenames":"","latitude":"46.2833900","longitude":"23.8587400","fclass":"P","fcode":"PPL","country":"RO","cc2":"","admin1":"01","admin2":"5210","admin3":"","admin4":"","population":749,"elevation":0,"gtopo30":313,"timezone":"Europe/Bucharest","moddate":"2013-04-21T00:00:00.000Z"},{"geonameid":674612,"name":"Lopadea Nouă","asciiname":"Lopadea Noua","alternatenames":"Lopadea Noua,Lopadea Nouă","latitude":"46.2909000","longitude":"23.8190100","fclass":"P","fcode":"PPLA2","country":"RO","cc2":"","admin1":"01","admin2":"5210","admin3":"","admin4":"","population":1132,"elevation":0,"gtopo30":278,"timezone":"Europe/Bucharest","moddate":"2013-04-21T00:00:00.000Z"},{"geonameid":672018,"name":"Ocnișoara","asciiname":"Ocnisoara","alternatenames":"","latitude":"46.2533400","longitude":"23.8770500","fclass":"P","fcode":"PPL","country":"RO","cc2":"","admin1":"01","admin2":"5210","admin3":"","admin4":"","population":51,"elevation":0,"gtopo30":290,"timezone":"Europe/Bucharest","moddate":"2013-04-21T00:00:00.000Z"},{"geonameid":671962,"name":"Odverem","asciiname":"Odverem","alternatenames":"","latitude":"46.2584500","longitude":"23.8384400","fclass":"P","fcode":"PPL","country":"RO","cc2":"","admin1":"01","admin2":"5210","admin3":"","admin4":"","population":88,"elevation":0,"gtopo30":342,"timezone":"Europe/Bucharest","moddate":"2013-04-21T00:00:00.000Z"}],"admin3":[],"alternateNames":[]},"__N_SSG":true}