{"pageProps":{"locale":"ro","admin2":{"geonameid":675091,"name":"Comuna Lăcusteni","country":"RO","admin1":"39","admin2":"174511","admin3":"","latitude":"44.7086300","longitude":"23.8921400"},"admin1":{"geonameid":662892,"name":"Vâlcea","admin1":"39"},"locations":[{"geonameid":685669,"name":"Bălăşoiu","asciiname":"Balasoiu","alternatenames":"Balasoiu,Balsoiul,Bălăşoiu,Bălşoiul","latitude":"44.7166700","longitude":"23.9000000","fclass":"P","fcode":"PPLX","country":"RO","cc2":"","admin1":"39","admin2":"174511","admin3":"","admin4":"","population":0,"elevation":0,"gtopo30":223,"timezone":"Europe/Bucharest","moddate":"2016-02-07T00:00:00.000Z"},{"geonameid":681780,"name":"Ciobăneşti","asciiname":"Ciobanesti","alternatenames":"Ciobanesti,Ciobanestii,Ciobaneştii,Ciobăneşti","latitude":"44.7333300","longitude":"23.8833300","fclass":"P","fcode":"PPLX","country":"RO","cc2":"","admin1":"39","admin2":"174511","admin3":"","admin4":"","population":0,"elevation":0,"gtopo30":224,"timezone":"Europe/Bucharest","moddate":"2016-02-07T00:00:00.000Z"},{"geonameid":680956,"name":"Contea","asciiname":"Contea","alternatenames":"","latitude":"44.7056900","longitude":"23.8914700","fclass":"P","fcode":"PPL","country":"RO","cc2":"","admin1":"39","admin2":"174511","admin3":"","admin4":"","population":380,"elevation":0,"gtopo30":280,"timezone":"Europe/Bucharest","moddate":"2013-04-21T00:00:00.000Z"},{"geonameid":677624,"name":"Gănești","asciiname":"Ganesti","alternatenames":"","latitude":"44.7232700","longitude":"23.8938000","fclass":"P","fcode":"PPL","country":"RO","cc2":"","admin1":"39","admin2":"174511","admin3":"","admin4":"","population":333,"elevation":0,"gtopo30":254,"timezone":"Europe/Bucharest","moddate":"2013-04-21T00:00:00.000Z"},{"geonameid":675092,"name":"Lăcusteni","asciiname":"Lacusteni","alternatenames":"","latitude":"44.6954400","longitude":"23.8998400","fclass":"P","fcode":"PPLA2","country":"RO","cc2":"","admin1":"39","admin2":"174511","admin3":"","admin4":"","population":246,"elevation":0,"gtopo30":213,"timezone":"Europe/Bucharest","moddate":"2013-04-21T00:00:00.000Z"},{"geonameid":675090,"name":"Lăcustenii de Jos","asciiname":"Lacustenii de Jos","alternatenames":"Lacustenii de Jos,Lăcustenii de Jos,Risipiti,Risipiţi","latitude":"44.6866000","longitude":"23.8883300","fclass":"P","fcode":"PPL","country":"RO","cc2":"RO","admin1":"39","admin2":"174511","admin3":"","admin4":"","population":270,"elevation":0,"gtopo30":219,"timezone":"Europe/Bucharest","moddate":"2013-04-21T00:00:00.000Z"},{"geonameid":675089,"name":"Lăcustenii de Sus","asciiname":"Lacustenii de Sus","alternatenames":"Biserica,Lacustenii de Sus,Lăcustenii de Sus","latitude":"44.7321400","longitude":"23.8872800","fclass":"P","fcode":"PPL","country":"RO","cc2":"RO","admin1":"39","admin2":"174511","admin3":"","admin4":"","population":332,"elevation":0,"gtopo30":221,"timezone":"Europe/Bucharest","moddate":"2013-04-21T00:00:00.000Z"},{"geonameid":664499,"name":"Tunari","asciiname":"Tunari","alternatenames":"","latitude":"44.7166700","longitude":"23.9000000","fclass":"P","fcode":"PPLX","country":"RO","cc2":"","admin1":"39","admin2":"174511","admin3":"","admin4":"","population":0,"elevation":0,"gtopo30":223,"timezone":"Europe/Bucharest","moddate":"2016-02-07T00:00:00.000Z"}],"admin3":[],"alternateNames":[]},"__N_SSG":true}