{"pageProps":{"locale":"ro","admin2":{"geonameid":666047,"name":"Comuna Stoina","country":"RO","admin1":"19","admin2":"82314","admin3":"","latitude":"44.6799800","longitude":"23.6456300"},"admin1":{"geonameid":676898,"name":"Gorj","admin1":"19"},"locations":[{"geonameid":681667,"name":"Ciorari","asciiname":"Ciorari","alternatenames":"","latitude":"44.7028800","longitude":"23.6262600","fclass":"P","fcode":"PPL","country":"RO","cc2":"","admin1":"19","admin2":"82314","admin3":"","admin4":"","population":392,"elevation":0,"gtopo30":195,"timezone":"Europe/Bucharest","moddate":"2013-04-21T00:00:00.000Z"},{"geonameid":673444,"name":"Mielușei","asciiname":"Mielusei","alternatenames":"Mielusei,Mielusei-Ulmetu,Mieluşei,Mieluşei-Ulmetu","latitude":"44.6741100","longitude":"23.6647000","fclass":"P","fcode":"PPL","country":"RO","cc2":"RO","admin1":"19","admin2":"82314","admin3":"","admin4":"","population":103,"elevation":0,"gtopo30":206,"timezone":"Europe/Bucharest","moddate":"2013-04-21T00:00:00.000Z"},{"geonameid":671490,"name":"Păișani","asciiname":"Paisani","alternatenames":"","latitude":"44.6669000","longitude":"23.6421200","fclass":"P","fcode":"PPL","country":"RO","cc2":"","admin1":"19","admin2":"82314","admin3":"","admin4":"","population":480,"elevation":0,"gtopo30":188,"timezone":"Europe/Bucharest","moddate":"2013-04-21T00:00:00.000Z"},{"geonameid":670749,"name":"Pârâu","asciiname":"Parau","alternatenames":"Parau,Paraul,Piriu,Pârâu,Pârâul,Pîrîu","latitude":"44.6500000","longitude":"23.6500000","fclass":"P","fcode":"PPLX","country":"RO","cc2":"RO","admin1":"19","admin2":"82314","admin3":"","admin4":"","population":0,"elevation":0,"gtopo30":184,"timezone":"Europe/Bucharest","moddate":"2020-03-08T00:00:00.000Z"},{"geonameid":668468,"name":"Runcu","asciiname":"Runcu","alternatenames":"Runca,Runcu","latitude":"44.6833300","longitude":"23.6333300","fclass":"P","fcode":"PPL","country":"RO","cc2":"","admin1":"19","admin2":"82314","admin3":"","admin4":"","population":0,"elevation":0,"gtopo30":188,"timezone":"Europe/Bucharest","moddate":"2016-02-07T00:00:00.000Z"},{"geonameid":666048,"name":"Stoina","asciiname":"Stoina","alternatenames":"Stoina","latitude":"44.6833300","longitude":"23.6333300","fclass":"P","fcode":"PPLA2","country":"RO","cc2":"","admin1":"19","admin2":"82314","admin3":"","admin4":"","population":2791,"elevation":0,"gtopo30":188,"timezone":"Europe/Bucharest","moddate":"2012-06-12T00:00:00.000Z"},{"geonameid":666044,"name":"Stoiniţa","asciiname":"Stoinita","alternatenames":"Stoenita,Stoeniţa,Stoinita,Stoiniţa","latitude":"44.6833300","longitude":"23.6166700","fclass":"P","fcode":"PPL","country":"RO","cc2":"","admin1":"19","admin2":"82314","admin3":"","admin4":"","population":0,"elevation":0,"gtopo30":229,"timezone":"Europe/Bucharest","moddate":"2016-02-07T00:00:00.000Z"},{"geonameid":664839,"name":"Toiaga","asciiname":"Toiaga","alternatenames":"","latitude":"44.6922800","longitude":"23.6459800","fclass":"P","fcode":"PPL","country":"RO","cc2":"","admin1":"19","admin2":"82314","admin3":"","admin4":"","population":277,"elevation":0,"gtopo30":192,"timezone":"Europe/Bucharest","moddate":"2013-04-21T00:00:00.000Z"},{"geonameid":664342,"name":"Ulăreasa","asciiname":"Ulareasa","alternatenames":"","latitude":"44.7000000","longitude":"23.6333300","fclass":"P","fcode":"PPL","country":"RO","cc2":"","admin1":"19","admin2":"82314","admin3":"","admin4":"","population":0,"elevation":0,"gtopo30":187,"timezone":"Europe/Bucharest","moddate":"2016-02-07T00:00:00.000Z"},{"geonameid":664301,"name":"Ulmet","asciiname":"Ulmet","alternatenames":"Ulmetu,Ulmetul","latitude":"44.6815100","longitude":"23.6579200","fclass":"P","fcode":"PPL","country":"RO","cc2":"RO","admin1":"19","admin2":"82314","admin3":"","admin4":"","population":84,"elevation":0,"gtopo30":211,"timezone":"Europe/Bucharest","moddate":"2013-04-21T00:00:00.000Z"},{"geonameid":664185,"name":"Urda de Sus","asciiname":"Urda de Sus","alternatenames":"Urda,Urda de Sus","latitude":"44.6579600","longitude":"23.6482400","fclass":"P","fcode":"PPL","country":"RO","cc2":"RO","admin1":"19","admin2":"82314","admin3":"","admin4":"","population":425,"elevation":0,"gtopo30":179,"timezone":"Europe/Bucharest","moddate":"2013-04-20T00:00:00.000Z"},{"geonameid":663684,"name":"Valea lui Stan","asciiname":"Valea lui Stan","alternatenames":"","latitude":"44.7000000","longitude":"23.6333300","fclass":"P","fcode":"PPL","country":"RO","cc2":"","admin1":"19","admin2":"82314","admin3":"","admin4":"","population":0,"elevation":0,"gtopo30":187,"timezone":"Europe/Bucharest","moddate":"2016-02-07T00:00:00.000Z"}],"admin3":[],"alternateNames":[]},"__N_SSG":true}