{"pageProps":{"locale":"ro","admin2":{"geonameid":686554,"name":"Comuna Albeşti","country":"RO","admin1":"14","admin2":"60945","admin3":"","latitude":"43.8086300","longitude":"28.4032500"},"admin1":{"geonameid":680962,"name":"Constanța","admin1":"14","localeAltName":"Constanța"},"locations":[{"geonameid":686703,"name":"Acbaşi","asciiname":"Acbasi","alternatenames":"","latitude":"43.8000000","longitude":"28.4333300","fclass":"P","fcode":"PPLX","country":"RO","cc2":"","admin1":"14","admin2":"60945","admin3":"","admin4":"","population":0,"elevation":0,"gtopo30":20,"timezone":"Europe/Bucharest","moddate":"2016-02-07T00:00:00.000Z"},{"geonameid":686568,"name":"Albeşti","asciiname":"Albesti","alternatenames":"Albesti,Albeşti,Sarighial,Sarighiol,Sarighoil","latitude":"43.8000000","longitude":"28.4166700","fclass":"P","fcode":"PPLA2","country":"RO","cc2":"","admin1":"14","admin2":"60945","admin3":"","admin4":"","population":3459,"elevation":0,"gtopo30":48,"timezone":"Europe/Bucharest","moddate":"2012-06-12T00:00:00.000Z"},{"geonameid":686123,"name":"Arsa","asciiname":"Arsa","alternatenames":"Arsa,Capucci,Kopuci,Papuci","latitude":"43.8387700","longitude":"28.4649700","fclass":"P","fcode":"PPL","country":"RO","cc2":"RO","admin1":"14","admin2":"60945","admin3":"","admin4":"","population":607,"elevation":0,"gtopo30":45,"timezone":"Europe/Bucharest","moddate":"2013-04-21T00:00:00.000Z"},{"geonameid":683086,"name":"Caceamac","asciiname":"Caceamac","alternatenames":"","latitude":"43.8000000","longitude":"28.4333300","fclass":"P","fcode":"PPLX","country":"RO","cc2":"","admin1":"14","admin2":"60945","admin3":"","admin4":"","population":0,"elevation":0,"gtopo30":20,"timezone":"Europe/Bucharest","moddate":"2016-02-07T00:00:00.000Z"},{"geonameid":680716,"name":"Coroana","asciiname":"Coroana","alternatenames":"Cadichioi,Coroana","latitude":"43.7611100","longitude":"28.3887900","fclass":"P","fcode":"PPL","country":"RO","cc2":"RO","admin1":"14","admin2":"60945","admin3":"","admin4":"","population":154,"elevation":0,"gtopo30":69,"timezone":"Europe/Bucharest","moddate":"2013-04-21T00:00:00.000Z"},{"geonameid":680437,"name":"Cotu Văii","asciiname":"Cotu Vaii","alternatenames":"Chiragi,Ciragi,Cotu Vaii,Cotu Văii,Cotul Vaei,Cotul Văei,Cotul-Vaii,Cotul-Văii","latitude":"43.8231900","longitude":"28.3464000","fclass":"P","fcode":"PPL","country":"RO","cc2":"RO","admin1":"14","admin2":"60945","admin3":"","admin4":"","population":958,"elevation":0,"gtopo30":57,"timezone":"Europe/Bucharest","moddate":"2013-04-21T00:00:00.000Z"},{"geonameid":662727,"name":"Vârtop","asciiname":"Vartop","alternatenames":"Deliorucci,Vartopu,Vartopul,Virtop,Vârtopu,Vârtopul,Vîrtop","latitude":"43.8187200","longitude":"28.3847300","fclass":"P","fcode":"PPL","country":"RO","cc2":"RO","admin1":"14","admin2":"60945","admin3":"","admin4":"","population":291,"elevation":0,"gtopo30":27,"timezone":"Europe/Bucharest","moddate":"2013-04-20T00:00:00.000Z"}],"admin3":[],"alternateNames":[{"alternatenameId":402149,"geonameid":680962,"isoLanguage":"ro","alternateName":"Constanța","isPreferredName":true,"isShortName":true,"isColloquial":false,"isHistoric":false}]},"__N_SSG":true}