{"pageProps":{"locale":"en","admin2":{"geonameid":3333247,"name":"Rhondda Cynon Taf","country":"GB","admin1":"WLS","admin2":"Y9","admin3":"","latitude":"51.6666700","longitude":"-3.5000000"},"admin1":{"geonameid":2634895,"name":"Wales","admin1":"WLS","localeAltName":"Wales"},"locations":[{"geonameid":2657794,"name":"Aber-nant","asciiname":"Aber-nant","alternatenames":"","latitude":"51.7194400","longitude":"-3.4302800","fclass":"P","fcode":"PPL","country":"GB","cc2":"","admin1":"WLS","admin2":"Y9","admin3":"00PF003","admin4":"","population":0,"elevation":0,"gtopo30":171,"timezone":"Europe/London","moddate":"2016-06-22T00:00:00.000Z"},{"geonameid":2657855,"name":"Aberaman","asciiname":"Aberaman","alternatenames":"Aberaman","latitude":"51.7030700","longitude":"-3.4302600","fclass":"P","fcode":"PPL","country":"GB","cc2":"","admin1":"WLS","admin2":"Y9","admin3":"00PF001","admin4":"","population":0,"elevation":0,"gtopo30":124,"timezone":"Europe/London","moddate":"2011-03-03T00:00:00.000Z"},{"geonameid":2657837,"name":"Abercynon","asciiname":"Abercynon","alternatenames":"Abercynon,Aberkunon,Aberoynon,Аберкънон","latitude":"51.6454800","longitude":"-3.3272700","fclass":"P","fcode":"PPL","country":"GB","cc2":"","admin1":"WLS","admin2":"Y9","admin3":"00PF002","admin4":"","population":5983,"elevation":0,"gtopo30":84,"timezone":"Europe/London","moddate":"2017-06-12T00:00:00.000Z"},{"geonameid":2657835,"name":"Aberdare","asciiname":"Aberdare","alternatenames":"Aberdar,Aberdare,Aberdare - Aberdar,Aberdare - Aberdâr,Aberdehjr,Aberdehr,Aberder,Aberderas,Aberdâr,Aburdeur,a bo dai er,aebeodeeo,Абердер,Абердэйр,Абердэр,Абърдеър,阿伯代爾,애버데어","latitude":"51.7143800","longitude":"-3.4491800","fclass":"P","fcode":"PPL","country":"GB","cc2":"","admin1":"WLS","admin2":"Y9","admin3":"00PF003","admin4":"","population":31135,"elevation":0,"gtopo30":135,"timezone":"Europe/London","moddate":"2020-10-24T00:00:00.000Z"},{"geonameid":3345316,"name":"Beddau","asciiname":"Beddau","alternatenames":"","latitude":"51.5539800","longitude":"-3.3581400","fclass":"P","fcode":"PPL","country":"GB","cc2":"","admin1":"WLS","admin2":"Y9","admin3":"00PF012","admin4":"","population":8134,"elevation":0,"gtopo30":116,"timezone":"Europe/London","moddate":"2011-03-03T00:00:00.000Z"},{"geonameid":10345351,"name":"Bryncae","asciiname":"Bryncae","alternatenames":"","latitude":"51.5326600","longitude":"-3.4516400","fclass":"P","fcode":"PPL","country":"GB","cc2":"","admin1":"WLS","admin2":"Y9","admin3":"00PF010","admin4":"","population":0,"elevation":0,"gtopo30":68,"timezone":"Europe/London","moddate":"2015-06-22T00:00:00.000Z"},{"geonameid":3345314,"name":"Brynna","asciiname":"Brynna","alternatenames":"","latitude":"51.5384500","longitude":"-3.4637800","fclass":"P","fcode":"PPL","country":"GB","cc2":"","admin1":"WLS","admin2":"Y9","admin3":"00PF010","admin4":"","population":6686,"elevation":0,"gtopo30":80,"timezone":"Europe/London","moddate":"2017-06-12T00:00:00.000Z"},{"geonameid":11593134,"name":"Church Village","asciiname":"Church Village","alternatenames":"","latitude":"51.5660800","longitude":"-3.3164500","fclass":"P","fcode":"PPL","country":"GB","cc2":"","admin1":"WLS","admin2":"Y9","admin3":"00PF013","admin4":"","population":0,"elevation":0,"gtopo30":98,"timezone":"Europe/London","moddate":"2017-06-21T00:00:00.000Z"},{"geonameid":3345284,"name":"Clydach Vale","asciiname":"Clydach Vale","alternatenames":"","latitude":"51.6266500","longitude":"-3.4801500","fclass":"P","fcode":"PPLA2","country":"GB","cc2":"","admin1":"WLS","admin2":"Y9","admin3":"00PF005","admin4":"","population":0,"elevation":0,"gtopo30":249,"timezone":"Europe/London","moddate":"2011-03-03T00:00:00.000Z"},{"geonameid":2652649,"name":"Coedely","asciiname":"Coedely","alternatenames":"Coed Ely,Coedely","latitude":"51.5618900","longitude":"-3.4163000","fclass":"P","fcode":"PPL","country":"GB","cc2":"","admin1":"WLS","admin2":"Y9","admin3":"00PF028","admin4":"","population":0,"elevation":0,"gtopo30":91,"timezone":"Europe/London","moddate":"2011-03-03T00:00:00.000Z"},{"geonameid":3345318,"name":"Cwmaman","asciiname":"Cwmaman","alternatenames":"Cwmaman","latitude":"51.6889400","longitude":"-3.4397600","fclass":"P","fcode":"PPL","country":"GB","cc2":"","admin1":"WLS","admin2":"Y9","admin3":"00PF001","admin4":"","population":0,"elevation":0,"gtopo30":184,"timezone":"Europe/London","moddate":"2011-03-03T00:00:00.000Z"},{"geonameid":3345319,"name":"Cwmbach","asciiname":"Cwmbach","alternatenames":"","latitude":"51.7055600","longitude":"-3.4094400","fclass":"P","fcode":"PPLA3","country":"GB","cc2":"","admin1":"WLS","admin2":"Y9","admin3":"00PF004","admin4":"","population":4330,"elevation":0,"gtopo30":174,"timezone":"Europe/London","moddate":"2011-07-31T00:00:00.000Z"},{"geonameid":3345322,"name":"Cwmdare","asciiname":"Cwmdare","alternatenames":"Cwmdare","latitude":"51.7205600","longitude":"-3.4727800","fclass":"P","fcode":"PPL","country":"GB","cc2":"","admin1":"WLS","admin2":"Y9","admin3":"00PF003","admin4":"","population":0,"elevation":0,"gtopo30":212,"timezone":"Europe/London","moddate":"2016-06-22T00:00:00.000Z"},{"geonameid":3345324,"name":"Cwmparc","asciiname":"Cwmparc","alternatenames":"Cwmparc","latitude":"51.6543800","longitude":"-3.5168600","fclass":"P","fcode":"PPL","country":"GB","cc2":"","admin1":"WLS","admin2":"Y9","admin3":"00PF032","admin4":"","population":0,"elevation":0,"gtopo30":195,"timezone":"Europe/London","moddate":"2011-03-03T00:00:00.000Z"},{"geonameid":2649531,"name":"Ferndale","asciiname":"Ferndale","alternatenames":"Ferndale","latitude":"51.6605600","longitude":"-3.4475000","fclass":"P","fcode":"PPLA3","country":"GB","cc2":"","admin1":"WLS","admin2":"Y9","admin3":"00PF007","admin4":"","population":7338,"elevation":0,"gtopo30":236,"timezone":"Europe/London","moddate":"2017-06-12T00:00:00.000Z"},{"geonameid":2648670,"name":"Gilfach Goch","asciiname":"Gilfach Goch","alternatenames":"","latitude":"51.5921300","longitude":"-3.4729600","fclass":"P","fcode":"PPL","country":"GB","cc2":"","admin1":"WLS","admin2":"Y9","admin3":"00PF008","admin4":"","population":2532,"elevation":0,"gtopo30":208,"timezone":"Europe/London","moddate":"2011-03-03T00:00:00.000Z"},{"geonameid":2647113,"name":"Hendreforgan","asciiname":"Hendreforgan","alternatenames":"Hendre-Forgan,Hendreforgan","latitude":"51.5842700","longitude":"-3.4621600","fclass":"P","fcode":"PPL","country":"GB","cc2":"","admin1":"WLS","admin2":"Y9","admin3":"00PF008","admin4":"","population":0,"elevation":0,"gtopo30":219,"timezone":"Europe/London","moddate":"2011-03-03T00:00:00.000Z"},{"geonameid":2646830,"name":"Hirwaun","asciiname":"Hirwaun","alternatenames":"Hirwain,Hirwaun","latitude":"51.7391700","longitude":"-3.5102800","fclass":"P","fcode":"PPLA3","country":"GB","cc2":"GB","admin1":"WLS","admin2":"Y9","admin3":"00PF009","admin4":"","population":7247,"elevation":0,"gtopo30":189,"timezone":"Europe/London","moddate":"2017-06-29T00:00:00.000Z"},{"geonameid":2643994,"name":"Llanharan","asciiname":"Llanharan","alternatenames":"","latitude":"51.5380500","longitude":"-3.4390600","fclass":"P","fcode":"PPL","country":"GB","cc2":"","admin1":"WLS","admin2":"Y9","admin3":"00PF010","admin4":"","population":5755,"elevation":0,"gtopo30":76,"timezone":"Europe/London","moddate":"2011-03-03T00:00:00.000Z"},{"geonameid":2643993,"name":"Llanharry","asciiname":"Llanharry","alternatenames":"Llanharry,Llanhary","latitude":"51.5142200","longitude":"-3.4324000","fclass":"P","fcode":"PPL","country":"GB","cc2":"","admin1":"WLS","admin2":"Y9","admin3":"00PF011","admin4":"","population":3035,"elevation":0,"gtopo30":90,"timezone":"Europe/London","moddate":"2017-06-12T00:00:00.000Z"},{"geonameid":2643937,"name":"Llantrisant","asciiname":"Llantrisant","alternatenames":"Lantrisant,Llantrisant,Лантрисант","latitude":"51.5402800","longitude":"-3.3738900","fclass":"P","fcode":"PPLA3","country":"GB","cc2":"","admin1":"WLS","admin2":"Y9","admin3":"00PF012","admin4":"","population":14422,"elevation":0,"gtopo30":101,"timezone":"Europe/London","moddate":"2017-06-12T00:00:00.000Z"},{"geonameid":2643934,"name":"Llantwit Fardre","asciiname":"Llantwit Fardre","alternatenames":"Llanilltud Faerdref,Llantwit Fardre,Llantwitt-fardre,Llantwitvairdre","latitude":"51.5546000","longitude":"-3.3324100","fclass":"P","fcode":"PPL","country":"GB","cc2":"","admin1":"WLS","admin2":"Y9","admin3":"00PF013","admin4":"","population":3992,"elevation":0,"gtopo30":76,"timezone":"Europe/London","moddate":"2011-03-03T00:00:00.000Z"},{"geonameid":2643910,"name":"Llanwonno","asciiname":"Llanwonno","alternatenames":"","latitude":"51.6504400","longitude":"-3.4030100","fclass":"P","fcode":"PPL","country":"GB","cc2":"","admin1":"WLS","admin2":"Y9","admin3":"00PF035","admin4":"","population":0,"elevation":0,"gtopo30":336,"timezone":"Europe/London","moddate":"2011-03-03T00:00:00.000Z"},{"geonameid":3345320,"name":"Llwydcoed","asciiname":"Llwydcoed","alternatenames":"Llwydcoed","latitude":"51.7313900","longitude":"-3.4601100","fclass":"P","fcode":"PPL","country":"GB","cc2":"","admin1":"WLS","admin2":"Y9","admin3":"00PF014","admin4":"","population":0,"elevation":0,"gtopo30":169,"timezone":"Europe/London","moddate":"2011-03-03T00:00:00.000Z"},{"geonameid":2643874,"name":"Llwynypia","asciiname":"Llwynypia","alternatenames":"Llwyn-y-pia,Llwynpia,Llwynypia","latitude":"51.6333300","longitude":"-3.4500000","fclass":"P","fcode":"PPL","country":"GB","cc2":"GB","admin1":"WLS","admin2":"Y9","admin3":"00PF015","admin4":"","population":2253,"elevation":0,"gtopo30":142,"timezone":"Europe/London","moddate":"2016-06-22T00:00:00.000Z"},{"geonameid":2643222,"name":"Maerdy","asciiname":"Maerdy","alternatenames":"Maerdy,Mardy","latitude":"51.6752800","longitude":"-3.4866700","fclass":"P","fcode":"PPLA3","country":"GB","cc2":"","admin1":"WLS","admin2":"Y9","admin3":"00PF016","admin4":"","population":0,"elevation":0,"gtopo30":307,"timezone":"Europe/London","moddate":"2013-11-13T00:00:00.000Z"},{"geonameid":9072607,"name":"Miskin","asciiname":"Miskin","alternatenames":"","latitude":"51.5194300","longitude":"-3.3756800","fclass":"P","fcode":"PPL","country":"GB","cc2":"","admin1":"WLS","admin2":"Y9","admin3":"00PF022","admin4":"","population":0,"elevation":0,"gtopo30":45,"timezone":"Europe/London","moddate":"2014-06-02T00:00:00.000Z"},{"geonameid":2642116,"name":"Mountain Ash","asciiname":"Mountain Ash","alternatenames":"Aberpennar","latitude":"51.6836100","longitude":"-3.3800800","fclass":"P","fcode":"PPL","country":"GB","cc2":"","admin1":"WLS","admin2":"Y9","admin3":"00PF017","admin4":"","population":11230,"elevation":0,"gtopo30":116,"timezone":"Europe/London","moddate":"2017-06-12T00:00:00.000Z"},{"geonameid":2641898,"name":"Nantgarw","asciiname":"Nantgarw","alternatenames":"Nantgarw","latitude":"51.5599500","longitude":"-3.2715500","fclass":"P","fcode":"PPL","country":"GB","cc2":"","admin1":"WLS","admin2":"Y9","admin3":"00PF026","admin4":"","population":0,"elevation":0,"gtopo30":41,"timezone":"Europe/London","moddate":"2011-03-03T00:00:00.000Z"},{"geonameid":2640478,"name":"Penderyn","asciiname":"Penderyn","alternatenames":"Penderyn","latitude":"51.7599200","longitude":"-3.5221800","fclass":"P","fcode":"PPL","country":"GB","cc2":"","admin1":"WLS","admin2":"Y9","admin3":"00PF009","admin4":"","population":0,"elevation":0,"gtopo30":234,"timezone":"Europe/London","moddate":"2011-03-03T00:00:00.000Z"},{"geonameid":8260056,"name":"Pentre","asciiname":"Pentre","alternatenames":"","latitude":"51.6542900","longitude":"-3.4913300","fclass":"P","fcode":"PPL","country":"GB","cc2":"","admin1":"WLS","admin2":"Y9","admin3":"00PF019","admin4":"","population":5424,"elevation":0,"gtopo30":165,"timezone":"Europe/London","moddate":"2012-04-12T00:00:00.000Z"},{"geonameid":3345321,"name":"Penywaun","asciiname":"Penywaun","alternatenames":"Penywaun","latitude":"51.7316700","longitude":"-3.4825000","fclass":"P","fcode":"PPL","country":"GB","cc2":"","admin1":"WLS","admin2":"Y9","admin3":"00PF021","admin4":"","population":0,"elevation":0,"gtopo30":184,"timezone":"Europe/London","moddate":"2016-06-22T00:00:00.000Z"},{"geonameid":8260052,"name":"Pontyclun","asciiname":"Pontyclun","alternatenames":"Pont-y-clun,Pontyclun","latitude":"51.5216200","longitude":"-3.3914500","fclass":"P","fcode":"PPL","country":"GB","cc2":"","admin1":"WLS","admin2":"Y9","admin3":"00PF022","admin4":"","population":5794,"elevation":0,"gtopo30":49,"timezone":"Europe/London","moddate":"2019-10-16T00:00:00.000Z"},{"geonameid":9072606,"name":"Pontygwaith","asciiname":"Pontygwaith","alternatenames":"","latitude":"51.6430800","longitude":"-3.4343000","fclass":"P","fcode":"PPL","country":"GB","cc2":"","admin1":"WLS","admin2":"Y9","admin3":"00PF033","admin4":"","population":0,"elevation":0,"gtopo30":203,"timezone":"Europe/London","moddate":"2014-06-02T00:00:00.000Z"},{"geonameid":2640104,"name":"Pontypridd","asciiname":"Pontypridd","alternatenames":"Pontepridas,Pontiprit,Pontiprite,Pontuprid,Pontypridd,pang te pu li si,pontipeulideu,Понтиприт,Понтиприте,Понтъприд,龐特普里斯,폰티프리드","latitude":"51.6021000","longitude":"-3.3421100","fclass":"P","fcode":"PPL","country":"GB","cc2":"","admin1":"WLS","admin2":"Y9","admin3":"00PF023","admin4":"","population":30420,"elevation":0,"gtopo30":68,"timezone":"Europe/London","moddate":"2011-03-03T00:00:00.000Z"},{"geonameid":2640056,"name":"Porth","asciiname":"Porth","alternatenames":"Porth","latitude":"51.6130600","longitude":"-3.4036100","fclass":"P","fcode":"PPLA3","country":"GB","cc2":"","admin1":"WLS","admin2":"Y9","admin3":"00PF024","admin4":"","population":0,"elevation":0,"gtopo30":147,"timezone":"Europe/London","moddate":"2011-07-31T00:00:00.000Z"},{"geonameid":3345327,"name":"Rhigos","asciiname":"Rhigos","alternatenames":"Rhigos","latitude":"51.7423100","longitude":"-3.5618500","fclass":"P","fcode":"PPL","country":"GB","cc2":"","admin1":"WLS","admin2":"Y9","admin3":"00PF025","admin4":"","population":718,"elevation":0,"gtopo30":217,"timezone":"Europe/London","moddate":"2017-06-12T00:00:00.000Z"},{"geonameid":2639447,"name":"Rhondda","asciiname":"Rhondda","alternatenames":"Rhondda,Ronda,Ronta,Y Rhondda,rwnta,Ронда,Ронта,رونتا","latitude":"51.6589600","longitude":"-3.4488500","fclass":"P","fcode":"PPL","country":"GB","cc2":"","admin1":"WLS","admin2":"Y9","admin3":"00PF007","admin4":"","population":59450,"elevation":0,"gtopo30":256,"timezone":"Europe/London","moddate":"2011-03-03T00:00:00.000Z"},{"geonameid":2636326,"name":"Taff's Well","asciiname":"Taff's Well","alternatenames":"Flynnon Taf,Taff's Well,Taff’s Well","latitude":"51.5427800","longitude":"-3.2725000","fclass":"P","fcode":"PPL","country":"GB","cc2":"","admin1":"WLS","admin2":"Y9","admin3":"","admin4":"","population":0,"elevation":0,"gtopo30":48,"timezone":"Europe/London","moddate":"2017-07-21T00:00:00.000Z"},{"geonameid":3345283,"name":"Tonypandy","asciiname":"Tonypandy","alternatenames":"Tonupandi,tang ni pan di,Тонъпанди,湯尼潘帝","latitude":"51.6220200","longitude":"-3.4554400","fclass":"P","fcode":"PPL","country":"GB","cc2":"","admin1":"WLS","admin2":"Y9","admin3":"00PF027","admin4":"","population":62545,"elevation":0,"gtopo30":154,"timezone":"Europe/London","moddate":"2017-06-12T00:00:00.000Z"},{"geonameid":2635689,"name":"Tonyrefail","asciiname":"Tonyrefail","alternatenames":"","latitude":"51.5840200","longitude":"-3.4304100","fclass":"P","fcode":"PPL","country":"GB","cc2":"","admin1":"WLS","admin2":"Y9","admin3":"00PF028","admin4":"","population":9317,"elevation":0,"gtopo30":143,"timezone":"Europe/London","moddate":"2017-06-12T00:00:00.000Z"},{"geonameid":2635533,"name":"Treforest","asciiname":"Treforest","alternatenames":"","latitude":"51.5935300","longitude":"-3.3247400","fclass":"P","fcode":"PPL","country":"GB","cc2":"","admin1":"WLS","admin2":"Y9","admin3":"00PF023","admin4":"","population":0,"elevation":0,"gtopo30":62,"timezone":"Europe/London","moddate":"2011-03-03T00:00:00.000Z"},{"geonameid":2635525,"name":"Trehafod","asciiname":"Trehafod","alternatenames":"Trehafod","latitude":"51.6088200","longitude":"-3.3789100","fclass":"P","fcode":"PPL","country":"GB","cc2":"","admin1":"WLS","admin2":"Y9","admin3":"00PF023","admin4":"","population":0,"elevation":0,"gtopo30":74,"timezone":"Europe/London","moddate":"2011-03-03T00:00:00.000Z"},{"geonameid":2635523,"name":"Treherbert","asciiname":"Treherbert","alternatenames":"","latitude":"51.6713900","longitude":"-3.5297200","fclass":"P","fcode":"PPLA3","country":"GB","cc2":"","admin1":"WLS","admin2":"Y9","admin3":"00PF030","admin4":"","population":0,"elevation":0,"gtopo30":187,"timezone":"Europe/London","moddate":"2011-07-31T00:00:00.000Z"},{"geonameid":2635496,"name":"Treorchy","asciiname":"Treorchy","alternatenames":"Treorchy,Treorci,Treorky","latitude":"51.6595800","longitude":"-3.5058700","fclass":"P","fcode":"PPL","country":"GB","cc2":"","admin1":"WLS","admin2":"Y9","admin3":"00PF032","admin4":"","population":8105,"elevation":0,"gtopo30":161,"timezone":"Europe/London","moddate":"2015-01-09T00:00:00.000Z"},{"geonameid":8063565,"name":"Ynyswen","asciiname":"Ynyswen","alternatenames":"","latitude":"51.6665400","longitude":"-3.5124100","fclass":"P","fcode":"PPL","country":"GB","cc2":"","admin1":"WLS","admin2":"Y9","admin3":"00PF032","admin4":"","population":0,"elevation":0,"gtopo30":195,"timezone":"Europe/London","moddate":"2011-12-01T00:00:00.000Z"},{"geonameid":10171166,"name":"Ynysybwl","asciiname":"Ynysybwl","alternatenames":"","latitude":"51.6392200","longitude":"-3.3603600","fclass":"P","fcode":"PPL","country":"GB","cc2":"","admin1":"WLS","admin2":"Y9","admin3":"00PF035","admin4":"","population":3503,"elevation":0,"gtopo30":142,"timezone":"Europe/London","moddate":"2017-06-12T00:00:00.000Z"}],"admin3":[{"geonameid":7291220,"name":"Aberaman","admin3":"00PF001"},{"geonameid":7297734,"name":"Abercynon","admin3":"00PF002"},{"geonameid":7292206,"name":"Aberdare","admin3":"00PF003"},{"geonameid":7292208,"name":"Cwm Clydach","admin3":"00PF005"},{"geonameid":7292207,"name":"Cwmbach","admin3":"00PF004"},{"geonameid":7298815,"name":"Cymmer","admin3":"00PF006"},{"geonameid":7297061,"name":"Ferndale","admin3":"00PF007"},{"geonameid":7297735,"name":"Gilfach Goch","admin3":"00PF008"},{"geonameid":7297062,"name":"Hirwaun","admin3":"00PF009"},{"geonameid":7301036,"name":"Llanharan","admin3":"00PF010"},{"geonameid":7298816,"name":"Llanharry","admin3":"00PF011"},{"geonameid":7292209,"name":"Llantrisant","admin3":"00PF012"},{"geonameid":7301037,"name":"Llantwit Fardre","admin3":"00PF013"},{"geonameid":7293930,"name":"Llwydcoed","admin3":"00PF014"},{"geonameid":7301038,"name":"Llwyn-y-Pia","admin3":"00PF015"},{"geonameid":7292210,"name":"Maerdy","admin3":"00PF016"},{"geonameid":7301039,"name":"Mountain Ash","admin3":"00PF017"},{"geonameid":7298840,"name":"Pen-y-Graig","admin3":"00PF020"},{"geonameid":7297064,"name":"Pen-y-Waun","admin3":"00PF021"},{"geonameid":7297063,"name":"Penrhiwceiber","admin3":"00PF018"},{"geonameid":7292211,"name":"Pentre","admin3":"00PF019"},{"geonameid":7298841,"name":"Pont-y-Clun","admin3":"00PF022"},{"geonameid":7298397,"name":"Pontypridd","admin3":"00PF023"},{"geonameid":7292212,"name":"Porth","admin3":"00PF024"},{"geonameid":7300739,"name":"Rhigos","admin3":"00PF025"},{"geonameid":7297065,"name":"Taffs Well","admin3":"00PF026"},{"geonameid":7292213,"name":"Tonypandy","admin3":"00PF027"},{"geonameid":7301040,"name":"Tonyrefail","admin3":"00PF028"},{"geonameid":7300742,"name":"Trealaw","admin3":"00PF031"},{"geonameid":7300740,"name":"Trehafod","admin3":"00PF029"},{"geonameid":7300741,"name":"Treherbert","admin3":"00PF030"},{"geonameid":7300743,"name":"Treorchy","admin3":"00PF032"},{"geonameid":7292214,"name":"Tylorstown","admin3":"00PF033"},{"geonameid":7292215,"name":"Ynyshir","admin3":"00PF034"},{"geonameid":7297066,"name":"Ynysybwl and Coed-y-Cwm","admin3":"00PF035"},{"geonameid":7300744,"name":"Ystrad","admin3":"00PF036"}],"alternateNames":[{"alternatenameId":1626654,"geonameid":2634895,"isoLanguage":"en","alternateName":"Wales","isPreferredName":true,"isShortName":true,"isColloquial":false,"isHistoric":false}]},"__N_SSG":true}