{"pageProps":{"locale":"ro","admin2":{"geonameid":666294,"name":"Comuna Stăneşti","country":"RO","admin1":"39","admin2":"173132","admin3":"","latitude":"44.8135900","longitude":"24.0426400"},"admin1":{"geonameid":662892,"name":"Vâlcea","admin1":"39"},"locations":[{"geonameid":685355,"name":"Bărcănești","asciiname":"Barcanesti","alternatenames":"","latitude":"44.8057500","longitude":"24.0329900","fclass":"P","fcode":"PPL","country":"RO","cc2":"","admin1":"39","admin2":"173132","admin3":"","admin4":"","population":184,"elevation":0,"gtopo30":272,"timezone":"Europe/Bucharest","moddate":"2013-04-21T00:00:00.000Z"},{"geonameid":681678,"name":"Cioponești","asciiname":"Cioponesti","alternatenames":"","latitude":"44.8000400","longitude":"24.0299400","fclass":"P","fcode":"PPL","country":"RO","cc2":"","admin1":"39","admin2":"173132","admin3":"","admin4":"","population":184,"elevation":0,"gtopo30":268,"timezone":"Europe/Bucharest","moddate":"2013-04-21T00:00:00.000Z"},{"geonameid":680017,"name":"Cuculești","asciiname":"Cuculesti","alternatenames":"","latitude":"44.8241900","longitude":"24.0441700","fclass":"P","fcode":"PPL","country":"RO","cc2":"","admin1":"39","admin2":"173132","admin3":"","admin4":"","population":135,"elevation":0,"gtopo30":272,"timezone":"Europe/Bucharest","moddate":"2013-04-21T00:00:00.000Z"},{"geonameid":677162,"name":"Gârnicetu","asciiname":"Garnicetu","alternatenames":"","latitude":"44.8366200","longitude":"24.0450600","fclass":"P","fcode":"PPL","country":"RO","cc2":"","admin1":"39","admin2":"173132","admin3":"","admin4":"","population":36,"elevation":0,"gtopo30":261,"timezone":"Europe/Bucharest","moddate":"2013-04-21T00:00:00.000Z"},{"geonameid":676984,"name":"Gogeţu","asciiname":"Gogetu","alternatenames":"","latitude":"44.8000000","longitude":"24.0333300","fclass":"P","fcode":"PPLX","country":"RO","cc2":"","admin1":"39","admin2":"173132","admin3":"","admin4":"","population":0,"elevation":0,"gtopo30":277,"timezone":"Europe/Bucharest","moddate":"2016-02-07T00:00:00.000Z"},{"geonameid":674763,"name":"Linia Dealului","asciiname":"Linia Dealului","alternatenames":"","latitude":"44.7893900","longitude":"24.0523700","fclass":"P","fcode":"PPL","country":"RO","cc2":"","admin1":"39","admin2":"173132","admin3":"","admin4":"","population":289,"elevation":0,"gtopo30":363,"timezone":"Europe/Bucharest","moddate":"2013-04-21T00:00:00.000Z"},{"geonameid":673335,"name":"Mijlocu Bărcani","asciiname":"Mijlocu Barcani","alternatenames":"","latitude":"44.8000000","longitude":"24.0333300","fclass":"P","fcode":"PPLX","country":"RO","cc2":"","admin1":"39","admin2":"173132","admin3":"","admin4":"","population":0,"elevation":0,"gtopo30":277,"timezone":"Europe/Bucharest","moddate":"2016-02-07T00:00:00.000Z"},{"geonameid":669480,"name":"Stănești","asciiname":"Stanesti","alternatenames":"","latitude":"44.8166700","longitude":"24.0500000","fclass":"P","fcode":"PPLA2","country":"RO","cc2":"","admin1":"39","admin2":"173132","admin3":"","admin4":"","population":161,"elevation":0,"gtopo30":356,"timezone":"Europe/Bucharest","moddate":"2016-01-10T00:00:00.000Z"},{"geonameid":665823,"name":"Suiești","asciiname":"Suiesti","alternatenames":"","latitude":"44.8666700","longitude":"24.0666700","fclass":"P","fcode":"PPL","country":"RO","cc2":"","admin1":"39","admin2":"173132","admin3":"","admin4":"","population":79,"elevation":0,"gtopo30":367,"timezone":"Europe/Bucharest","moddate":"2016-01-10T00:00:00.000Z"},{"geonameid":663680,"name":"Valea Lungă","asciiname":"Valea Lunga","alternatenames":"","latitude":"44.8105200","longitude":"24.0521400","fclass":"P","fcode":"PPL","country":"RO","cc2":"","admin1":"39","admin2":"173132","admin3":"","admin4":"","population":178,"elevation":0,"gtopo30":266,"timezone":"Europe/Bucharest","moddate":"2013-04-20T00:00:00.000Z"},{"geonameid":662760,"name":"Vârleni","asciiname":"Varleni","alternatenames":"Varleni,Virleni,Vârleni,Vîrleni","latitude":"44.7927600","longitude":"24.0271700","fclass":"P","fcode":"PPL","country":"RO","cc2":"RO","admin1":"39","admin2":"173132","admin3":"","admin4":"","population":406,"elevation":0,"gtopo30":269,"timezone":"Europe/Bucharest","moddate":"2013-04-20T00:00:00.000Z"}],"admin3":[],"alternateNames":[]},"__N_SSG":true}