{"pageProps":{"locale":"ro","admin2":{"geonameid":674412,"name":"Comuna Lunca de Sus","country":"RO","admin1":"20","admin2":"84754","admin3":"","latitude":"46.5185300","longitude":"25.9557500"},"admin1":{"geonameid":676309,"name":"Harghita","admin1":"20"},"locations":[{"geonameid":680999,"name":"Comiat","asciiname":"Comiat","alternatenames":"Comiat,Komjat Pataka,Komjàt Pataka","latitude":"46.4929600","longitude":"25.9433900","fclass":"P","fcode":"PPL","country":"RO","cc2":"RO","admin1":"20","admin2":"84754","admin3":"","admin4":"","population":386,"elevation":0,"gtopo30":966,"timezone":"Europe/Bucharest","moddate":"2013-04-21T00:00:00.000Z"},{"geonameid":675314,"name":"Izvorul Trotușului","asciiname":"Izvorul Trotusului","alternatenames":"Izvorul Trotusului,Izvorul Trotuşului,Santa,Santatelec,Santatelek,Sàntatelek,Valea Santa,Valea Şanta,Şantatelec","latitude":"46.4833400","longitude":"25.9419700","fclass":"P","fcode":"PPL","country":"RO","cc2":"RO","admin1":"20","admin2":"84754","admin3":"","admin4":"","population":684,"elevation":0,"gtopo30":979,"timezone":"Europe/Bucharest","moddate":"2013-04-21T00:00:00.000Z"},{"geonameid":674413,"name":"Lunca de Sus","asciiname":"Lunca de Sus","alternatenames":"Gyimesfelsolok,Gyimesfelsőlok,Lunca de Sus","latitude":"46.5333300","longitude":"25.9666700","fclass":"P","fcode":"PPLA2","country":"RO","cc2":"","admin1":"20","admin2":"84754","admin3":"","admin4":"","population":3375,"elevation":0,"gtopo30":973,"timezone":"Europe/Bucharest","moddate":"2014-06-04T00:00:00.000Z"},{"geonameid":671423,"name":"Păltiniș-Ciuc","asciiname":"Paltinis-Ciuc","alternatenames":"Gara Paltinis,Gara Păltiniş,Paltinis,Paltinis-Ciuc,Poltinis,Pöltinis,Păltiniş,Păltiniş-Ciuc","latitude":"46.5440000","longitude":"25.9686800","fclass":"P","fcode":"PPL","country":"RO","cc2":"RO","admin1":"20","admin2":"84754","admin3":"","admin4":"","population":638,"elevation":0,"gtopo30":873,"timezone":"Europe/Bucharest","moddate":"2013-04-21T00:00:00.000Z"},{"geonameid":664363,"name":"Ugra","asciiname":"Ugra","alternatenames":"","latitude":"46.5166700","longitude":"26.0000000","fclass":"P","fcode":"PPLX","country":"RO","cc2":"","admin1":"20","admin2":"84754","admin3":"","admin4":"","population":0,"elevation":0,"gtopo30":1107,"timezone":"Europe/Bucharest","moddate":"2016-02-07T00:00:00.000Z"},{"geonameid":663757,"name":"Valea Gârbea","asciiname":"Valea Garbea","alternatenames":"Gorbepataka,Görbepataka,Valea Girbea,Valea Gîrbea","latitude":"46.5355500","longitude":"25.9437900","fclass":"P","fcode":"PPL","country":"RO","cc2":"RO","admin1":"20","admin2":"84754","admin3":"","admin4":"","population":390,"elevation":0,"gtopo30":934,"timezone":"Europe/Bucharest","moddate":"2013-04-20T00:00:00.000Z"},{"geonameid":663720,"name":"Valea Komjath","asciiname":"Valea Komjath","alternatenames":"","latitude":"46.5333300","longitude":"25.9666700","fclass":"P","fcode":"PPLX","country":"RO","cc2":"","admin1":"20","admin2":"84754","admin3":"","admin4":"","population":0,"elevation":0,"gtopo30":973,"timezone":"Europe/Bucharest","moddate":"2016-02-07T00:00:00.000Z"},{"geonameid":663480,"name":"Valea Rajkó","asciiname":"Valea Rajko","alternatenames":"","latitude":"46.5333300","longitude":"25.9666700","fclass":"P","fcode":"PPLX","country":"RO","cc2":"","admin1":"20","admin2":"84754","admin3":"","admin4":"","population":0,"elevation":0,"gtopo30":973,"timezone":"Europe/Bucharest","moddate":"2016-02-07T00:00:00.000Z"},{"geonameid":663349,"name":"Valea Ugra","asciiname":"Valea Ugra","alternatenames":"Ugrapataka,Valea Ugra","latitude":"46.5252800","longitude":"25.9766800","fclass":"P","fcode":"PPL","country":"RO","cc2":"RO","admin1":"20","admin2":"84754","admin3":"","admin4":"","population":603,"elevation":0,"gtopo30":934,"timezone":"Europe/Bucharest","moddate":"2013-04-20T00:00:00.000Z"}],"admin3":[],"alternateNames":[]},"__N_SSG":true}