{"pageProps":{"locale":"ro","admin2":{"geonameid":683468,"name":"Comuna Budacu de Jos","country":"RO","admin1":"06","admin2":"32704","admin3":"","latitude":"47.0821400","longitude":"24.5184000"},"admin1":{"geonameid":684647,"name":"Bistriţa-Năsăud","admin1":"06"},"locations":[{"geonameid":683469,"name":"Budacu de Jos","asciiname":"Budacu de Jos","alternatenames":"Budacu de Jos,Budacul-de-Jos","latitude":"47.0833300","longitude":"24.5166700","fclass":"P","fcode":"PPLA2","country":"RO","cc2":"","admin1":"06","admin2":"32704","admin3":"","admin4":"","population":2866,"elevation":0,"gtopo30":348,"timezone":"Europe/Bucharest","moddate":"2012-06-12T00:00:00.000Z"},{"geonameid":683399,"name":"Buduș","asciiname":"Budus","alternatenames":"Budus,Budusi,Buduş,Buduşi","latitude":"47.0811600","longitude":"24.5369100","fclass":"P","fcode":"PPL","country":"RO","cc2":"RO","admin1":"06","admin2":"32704","admin3":"","admin4":"","population":586,"elevation":0,"gtopo30":376,"timezone":"Europe/Bucharest","moddate":"2013-04-21T00:00:00.000Z"},{"geonameid":675279,"name":"Jelna","asciiname":"Jelna","alternatenames":"","latitude":"47.1095400","longitude":"24.5559900","fclass":"P","fcode":"PPL","country":"RO","cc2":"","admin1":"06","admin2":"32704","admin3":"","admin4":"","population":669,"elevation":0,"gtopo30":367,"timezone":"Europe/Bucharest","moddate":"2013-04-21T00:00:00.000Z"},{"geonameid":672888,"name":"Monariu","asciiname":"Monariu","alternatenames":"","latitude":"47.0660600","longitude":"24.4760400","fclass":"P","fcode":"PPL","country":"RO","cc2":"","admin1":"06","admin2":"32704","admin3":"","admin4":"","population":366,"elevation":0,"gtopo30":345,"timezone":"Europe/Bucharest","moddate":"2013-04-21T00:00:00.000Z"},{"geonameid":667104,"name":"Simionești","asciiname":"Simionesti","alternatenames":"","latitude":"47.0667900","longitude":"24.5027600","fclass":"P","fcode":"PPL","country":"RO","cc2":"","admin1":"06","admin2":"32704","admin3":"","admin4":"","population":263,"elevation":0,"gtopo30":350,"timezone":"Europe/Bucharest","moddate":"2013-04-21T00:00:00.000Z"}],"admin3":[],"alternateNames":[]},"__N_SSG":true}