{"pageProps":{"locale":"ro","admin2":{"geonameid":8334849,"name":"Comuna Clinceni","country":"RO","admin1":"43","admin2":"102035","admin3":"","latitude":"44.3763900","longitude":"25.9244500"},"admin1":{"geonameid":865518,"name":"Ilfov","admin1":"43"},"locations":[{"geonameid":682921,"name":"Călţuna","asciiname":"Caltuna","alternatenames":"Caltuna,Călţuna,Domnesti Caltuna,Domneşti Călţuna","latitude":"44.3833300","longitude":"25.9333300","fclass":"P","fcode":"PPL","country":"RO","cc2":"RO","admin1":"43","admin2":"102035","admin3":"","admin4":"","population":0,"elevation":0,"gtopo30":88,"timezone":"Europe/Bucharest","moddate":"2016-02-07T00:00:00.000Z"},{"geonameid":681389,"name":"Ciurari","asciiname":"Ciurari","alternatenames":"","latitude":"44.3833300","longitude":"25.9500000","fclass":"P","fcode":"PPL","country":"RO","cc2":"","admin1":"43","admin2":"102035","admin3":"","admin4":"","population":0,"elevation":0,"gtopo30":83,"timezone":"Europe/Bucharest","moddate":"2016-02-07T00:00:00.000Z"},{"geonameid":681327,"name":"Clinceni","asciiname":"Clinceni","alternatenames":"Clinceni","latitude":"44.3733300","longitude":"25.9547200","fclass":"P","fcode":"PPLA2","country":"RO","cc2":"","admin1":"43","admin2":"102035","admin3":"","admin4":"","population":4995,"elevation":0,"gtopo30":84,"timezone":"Europe/Bucharest","moddate":"2012-06-12T00:00:00.000Z"},{"geonameid":679112,"name":"Domneşti-Sârbi","asciiname":"Domnesti-Sarbi","alternatenames":"Domnesti-Sarbi,Domnesti-Sirbi,Domneşti-Sârbi,Domneşti-Sîrbi","latitude":"44.3833300","longitude":"25.9166700","fclass":"P","fcode":"PPLX","country":"RO","cc2":"","admin1":"43","admin2":"102035","admin3":"","admin4":"","population":6393,"elevation":0,"gtopo30":82,"timezone":"Europe/Bucharest","moddate":"2016-02-07T00:00:00.000Z"},{"geonameid":671845,"name":"Olteni","asciiname":"Olteni","alternatenames":"","latitude":"44.3930700","longitude":"25.9502100","fclass":"P","fcode":"PPL","country":"RO","cc2":"","admin1":"43","admin2":"102035","admin3":"","admin4":"","population":1022,"elevation":0,"gtopo30":84,"timezone":"Europe/Bucharest","moddate":"2013-04-21T00:00:00.000Z"},{"geonameid":671725,"name":"Ordoreanu","asciiname":"Ordoreanu","alternatenames":"Ordoreanu,Ordoreanul","latitude":"44.3577400","longitude":"25.8782300","fclass":"P","fcode":"PPL","country":"RO","cc2":"RO","admin1":"43","admin2":"102035","admin3":"","admin4":"","population":0,"elevation":0,"gtopo30":79,"timezone":"Europe/Bucharest","moddate":"2013-04-21T00:00:00.000Z"},{"geonameid":666718,"name":"Slobozia","asciiname":"Slobozia","alternatenames":"","latitude":"44.3833300","longitude":"25.9333300","fclass":"P","fcode":"PPL","country":"RO","cc2":"","admin1":"43","admin2":"102035","admin3":"","admin4":"","population":0,"elevation":0,"gtopo30":88,"timezone":"Europe/Bucharest","moddate":"2016-02-07T00:00:00.000Z"}],"admin3":[],"alternateNames":[{"alternatenameId":8321538,"geonameid":865518,"isoLanguage":"en","alternateName":"Ilfov","isPreferredName":true,"isShortName":true,"isColloquial":false,"isHistoric":false}]},"__N_SSG":true}