{"pageProps":{"locale":"ro","admin2":{"geonameid":682330,"name":"Comună Cernat","country":"RO","admin1":"15","admin2":"64194","admin3":"","latitude":"45.9665000","longitude":"26.0195500"},"admin1":{"geonameid":680428,"name":"Covasna","admin1":"15"},"locations":[{"geonameid":686529,"name":"Albiș","asciiname":"Albis","alternatenames":"","latitude":"45.9357200","longitude":"26.0065200","fclass":"P","fcode":"PPL","country":"RO","cc2":"","admin1":"15","admin2":"64194","admin3":"","admin4":"","population":434,"elevation":0,"gtopo30":610,"timezone":"Europe/Bucharest","moddate":"2013-04-21T00:00:00.000Z"},{"geonameid":682331,"name":"Cernat","asciiname":"Cernat","alternatenames":"Alsocsernaton,Alsòcsernàton,Cernat,Cernatu de Jos,Cernatul-de-Jos,Csernaton,Csernáton","latitude":"45.9500000","longitude":"26.0333300","fclass":"P","fcode":"PPLA2","country":"RO","cc2":"","admin1":"15","admin2":"64194","admin3":"","admin4":"","population":3963,"elevation":0,"gtopo30":563,"timezone":"Europe/Bucharest","moddate":"2014-06-04T00:00:00.000Z"},{"geonameid":682323,"name":"Cernatu de Sus","asciiname":"Cernatu de Sus","alternatenames":"Cernatu de Sus,Cernatul-de-Sus,Felsocsernaton,Felsöcsernàton","latitude":"45.9666700","longitude":"26.0166700","fclass":"P","fcode":"PPL","country":"RO","cc2":"","admin1":"15","admin2":"64194","admin3":"","admin4":"","population":0,"elevation":0,"gtopo30":572,"timezone":"Europe/Bucharest","moddate":"2016-02-07T00:00:00.000Z"},{"geonameid":675773,"name":"Icafalău","asciiname":"Icafalau","alternatenames":"Icafalau,Icafalău,Ikafalva","latitude":"46.0000900","longitude":"26.0244100","fclass":"P","fcode":"PPL","country":"RO","cc2":"RO","admin1":"15","admin2":"64194","admin3":"","admin4":"","population":306,"elevation":0,"gtopo30":630,"timezone":"Europe/Bucharest","moddate":"2013-04-21T00:00:00.000Z"}],"admin3":[],"alternateNames":[]},"__N_SSG":true}