{"pageProps":{"locale":"ro","admin2":{"geonameid":8334888,"name":"Comuna Periş","country":"RO","admin1":"43","admin2":"104546","admin3":"","latitude":"44.7085900","longitude":"26.0147200"},"admin1":{"geonameid":865518,"name":"Ilfov","admin1":"43"},"locations":[{"geonameid":685531,"name":"Bălteni","asciiname":"Balteni","alternatenames":"","latitude":"44.7144500","longitude":"26.0329600","fclass":"P","fcode":"PPL","country":"RO","cc2":"","admin1":"43","admin2":"104546","admin3":"","admin4":"","population":431,"elevation":0,"gtopo30":108,"timezone":"Europe/Bucharest","moddate":"2013-04-21T00:00:00.000Z"},{"geonameid":683782,"name":"Brătuleşti","asciiname":"Bratulesti","alternatenames":"","latitude":"44.6833300","longitude":"26.0166700","fclass":"P","fcode":"PPL","country":"RO","cc2":"","admin1":"43","admin2":"104546","admin3":"","admin4":"","population":0,"elevation":0,"gtopo30":105,"timezone":"Europe/Bucharest","moddate":"2016-02-07T00:00:00.000Z"},{"geonameid":683228,"name":"Buriaș","asciiname":"Burias","alternatenames":"Burias,Buriasi,Buriaş,Buriaşi,Valeni-Burias,Văleni-Buriaş","latitude":"44.7330400","longitude":"25.9805300","fclass":"P","fcode":"PPL","country":"RO","cc2":"RO","admin1":"43","admin2":"104546","admin3":"","admin4":"","population":1501,"elevation":0,"gtopo30":119,"timezone":"Europe/Bucharest","moddate":"2013-04-21T00:00:00.000Z"},{"geonameid":681221,"name":"Cocioc","asciiname":"Cocioc","alternatenames":"","latitude":"44.6666700","longitude":"26.0333300","fclass":"P","fcode":"PPL","country":"RO","cc2":"","admin1":"43","admin2":"104546","admin3":"","admin4":"","population":0,"elevation":0,"gtopo30":105,"timezone":"Europe/Bucharest","moddate":"2016-02-07T00:00:00.000Z"},{"geonameid":670702,"name":"Pârlita","asciiname":"Parlita","alternatenames":"Parlita,Pirlita,Pârlita,Pîrlita","latitude":"44.6666700","longitude":"26.0333300","fclass":"P","fcode":"PPL","country":"RO","cc2":"","admin1":"43","admin2":"104546","admin3":"","admin4":"","population":0,"elevation":0,"gtopo30":105,"timezone":"Europe/Bucharest","moddate":"2020-03-08T00:00:00.000Z"},{"geonameid":671118,"name":"Periş","asciiname":"Peris","alternatenames":"Peris,Periş","latitude":"44.6847200","longitude":"26.0138900","fclass":"P","fcode":"PPLA2","country":"RO","cc2":"","admin1":"43","admin2":"104546","admin3":"","admin4":"","population":7235,"elevation":0,"gtopo30":108,"timezone":"Europe/Bucharest","moddate":"2012-06-12T00:00:00.000Z"},{"geonameid":667848,"name":"Satu Nou","asciiname":"Satu Nou","alternatenames":"Satu Nou,Satul Nou","latitude":"44.7333300","longitude":"25.9666700","fclass":"P","fcode":"PPL","country":"RO","cc2":"RO","admin1":"43","admin2":"104546","admin3":"","admin4":"","population":0,"elevation":0,"gtopo30":115,"timezone":"Europe/Bucharest","moddate":"2016-02-07T00:00:00.000Z"},{"geonameid":663268,"name":"Văleni","asciiname":"Valeni","alternatenames":"Valeni,Văleni","latitude":"44.7333300","longitude":"25.9833300","fclass":"P","fcode":"PPLX","country":"RO","cc2":"","admin1":"43","admin2":"104546","admin3":"","admin4":"","population":0,"elevation":0,"gtopo30":119,"timezone":"Europe/Bucharest","moddate":"2018-07-04T00:00:00.000Z"}],"admin3":[],"alternateNames":[{"alternatenameId":8321538,"geonameid":865518,"isoLanguage":"en","alternateName":"Ilfov","isPreferredName":true,"isShortName":true,"isColloquial":false,"isHistoric":false}]},"__N_SSG":true}