{"pageProps":{"locale":"ro","admin2":{"geonameid":680201,"name":"Comuna Crişan","country":"RO","admin1":"37","admin2":"160261","admin3":"","latitude":"45.1609300","longitude":"29.3425800"},"admin1":{"geonameid":664517,"name":"Tulcea","admin1":"37"},"locations":[{"geonameid":682726,"name":"Caraorman","asciiname":"Caraorman","alternatenames":"","latitude":"45.0789100","longitude":"29.3932100","fclass":"P","fcode":"PPL","country":"RO","cc2":"","admin1":"37","admin2":"160261","admin3":"","admin4":"","population":494,"elevation":0,"gtopo30":1,"timezone":"Europe/Bucharest","moddate":"2013-04-21T00:00:00.000Z"},{"geonameid":8063518,"name":"Crișan","asciiname":"Crisan","alternatenames":"","latitude":"45.1746200","longitude":"29.3859800","fclass":"P","fcode":"PPLA2","country":"RO","cc2":"","admin1":"37","admin2":"160261","admin3":"","admin4":"","population":469,"elevation":0,"gtopo30":2,"timezone":"Europe/Bucharest","moddate":"2013-04-21T00:00:00.000Z"},{"geonameid":674700,"name":"Litcov","asciiname":"Litcov","alternatenames":"Litcov,Litcovul,Litkof","latitude":"45.0500000","longitude":"29.3500000","fclass":"P","fcode":"PPL","country":"RO","cc2":"","admin1":"37","admin2":"160261","admin3":"","admin4":"","population":0,"elevation":0,"gtopo30":0,"timezone":"Europe/Bucharest","moddate":"2016-02-07T00:00:00.000Z"},{"geonameid":673334,"name":"Mila 23","asciiname":"Mila 23","alternatenames":"","latitude":"45.2273800","longitude":"29.2453300","fclass":"P","fcode":"PPL","country":"RO","cc2":"","admin1":"37","admin2":"160261","admin3":"","admin4":"","population":457,"elevation":0,"gtopo30":0,"timezone":"Europe/Bucharest","moddate":"2016-01-05T00:00:00.000Z"},{"geonameid":668598,"name":"Roşu","asciiname":"Rosu","alternatenames":"","latitude":"45.0833300","longitude":"29.3833300","fclass":"P","fcode":"PPLX","country":"RO","cc2":"","admin1":"37","admin2":"160261","admin3":"","admin4":"","population":0,"elevation":0,"gtopo30":2,"timezone":"Europe/Bucharest","moddate":"2016-02-07T00:00:00.000Z"}],"admin3":[],"alternateNames":[]},"__N_SSG":true}