{"pageProps":{"locale":"ro","admin2":{"geonameid":8334666,"name":"Comuna Valea Argovei","country":"RO","admin1":"41","admin2":"105712","admin3":"","latitude":"44.3482900","longitude":"26.7818000"},"admin1":{"geonameid":683016,"name":"Călăraşi","admin1":"41"},"locations":[{"geonameid":674496,"name":"Lunca","asciiname":"Lunca","alternatenames":"","latitude":"44.3425600","longitude":"26.7727000","fclass":"P","fcode":"PPL","country":"RO","cc2":"","admin1":"41","admin2":"105712","admin3":"","admin4":"","population":0,"elevation":0,"gtopo30":21,"timezone":"Europe/Bucharest","moddate":"2013-04-21T00:00:00.000Z"},{"geonameid":673295,"name":"Milotina","asciiname":"Milotina","alternatenames":"","latitude":"44.3666700","longitude":"26.7500000","fclass":"P","fcode":"PPL","country":"RO","cc2":"","admin1":"41","admin2":"105712","admin3":"","admin4":"","population":0,"elevation":0,"gtopo30":21,"timezone":"Europe/Bucharest","moddate":"2016-02-07T00:00:00.000Z"},{"geonameid":672091,"name":"Obileşti","asciiname":"Obilesti","alternatenames":"","latitude":"44.3500000","longitude":"26.7833300","fclass":"P","fcode":"PPLX","country":"RO","cc2":"","admin1":"41","admin2":"105712","admin3":"","admin4":"","population":0,"elevation":0,"gtopo30":21,"timezone":"Europe/Bucharest","moddate":"2016-02-07T00:00:00.000Z"},{"geonameid":672089,"name":"Obileştii Vechi","asciiname":"Obilestii Vechi","alternatenames":"","latitude":"44.3500000","longitude":"26.7833300","fclass":"P","fcode":"PPLX","country":"RO","cc2":"","admin1":"41","admin2":"105712","admin3":"","admin4":"","population":0,"elevation":0,"gtopo30":21,"timezone":"Europe/Bucharest","moddate":"2016-02-07T00:00:00.000Z"},{"geonameid":671622,"name":"Ostrovu","asciiname":"Ostrovu","alternatenames":"Ostrovu,Valea Capitanului,Valea Căpitanului","latitude":"44.3307500","longitude":"26.7879400","fclass":"P","fcode":"PPL","country":"RO","cc2":"RO","admin1":"41","admin2":"105712","admin3":"","admin4":"","population":69,"elevation":0,"gtopo30":37,"timezone":"Europe/Bucharest","moddate":"2013-04-21T00:00:00.000Z"},{"geonameid":667196,"name":"Siliștea","asciiname":"Silistea","alternatenames":"Obilestii,Obileştii,Silistea,Siliştea","latitude":"44.3655700","longitude":"26.7585300","fclass":"P","fcode":"PPL","country":"RO","cc2":"RO","admin1":"41","admin2":"105712","admin3":"","admin4":"","population":837,"elevation":0,"gtopo30":41,"timezone":"Europe/Bucharest","moddate":"2013-04-21T00:00:00.000Z"},{"geonameid":663926,"name":"Valea Argovei","asciiname":"Valea Argovei","alternatenames":"Brancoveni,Brincoveni,Brâncoveni,Brîncoveni,Frimu,I.C. Bratianu,I.C. Brătianu,I.C. Frimu,Ion I. C. Bratianu,Ion I. C. Brătianu,Valea Argovei","latitude":"44.3500000","longitude":"26.7833300","fclass":"P","fcode":"PPLA2","country":"RO","cc2":"","admin1":"41","admin2":"105712","admin3":"","admin4":"","population":2756,"elevation":0,"gtopo30":21,"timezone":"Europe/Bucharest","moddate":"2012-06-12T00:00:00.000Z"},{"geonameid":662609,"name":"Vlădiceasca","asciiname":"Vladiceasca","alternatenames":"","latitude":"44.3481300","longitude":"26.7981900","fclass":"P","fcode":"PPL","country":"RO","cc2":"","admin1":"41","admin2":"105712","admin3":"","admin4":"","population":317,"elevation":0,"gtopo30":44,"timezone":"Europe/Bucharest","moddate":"2013-04-20T00:00:00.000Z"}],"admin3":[],"alternateNames":[]},"__N_SSG":true}