{"pageProps":{"locale":"ro","admin2":{"geonameid":686349,"name":"Comuna Andreiaşu de Jos","country":"RO","admin1":"40","admin2":"175126","admin3":"","latitude":"45.7366900","longitude":"26.8275200"},"admin1":{"geonameid":662447,"name":"Vrancea","admin1":"40","localeAltName":"Vrancea"},"locations":[{"geonameid":686350,"name":"Andreiaşu de Jos","asciiname":"Andreiasu de Jos","alternatenames":"Andreiasu de Jos,Andreiaşu de Jos,Andriesu,Andriesu-de-Jos,Andriesul-de-Jos,Andrieşu,Andrieşu-de-Jos,Andrieşul-de-Jos","latitude":"45.7500000","longitude":"26.8333300","fclass":"P","fcode":"PPLA2","country":"RO","cc2":"","admin1":"40","admin2":"175126","admin3":"","admin4":"","population":2000,"elevation":0,"gtopo30":454,"timezone":"Europe/Bucharest","moddate":"2012-06-12T00:00:00.000Z"},{"geonameid":686348,"name":"Andreiaşu de Sus","asciiname":"Andreiasu de Sus","alternatenames":"Andreiasu de Sus,Andreiaşu de Sus,Andriesu-de-Sus,Andriesul de Sus,Andrieşu-de-Sus,Andrieşul de Sus","latitude":"45.7166700","longitude":"26.8666700","fclass":"P","fcode":"PPL","country":"RO","cc2":"","admin1":"40","admin2":"175126","admin3":"","admin4":"","population":0,"elevation":0,"gtopo30":579,"timezone":"Europe/Bucharest","moddate":"2016-02-07T00:00:00.000Z"},{"geonameid":686118,"name":"Arșița","asciiname":"Arsita","alternatenames":"","latitude":"45.7382400","longitude":"26.8324800","fclass":"P","fcode":"PPL","country":"RO","cc2":"","admin1":"40","admin2":"175126","admin3":"","admin4":"","population":231,"elevation":0,"gtopo30":612,"timezone":"Europe/Bucharest","moddate":"2013-04-21T00:00:00.000Z"},{"geonameid":678299,"name":"Fetig","asciiname":"Fetig","alternatenames":"","latitude":"45.7393100","longitude":"26.7840700","fclass":"P","fcode":"PPL","country":"RO","cc2":"","admin1":"40","admin2":"175126","admin3":"","admin4":"","population":100,"elevation":0,"gtopo30":530,"timezone":"Europe/Bucharest","moddate":"2013-04-21T00:00:00.000Z"},{"geonameid":675961,"name":"Hotaru","asciiname":"Hotaru","alternatenames":"","latitude":"45.7259000","longitude":"26.8552800","fclass":"P","fcode":"PPL","country":"RO","cc2":"","admin1":"40","admin2":"175126","admin3":"","admin4":"","population":74,"elevation":0,"gtopo30":634,"timezone":"Europe/Bucharest","moddate":"2013-04-21T00:00:00.000Z"},{"geonameid":669377,"name":"Răchitașu","asciiname":"Rachitasu","alternatenames":"Rachitasu,Rachitis,Richitisu,Richitişu,Răchitaşu,Răchitiş","latitude":"45.7312900","longitude":"26.8102500","fclass":"P","fcode":"PPL","country":"RO","cc2":"RO","admin1":"40","admin2":"175126","admin3":"","admin4":"","population":723,"elevation":0,"gtopo30":428,"timezone":"Europe/Bucharest","moddate":"2013-04-21T00:00:00.000Z"},{"geonameid":664897,"name":"Titila","asciiname":"Titila","alternatenames":"","latitude":"45.7247800","longitude":"26.8375400","fclass":"P","fcode":"PPL","country":"RO","cc2":"","admin1":"40","admin2":"175126","admin3":"","admin4":"","population":191,"elevation":0,"gtopo30":637,"timezone":"Europe/Bucharest","moddate":"2013-04-21T00:00:00.000Z"}],"admin3":[],"alternateNames":[{"alternatenameId":391637,"geonameid":662447,"isoLanguage":"ro","alternateName":"Vrancea","isPreferredName":true,"isShortName":true,"isColloquial":false,"isHistoric":false}]},"__N_SSG":true}