{"pageProps":{"locale":"ro","admin2":{"geonameid":662456,"name":"Comuna Vorţa","country":"RO","admin1":"21","admin2":"92097","admin3":"","latitude":"46.0367200","longitude":"22.6722600"},"admin1":{"geonameid":675917,"name":"Hunedoara","admin1":"21"},"locations":[{"geonameid":682288,"name":"Certeju de Jos","asciiname":"Certeju de Jos","alternatenames":"Certeju de Jos,Certejul-de-Jos","latitude":"46.0142300","longitude":"22.6543700","fclass":"P","fcode":"PPL","country":"RO","cc2":"RO","admin1":"21","admin2":"92097","admin3":"","admin4":"","population":137,"elevation":0,"gtopo30":387,"timezone":"Europe/Bucharest","moddate":"2013-04-21T00:00:00.000Z"},{"geonameid":681281,"name":"Coaja","asciiname":"Coaja","alternatenames":"","latitude":"45.9986500","longitude":"22.6506500","fclass":"P","fcode":"PPL","country":"RO","cc2":"","admin1":"21","admin2":"92097","admin3":"","admin4":"","population":143,"elevation":0,"gtopo30":407,"timezone":"Europe/Bucharest","moddate":"2013-04-21T00:00:00.000Z"},{"geonameid":678668,"name":"Dumești","asciiname":"Dumesti","alternatenames":"","latitude":"46.0137400","longitude":"22.7110000","fclass":"P","fcode":"PPL","country":"RO","cc2":"","admin1":"21","admin2":"92097","admin3":"","admin4":"","population":24,"elevation":0,"gtopo30":310,"timezone":"Europe/Bucharest","moddate":"2013-04-21T00:00:00.000Z"},{"geonameid":674336,"name":"Luncșoara","asciiname":"Luncsoara","alternatenames":"","latitude":"46.0692300","longitude":"22.7090300","fclass":"P","fcode":"PPL","country":"RO","cc2":"","admin1":"21","admin2":"92097","admin3":"","admin4":"","population":74,"elevation":0,"gtopo30":478,"timezone":"Europe/Bucharest","moddate":"2013-04-21T00:00:00.000Z"},{"geonameid":663509,"name":"Valea Poienii","asciiname":"Valea Poienii","alternatenames":"Bagara,Băgara,Valea Poienii","latitude":"46.0695600","longitude":"22.6386700","fclass":"P","fcode":"PPL","country":"RO","cc2":"RO","admin1":"21","admin2":"92097","admin3":"","admin4":"","population":266,"elevation":0,"gtopo30":310,"timezone":"Europe/Bucharest","moddate":"2013-04-20T00:00:00.000Z"},{"geonameid":662706,"name":"Visca","asciiname":"Visca","alternatenames":"","latitude":"46.0693100","longitude":"22.6683000","fclass":"P","fcode":"PPL","country":"RO","cc2":"","admin1":"21","admin2":"92097","admin3":"","admin4":"","population":483,"elevation":0,"gtopo30":310,"timezone":"Europe/Bucharest","moddate":"2013-04-20T00:00:00.000Z"},{"geonameid":662457,"name":"Vorţa","asciiname":"Vorta","alternatenames":"Vorta,Vorţa","latitude":"46.0166700","longitude":"22.6833300","fclass":"P","fcode":"PPLA2","country":"RO","cc2":"","admin1":"21","admin2":"92097","admin3":"","admin4":"","population":1071,"elevation":0,"gtopo30":292,"timezone":"Europe/Bucharest","moddate":"2012-06-12T00:00:00.000Z"}],"admin3":[],"alternateNames":[]},"__N_SSG":true}