{"pageProps":{"locale":"ro","admin2":{"geonameid":676672,"name":"Comuna Gropniţa","country":"RO","admin1":"23","admin2":"97321","admin3":"","latitude":"47.3687400","longitude":"27.2637600"},"admin1":{"geonameid":675809,"name":"Iaşi","admin1":"23"},"locations":[{"geonameid":683329,"name":"Bulbucani","asciiname":"Bulbucani","alternatenames":"","latitude":"47.3591400","longitude":"27.2495200","fclass":"P","fcode":"PPL","country":"RO","cc2":"","admin1":"23","admin2":"97321","admin3":"","admin4":"","population":762,"elevation":0,"gtopo30":75,"timezone":"Europe/Bucharest","moddate":"2013-04-21T00:00:00.000Z"},{"geonameid":677981,"name":"Forăști","asciiname":"Forasti","alternatenames":"","latitude":"47.3544600","longitude":"27.2836900","fclass":"P","fcode":"PPL","country":"RO","cc2":"","admin1":"23","admin2":"97321","admin3":"","admin4":"","population":515,"elevation":0,"gtopo30":62,"timezone":"Europe/Bucharest","moddate":"2013-04-21T00:00:00.000Z"},{"geonameid":676673,"name":"Gropniţa","asciiname":"Gropnita","alternatenames":"Gropnita,Gropniţa","latitude":"47.3500000","longitude":"27.2500000","fclass":"P","fcode":"PPLA2","country":"RO","cc2":"","admin1":"23","admin2":"97321","admin3":"","admin4":"","population":3414,"elevation":0,"gtopo30":104,"timezone":"Europe/Bucharest","moddate":"2012-06-12T00:00:00.000Z"},{"geonameid":674044,"name":"Mălăești","asciiname":"Malaesti","alternatenames":"","latitude":"47.3549300","longitude":"27.3040100","fclass":"P","fcode":"PPL","country":"RO","cc2":"","admin1":"23","admin2":"97321","admin3":"","admin4":"","population":459,"elevation":0,"gtopo30":71,"timezone":"Europe/Bucharest","moddate":"2013-04-21T00:00:00.000Z"},{"geonameid":667024,"name":"Sângeri","asciiname":"Sangeri","alternatenames":"Sanger,Singeri,Sânger,Sîngeri","latitude":"47.3888300","longitude":"27.2291700","fclass":"P","fcode":"PPL","country":"RO","cc2":"RO","admin1":"23","admin2":"97321","admin3":"","admin4":"","population":390,"elevation":0,"gtopo30":130,"timezone":"Europe/Bucharest","moddate":"2013-04-21T00:00:00.000Z"},{"geonameid":667758,"name":"Săveni","asciiname":"Saveni","alternatenames":"","latitude":"47.3997100","longitude":"27.2481000","fclass":"P","fcode":"PPL","country":"RO","cc2":"","admin1":"23","admin2":"97321","admin3":"","admin4":"","population":731,"elevation":0,"gtopo30":135,"timezone":"Europe/Bucharest","moddate":"2013-04-21T00:00:00.000Z"}],"admin3":[],"alternateNames":[]},"__N_SSG":true}