{"pageProps":{"locale":"ro","admin2":{"geonameid":8334651,"name":"Comuna Mihai Eminescu","country":"RO","admin1":"07","admin2":"38063","admin3":"","latitude":"47.7663200","longitude":"26.5626700"},"admin1":{"geonameid":684038,"name":"Botoşani","admin1":"07"},"locations":[{"geonameid":685776,"name":"Baisa","asciiname":"Baisa","alternatenames":"","latitude":"47.7249500","longitude":"26.5679600","fclass":"P","fcode":"PPL","country":"RO","cc2":"","admin1":"07","admin2":"38063","admin3":"","admin4":"","population":81,"elevation":0,"gtopo30":303,"timezone":"Europe/Bucharest","moddate":"2013-04-21T00:00:00.000Z"},{"geonameid":682572,"name":"Cătămărești","asciiname":"Catamaresti","alternatenames":"Catamarasti,Catamaresti,Catamaresti-Vale,Cătămăreşti,Cătămăreşti-Vale,Cătămărăşti","latitude":"47.7520400","longitude":"26.5723900","fclass":"P","fcode":"PPL","country":"RO","cc2":"RO","admin1":"07","admin2":"38063","admin3":"","admin4":"","population":640,"elevation":0,"gtopo30":147,"timezone":"Europe/Bucharest","moddate":"2013-04-21T00:00:00.000Z"},{"geonameid":682571,"name":"Cătămărești-Deal","asciiname":"Catamaresti-Deal","alternatenames":"Catamarasti,Catamaresti-Deal,Cătămăreşti-Deal,Cătămărăsti","latitude":"47.7699900","longitude":"26.5989700","fclass":"P","fcode":"PPL","country":"RO","cc2":"RO","admin1":"07","admin2":"38063","admin3":"","admin4":"","population":1785,"elevation":0,"gtopo30":200,"timezone":"Europe/Bucharest","moddate":"2013-04-21T00:00:00.000Z"},{"geonameid":682275,"name":"Cervicești","asciiname":"Cervicesti","alternatenames":"","latitude":"47.7989100","longitude":"26.5122300","fclass":"P","fcode":"PPL","country":"RO","cc2":"","admin1":"07","admin2":"38063","admin3":"","admin4":"","population":879,"elevation":0,"gtopo30":162,"timezone":"Europe/Bucharest","moddate":"2013-04-21T00:00:00.000Z"},{"geonameid":682274,"name":"Cervicești-Deal","asciiname":"Cervicesti-Deal","alternatenames":"Cervicesti-Crac,Cervicesti-Deal,Cerviceşti-Crac,Cerviceşti-Deal","latitude":"47.8082800","longitude":"26.5178100","fclass":"P","fcode":"PPL","country":"RO","cc2":"RO","admin1":"07","admin2":"38063","admin3":"","admin4":"","population":4,"elevation":0,"gtopo30":164,"timezone":"Europe/Bucharest","moddate":"2013-04-21T00:00:00.000Z"},{"geonameid":680038,"name":"Cucorăni","asciiname":"Cucorani","alternatenames":"Cucorani,Cucoreni,Cucorăni","latitude":"47.7826600","longitude":"26.5166400","fclass":"P","fcode":"PPL","country":"RO","cc2":"RO","admin1":"07","admin2":"38063","admin3":"","admin4":"","population":814,"elevation":0,"gtopo30":251,"timezone":"Europe/Bucharest","moddate":"2013-04-21T00:00:00.000Z"},{"geonameid":675508,"name":"Ipotești","asciiname":"Ipotesti","alternatenames":"","latitude":"47.7664300","longitude":"26.5584200","fclass":"P","fcode":"PPL","country":"RO","cc2":"","admin1":"07","admin2":"38063","admin3":"","admin4":"","population":614,"elevation":0,"gtopo30":169,"timezone":"Europe/Bucharest","moddate":"2013-04-21T00:00:00.000Z"},{"geonameid":674522,"name":"Luizoaia","asciiname":"Luizoaia","alternatenames":"","latitude":"47.7666700","longitude":"26.6333300","fclass":"P","fcode":"PPLX","country":"RO","cc2":"","admin1":"07","admin2":"38063","admin3":"","admin4":"","population":0,"elevation":0,"gtopo30":163,"timezone":"Europe/Bucharest","moddate":"2016-02-07T00:00:00.000Z"},{"geonameid":673905,"name":"Manolești","asciiname":"Manolesti","alternatenames":"","latitude":"47.7486600","longitude":"26.6210800","fclass":"P","fcode":"PPL","country":"RO","cc2":"","admin1":"07","admin2":"38063","admin3":"","admin4":"","population":167,"elevation":0,"gtopo30":137,"timezone":"Europe/Bucharest","moddate":"2013-04-21T00:00:00.000Z"},{"geonameid":666122,"name":"Stâncești","asciiname":"Stancesti","alternatenames":"Stincesti,Stînceşti","latitude":"47.7500000","longitude":"26.6000000","fclass":"P","fcode":"PPL","country":"RO","cc2":"","admin1":"07","admin2":"38063","admin3":"","admin4":"","population":1072,"elevation":0,"gtopo30":153,"timezone":"Europe/Bucharest","moddate":"2015-11-16T00:00:00.000Z"}],"admin3":[],"alternateNames":[]},"__N_SSG":true}