{"pageProps":{"locale":"ro","admin2":{"geonameid":681577,"name":"Comuna Cârjiţi","country":"RO","admin1":"21","admin2":"86749","admin3":"","latitude":"45.8467800","longitude":"22.8346700"},"admin1":{"geonameid":675917,"name":"Hunedoara","admin1":"21"},"locations":[{"geonameid":686436,"name":"Almaşu-Sec","asciiname":"Almasu-Sec","alternatenames":"Almasu-Sec,Almasul Sec,Almaşu-Sec,Almaşul Sec","latitude":"45.8500000","longitude":"22.8666700","fclass":"P","fcode":"PPL","country":"RO","cc2":"","admin1":"21","admin2":"86749","admin3":"","admin4":"","population":0,"elevation":0,"gtopo30":354,"timezone":"Europe/Bucharest","moddate":"2016-02-07T00:00:00.000Z"},{"geonameid":681578,"name":"Cârjiţi","asciiname":"Carjiti","alternatenames":"Carjiti,Cârjiti","latitude":"45.8500000","longitude":"22.8333300","fclass":"P","fcode":"PPLA2","country":"RO","cc2":"","admin1":"21","admin2":"86749","admin3":"","admin4":"","population":787,"elevation":0,"gtopo30":463,"timezone":"Europe/Bucharest","moddate":"2012-06-12T00:00:00.000Z"},{"geonameid":682188,"name":"Chergheș","asciiname":"Cherghes","alternatenames":"","latitude":"45.8446300","longitude":"22.7936200","fclass":"P","fcode":"PPL","country":"RO","cc2":"","admin1":"21","admin2":"86749","admin3":"","admin4":"","population":114,"elevation":0,"gtopo30":382,"timezone":"Europe/Bucharest","moddate":"2013-04-21T00:00:00.000Z"},{"geonameid":680410,"name":"Cozia","asciiname":"Cozia","alternatenames":"","latitude":"45.8685500","longitude":"22.8428200","fclass":"P","fcode":"PPL","country":"RO","cc2":"","admin1":"21","admin2":"86749","admin3":"","admin4":"","population":198,"elevation":0,"gtopo30":436,"timezone":"Europe/Bucharest","moddate":"2013-04-21T00:00:00.000Z"},{"geonameid":669891,"name":"Popești","asciiname":"Popesti","alternatenames":"Popes,Popesti,Popeş,Popeşti","latitude":"45.8269000","longitude":"22.8477100","fclass":"P","fcode":"PPL","country":"RO","cc2":"RO","admin1":"21","admin2":"86749","admin3":"","admin4":"","population":210,"elevation":0,"gtopo30":295,"timezone":"Europe/Bucharest","moddate":"2013-04-21T00:00:00.000Z"}],"admin3":[],"alternateNames":[]},"__N_SSG":true}