{"pageProps":{"locale":"en","admin2":{"geonameid":11353068,"name":"Mid Ulster","country":"GB","admin1":"NIR","admin2":"N09000009","admin3":"","latitude":"54.6219000","longitude":"-6.7909700"},"admin1":{"geonameid":2641364,"name":"Northern Ireland","admin1":"NIR"},"locations":[{"geonameid":2657218,"name":"Arboe","asciiname":"Arboe","alternatenames":"Arboe,Ard Bo,Ard Bó,Ardboe","latitude":"54.6333300","longitude":"-6.5500000","fclass":"P","fcode":"PPL","country":"GB","cc2":"GB","admin1":"NIR","admin2":"N09000009","admin3":"","admin4":"","population":0,"elevation":0,"gtopo30":29,"timezone":"Europe/London","moddate":"2016-12-04T00:00:00.000Z"},{"geonameid":2657000,"name":"Artrea","asciiname":"Artrea","alternatenames":"Ardtrea,Artrea","latitude":"54.6333300","longitude":"-6.6833300","fclass":"P","fcode":"PPL","country":"GB","cc2":"GB","admin1":"NIR","admin2":"N09000009","admin3":"","admin4":"","population":0,"elevation":0,"gtopo30":35,"timezone":"Europe/London","moddate":"2016-12-04T00:00:00.000Z"},{"geonameid":2656790,"name":"Aughamullan","asciiname":"Aughamullan","alternatenames":"Aughamullan,Aughmullan","latitude":"54.5333300","longitude":"-6.6166700","fclass":"P","fcode":"PPL","country":"GB","cc2":"GB","admin1":"NIR","admin2":"N09000009","admin3":"","admin4":"","population":0,"elevation":0,"gtopo30":17,"timezone":"Europe/London","moddate":"2016-12-04T00:00:00.000Z"},{"geonameid":2656788,"name":"Augher","asciiname":"Augher","alternatenames":"Augher","latitude":"54.4333300","longitude":"-7.1500000","fclass":"P","fcode":"PPL","country":"GB","cc2":"","admin1":"NIR","admin2":"N09000009","admin3":"","admin4":"","population":0,"elevation":0,"gtopo30":59,"timezone":"Europe/London","moddate":"2016-12-04T00:00:00.000Z"},{"geonameid":2656787,"name":"Aughnacloy","asciiname":"Aughnacloy","alternatenames":"Aughnacloy","latitude":"54.4166700","longitude":"-6.9666700","fclass":"P","fcode":"PPL","country":"GB","cc2":"","admin1":"NIR","admin2":"N09000009","admin3":"","admin4":"","population":0,"elevation":0,"gtopo30":63,"timezone":"Europe/London","moddate":"2016-12-04T00:00:00.000Z"},{"geonameid":2656526,"name":"Ballyclog","asciiname":"Ballyclog","alternatenames":"","latitude":"54.6000000","longitude":"-6.6500000","fclass":"P","fcode":"PPL","country":"GB","cc2":"","admin1":"NIR","admin2":"N09000009","admin3":"","admin4":"","population":0,"elevation":0,"gtopo30":83,"timezone":"Europe/London","moddate":"2016-12-04T00:00:00.000Z"},{"geonameid":2656512,"name":"Ballygawley","asciiname":"Ballygawley","alternatenames":"Ballygawley","latitude":"54.4623600","longitude":"-7.0278200","fclass":"P","fcode":"PPL","country":"GB","cc2":"","admin1":"NIR","admin2":"N09000009","admin3":"","admin4":"","population":0,"elevation":0,"gtopo30":77,"timezone":"Europe/London","moddate":"2016-12-04T00:00:00.000Z"},{"geonameid":2656470,"name":"Ballyreagh","asciiname":"Ballyreagh","alternatenames":"","latitude":"54.4833300","longitude":"-6.9833300","fclass":"P","fcode":"PPL","country":"GB","cc2":"","admin1":"NIR","admin2":"N09000009","admin3":"","admin4":"","population":0,"elevation":0,"gtopo30":111,"timezone":"Europe/London","moddate":"2016-12-04T00:00:00.000Z"},{"geonameid":2656469,"name":"Ballyronan","asciiname":"Ballyronan","alternatenames":"","latitude":"54.7081600","longitude":"-6.5327500","fclass":"P","fcode":"PPL","country":"GB","cc2":"","admin1":"NIR","admin2":"N09000009","admin3":"","admin4":"","population":0,"elevation":0,"gtopo30":18,"timezone":"Europe/London","moddate":"2016-12-04T00:00:00.000Z"},{"geonameid":2656104,"name":"Beaghmore","asciiname":"Beaghmore","alternatenames":"Beaghmore","latitude":"54.7000000","longitude":"-6.9333300","fclass":"P","fcode":"PPL","country":"GB","cc2":"","admin1":"NIR","admin2":"N09000009","admin3":"","admin4":"","population":0,"elevation":0,"gtopo30":194,"timezone":"Europe/London","moddate":"2016-12-04T00:00:00.000Z"},{"geonameid":2655974,"name":"Bellaghy","asciiname":"Bellaghy","alternatenames":"","latitude":"54.8087000","longitude":"-6.5191800","fclass":"P","fcode":"PPL","country":"GB","cc2":"","admin1":"NIR","admin2":"N09000009","admin3":"","admin4":"","population":1072,"elevation":0,"gtopo30":26,"timezone":"Europe/London","moddate":"2016-12-04T00:00:00.000Z"},{"geonameid":2655908,"name":"Benburb","asciiname":"Benburb","alternatenames":"Benburb","latitude":"54.4166700","longitude":"-6.7333300","fclass":"P","fcode":"PPL","country":"GB","cc2":"","admin1":"NIR","admin2":"N09000009","admin3":"","admin4":"","population":0,"elevation":0,"gtopo30":55,"timezone":"Europe/London","moddate":"2016-12-04T00:00:00.000Z"},{"geonameid":2654617,"name":"Brockagh","asciiname":"Brockagh","alternatenames":"Brockagh","latitude":"54.5500000","longitude":"-6.6000000","fclass":"P","fcode":"PPL","country":"GB","cc2":"","admin1":"NIR","admin2":"N09000009","admin3":"","admin4":"","population":0,"elevation":0,"gtopo30":12,"timezone":"Europe/London","moddate":"2016-12-04T00:00:00.000Z"},{"geonameid":2654523,"name":"Broughderg","asciiname":"Broughderg","alternatenames":"","latitude":"54.7166700","longitude":"-7.0000000","fclass":"P","fcode":"PPL","country":"GB","cc2":"","admin1":"NIR","admin2":"N09000009","admin3":"","admin4":"","population":0,"elevation":0,"gtopo30":228,"timezone":"Europe/London","moddate":"2016-12-04T00:00:00.000Z"},{"geonameid":2654007,"name":"Caledon","asciiname":"Caledon","alternatenames":"Caledon","latitude":"54.3500000","longitude":"-6.8333300","fclass":"P","fcode":"PPL","country":"GB","cc2":"","admin1":"NIR","admin2":"N09000009","admin3":"","admin4":"","population":0,"elevation":0,"gtopo30":33,"timezone":"Europe/London","moddate":"2018-07-04T00:00:00.000Z"},{"geonameid":2653785,"name":"Carland","asciiname":"Carland","alternatenames":"","latitude":"54.5333300","longitude":"-6.7833300","fclass":"P","fcode":"PPL","country":"GB","cc2":"","admin1":"NIR","admin2":"N09000009","admin3":"","admin4":"","population":0,"elevation":0,"gtopo30":89,"timezone":"Europe/London","moddate":"2016-12-04T00:00:00.000Z"},{"geonameid":2653703,"name":"Carnteel","asciiname":"Carnteel","alternatenames":"Carnteel","latitude":"54.4333300","longitude":"-6.9333300","fclass":"P","fcode":"PPL","country":"GB","cc2":"","admin1":"NIR","admin2":"N09000009","admin3":"","admin4":"","population":0,"elevation":0,"gtopo30":107,"timezone":"Europe/London","moddate":"2016-12-04T00:00:00.000Z"},{"geonameid":2653599,"name":"Castlecaulfield","asciiname":"Castlecaulfield","alternatenames":"","latitude":"54.5074300","longitude":"-6.8352100","fclass":"P","fcode":"PPL","country":"GB","cc2":"","admin1":"NIR","admin2":"N09000009","admin3":"","admin4":"","population":0,"elevation":0,"gtopo30":87,"timezone":"Europe/London","moddate":"2016-12-04T00:00:00.000Z"},{"geonameid":2653595,"name":"Castledawson","asciiname":"Castledawson","alternatenames":"","latitude":"54.7772300","longitude":"-6.5622700","fclass":"P","fcode":"PPL","country":"GB","cc2":"","admin1":"NIR","admin2":"N09000009","admin3":"","admin4":"","population":2263,"elevation":0,"gtopo30":33,"timezone":"Europe/London","moddate":"2016-12-04T00:00:00.000Z"},{"geonameid":2653337,"name":"Charlemont","asciiname":"Charlemont","alternatenames":"Charlemont","latitude":"54.4500000","longitude":"-6.6833300","fclass":"P","fcode":"PPL","country":"GB","cc2":"","admin1":"NIR","admin2":"N09000009","admin3":"","admin4":"","population":0,"elevation":0,"gtopo30":15,"timezone":"Europe/London","moddate":"2016-12-04T00:00:00.000Z"},{"geonameid":2653019,"name":"Churchtown","asciiname":"Churchtown","alternatenames":"","latitude":"54.6833300","longitude":"-6.7500000","fclass":"P","fcode":"PPL","country":"GB","cc2":"","admin1":"NIR","admin2":"N09000009","admin3":"","admin4":"","population":0,"elevation":0,"gtopo30":100,"timezone":"Europe/London","moddate":"2016-12-04T00:00:00.000Z"},{"geonameid":2652925,"name":"Claudy","asciiname":"Claudy","alternatenames":"","latitude":"54.8694000","longitude":"-6.5039100","fclass":"P","fcode":"PPL","country":"GB","cc2":"","admin1":"NIR","admin2":"N09000009","admin3":"","admin4":"","population":0,"elevation":0,"gtopo30":27,"timezone":"Europe/London","moddate":"2016-12-04T00:00:00.000Z"},{"geonameid":2652805,"name":"Clogher","asciiname":"Clogher","alternatenames":"Clogher","latitude":"54.4166700","longitude":"-7.2000000","fclass":"P","fcode":"PPL","country":"GB","cc2":"","admin1":"NIR","admin2":"N09000009","admin3":"","admin4":"","population":0,"elevation":0,"gtopo30":94,"timezone":"Europe/London","moddate":"2016-12-04T00:00:00.000Z"},{"geonameid":2652793,"name":"Clonfeacle","asciiname":"Clonfeacle","alternatenames":"","latitude":"54.4166700","longitude":"-6.7166700","fclass":"P","fcode":"PPL","country":"GB","cc2":"","admin1":"NIR","admin2":"N09000009","admin3":"","admin4":"","population":0,"elevation":0,"gtopo30":21,"timezone":"Europe/London","moddate":"2016-12-04T00:00:00.000Z"},{"geonameid":2652709,"name":"Coagh","asciiname":"Coagh","alternatenames":"Coagh","latitude":"54.6500000","longitude":"-6.6166700","fclass":"P","fcode":"PPL","country":"GB","cc2":"","admin1":"NIR","admin2":"N09000009","admin3":"","admin4":"","population":0,"elevation":0,"gtopo30":35,"timezone":"Europe/London","moddate":"2016-12-04T00:00:00.000Z"},{"geonameid":2652703,"name":"Coalisland","asciiname":"Coalisland","alternatenames":"Kolajlend,Koulajland,Oilean an Ghuail,Oileán an Ghuail,Колайленд,Коулайланд","latitude":"54.5418000","longitude":"-6.7016600","fclass":"P","fcode":"PPL","country":"GB","cc2":"","admin1":"NIR","admin2":"N09000009","admin3":"","admin4":"","population":5416,"elevation":0,"gtopo30":34,"timezone":"Europe/London","moddate":"2016-12-04T00:00:00.000Z"},{"geonameid":2652417,"name":"Cookstown","asciiname":"Cookstown","alternatenames":"An Chorr Chriochach,An Chorr Chríochach,Kukstaun,ku ke si dui,Кукстаун,庫克斯敦","latitude":"54.6430500","longitude":"-6.7459500","fclass":"P","fcode":"PPLA2","country":"GB","cc2":"","admin1":"NIR","admin2":"N09000009","admin3":"","admin4":"","population":11081,"elevation":0,"gtopo30":78,"timezone":"Europe/London","moddate":"2016-12-04T00:00:00.000Z"},{"geonameid":2652378,"name":"Corchoney Cross Roads","asciiname":"Corchoney Cross Roads","alternatenames":"Corchoney Cross Roads,Cross Roads","latitude":"54.6333300","longitude":"-6.8500000","fclass":"P","fcode":"PPL","country":"GB","cc2":"GB","admin1":"NIR","admin2":"N09000009","admin3":"","admin4":"","population":0,"elevation":0,"gtopo30":126,"timezone":"Europe/London","moddate":"2016-12-04T00:00:00.000Z"},{"geonameid":2652021,"name":"Creevelough","asciiname":"Creevelough","alternatenames":"","latitude":"54.4166700","longitude":"-6.8500000","fclass":"P","fcode":"PPL","country":"GB","cc2":"","admin1":"NIR","admin2":"N09000009","admin3":"","admin4":"","population":0,"elevation":0,"gtopo30":114,"timezone":"Europe/London","moddate":"2016-12-04T00:00:00.000Z"},{"geonameid":2651978,"name":"Crilly","asciiname":"Crilly","alternatenames":"","latitude":"54.4000000","longitude":"-6.9333300","fclass":"P","fcode":"PPL","country":"GB","cc2":"","admin1":"NIR","admin2":"N09000009","admin3":"","admin4":"","population":0,"elevation":0,"gtopo30":79,"timezone":"Europe/London","moddate":"2016-12-04T00:00:00.000Z"},{"geonameid":2651687,"name":"Curran","asciiname":"Curran","alternatenames":"","latitude":"54.7946500","longitude":"-6.6142800","fclass":"P","fcode":"PPL","country":"GB","cc2":"","admin1":"NIR","admin2":"N09000009","admin3":"","admin4":"","population":0,"elevation":0,"gtopo30":50,"timezone":"Europe/London","moddate":"2016-12-04T00:00:00.000Z"},{"geonameid":2651310,"name":"Desertmartin","asciiname":"Desertmartin","alternatenames":"Desertmartin","latitude":"54.7666700","longitude":"-6.6833300","fclass":"P","fcode":"PPL","country":"GB","cc2":"","admin1":"NIR","admin2":"N09000009","admin3":"","admin4":"","population":0,"elevation":0,"gtopo30":68,"timezone":"Europe/London","moddate":"2016-12-04T00:00:00.000Z"},{"geonameid":2651130,"name":"Donaghey","asciiname":"Donaghey","alternatenames":"Donaghey","latitude":"54.5833300","longitude":"-6.7333300","fclass":"P","fcode":"PPL","country":"GB","cc2":"","admin1":"NIR","admin2":"N09000009","admin3":"","admin4":"","population":0,"elevation":0,"gtopo30":72,"timezone":"Europe/London","moddate":"2016-12-04T00:00:00.000Z"},{"geonameid":2651129,"name":"Donaghmore","asciiname":"Donaghmore","alternatenames":"","latitude":"54.5312400","longitude":"-6.8117000","fclass":"P","fcode":"PPL","country":"GB","cc2":"","admin1":"NIR","admin2":"N09000009","admin3":"","admin4":"","population":0,"elevation":0,"gtopo30":91,"timezone":"Europe/London","moddate":"2016-12-04T00:00:00.000Z"},{"geonameid":2651013,"name":"Draperstown","asciiname":"Draperstown","alternatenames":"Draperstown","latitude":"54.8000000","longitude":"-6.7666700","fclass":"P","fcode":"PPL","country":"GB","cc2":"","admin1":"NIR","admin2":"N09000009","admin3":"","admin4":"","population":1734,"elevation":0,"gtopo30":73,"timezone":"Europe/London","moddate":"2016-12-04T00:00:00.000Z"},{"geonameid":2650926,"name":"Drummond","asciiname":"Drummond","alternatenames":"","latitude":"54.4500000","longitude":"-6.7333300","fclass":"P","fcode":"PPL","country":"GB","cc2":"","admin1":"NIR","admin2":"N09000009","admin3":"","admin4":"","population":0,"elevation":0,"gtopo30":40,"timezone":"Europe/London","moddate":"2016-12-04T00:00:00.000Z"},{"geonameid":2650910,"name":"Drumshanbo-Glebe","asciiname":"Drumshanbo-Glebe","alternatenames":"Drumshanbo,Drumshanbo-Glebe","latitude":"54.6500000","longitude":"-6.8666700","fclass":"P","fcode":"PPL","country":"GB","cc2":"GB","admin1":"NIR","admin2":"N09000009","admin3":"","admin4":"","population":0,"elevation":0,"gtopo30":124,"timezone":"Europe/London","moddate":"2016-12-04T00:00:00.000Z"},{"geonameid":2650729,"name":"Dungannon","asciiname":"Dungannon","alternatenames":"Dangannon,Danganonas,Dun Geanainn,Dunganun,Dún Geanainn,deng gan nen,Данганнон,Дънганън,鄧甘嫩","latitude":"54.5034400","longitude":"-6.7672300","fclass":"P","fcode":"PPLA2","country":"GB","cc2":"","admin1":"NIR","admin2":"N09000009","admin3":"","admin4":"","population":11935,"elevation":0,"gtopo30":105,"timezone":"Europe/London","moddate":"2016-12-04T00:00:00.000Z"},{"geonameid":2650700,"name":"Dunmore","asciiname":"Dunmore","alternatenames":"","latitude":"54.7000000","longitude":"-6.7833300","fclass":"P","fcode":"PPL","country":"GB","cc2":"","admin1":"NIR","admin2":"N09000009","admin3":"","admin4":"","population":0,"elevation":0,"gtopo30":121,"timezone":"Europe/London","moddate":"2016-12-04T00:00:00.000Z"},{"geonameid":2650602,"name":"Dyan","asciiname":"Dyan","alternatenames":"","latitude":"54.4000000","longitude":"-6.8333300","fclass":"P","fcode":"PPL","country":"GB","cc2":"","admin1":"NIR","admin2":"N09000009","admin3":"","admin4":"","population":0,"elevation":0,"gtopo30":68,"timezone":"Europe/London","moddate":"2016-12-04T00:00:00.000Z"},{"geonameid":2650182,"name":"Eglish","asciiname":"Eglish","alternatenames":"Eglish","latitude":"54.4500000","longitude":"-6.8000000","fclass":"P","fcode":"PPL","country":"GB","cc2":"","admin1":"NIR","admin2":"N09000009","admin3":"","admin4":"","population":0,"elevation":0,"gtopo30":52,"timezone":"Europe/London","moddate":"2016-12-04T00:00:00.000Z"},{"geonameid":2649440,"name":"Findermore","asciiname":"Findermore","alternatenames":"","latitude":"54.4000000","longitude":"-7.2000000","fclass":"P","fcode":"PPL","country":"GB","cc2":"","admin1":"NIR","admin2":"N09000009","admin3":"","admin4":"","population":0,"elevation":0,"gtopo30":84,"timezone":"Europe/London","moddate":"2016-12-04T00:00:00.000Z"},{"geonameid":2649347,"name":"Fivemiletown","asciiname":"Fivemiletown","alternatenames":"Fivemiletown","latitude":"54.3833300","longitude":"-7.3000000","fclass":"P","fcode":"PPL","country":"GB","cc2":"","admin1":"NIR","admin2":"N09000009","admin3":"","admin4":"","population":1109,"elevation":0,"gtopo30":117,"timezone":"Europe/London","moddate":"2016-12-04T00:00:00.000Z"},{"geonameid":2648926,"name":"Galbally","asciiname":"Galbally","alternatenames":"Galbally","latitude":"54.5333300","longitude":"-6.8833300","fclass":"P","fcode":"PPL","country":"GB","cc2":"","admin1":"NIR","admin2":"N09000009","admin3":"","admin4":"","population":0,"elevation":0,"gtopo30":126,"timezone":"Europe/London","moddate":"2019-02-21T00:00:00.000Z"},{"geonameid":2648249,"name":"Gracefield","asciiname":"Gracefield","alternatenames":"","latitude":"54.7333300","longitude":"-6.5500000","fclass":"P","fcode":"PPL","country":"GB","cc2":"","admin1":"NIR","admin2":"N09000009","admin3":"","admin4":"","population":0,"elevation":0,"gtopo30":31,"timezone":"Europe/London","moddate":"2016-12-04T00:00:00.000Z"},{"geonameid":2648219,"name":"Grange","asciiname":"Grange","alternatenames":"","latitude":"54.6166700","longitude":"-6.7166700","fclass":"P","fcode":"PPL","country":"GB","cc2":"","admin1":"NIR","admin2":"N09000009","admin3":"","admin4":"","population":0,"elevation":0,"gtopo30":69,"timezone":"Europe/London","moddate":"2016-12-04T00:00:00.000Z"},{"geonameid":2648203,"name":"Granville","asciiname":"Granville","alternatenames":"","latitude":"54.4899800","longitude":"-6.8032800","fclass":"P","fcode":"PPL","country":"GB","cc2":"","admin1":"NIR","admin2":"N09000009","admin3":"","admin4":"","population":0,"elevation":0,"gtopo30":86,"timezone":"Europe/London","moddate":"2016-12-04T00:00:00.000Z"},{"geonameid":2647780,"name":"Gulladuff","asciiname":"Gulladuff","alternatenames":"","latitude":"54.8337200","longitude":"-6.6033000","fclass":"P","fcode":"PPL","country":"GB","cc2":"","admin1":"NIR","admin2":"N09000009","admin3":"","admin4":"","population":0,"elevation":0,"gtopo30":64,"timezone":"Europe/London","moddate":"2016-12-04T00:00:00.000Z"},{"geonameid":2645615,"name":"Killycolpy","asciiname":"Killycolpy","alternatenames":"","latitude":"54.5833300","longitude":"-6.5833300","fclass":"P","fcode":"PPL","country":"GB","cc2":"","admin1":"NIR","admin2":"N09000009","admin3":"","admin4":"","population":0,"elevation":0,"gtopo30":26,"timezone":"Europe/London","moddate":"2016-12-04T00:00:00.000Z"},{"geonameid":2645455,"name":"Kingsmill","asciiname":"Kingsmill","alternatenames":"","latitude":"54.6166700","longitude":"-6.6500000","fclass":"P","fcode":"PPL","country":"GB","cc2":"","admin1":"NIR","admin2":"N09000009","admin3":"","admin4":"","population":0,"elevation":0,"gtopo30":35,"timezone":"Europe/London","moddate":"2016-12-04T00:00:00.000Z"},{"geonameid":2645129,"name":"Knockcloghrim","asciiname":"Knockcloghrim","alternatenames":"Knockcloghrim,Knockloughrim","latitude":"54.8166700","longitude":"-6.6166700","fclass":"P","fcode":"PPL","country":"GB","cc2":"GB","admin1":"NIR","admin2":"N09000009","admin3":"","admin4":"","population":0,"elevation":0,"gtopo30":48,"timezone":"Europe/London","moddate":"2016-12-04T00:00:00.000Z"},{"geonameid":2643211,"name":"Maghera","asciiname":"Maghera","alternatenames":"Machaire Ratha,Machaire Rátha,Makhura,maghera,Махъра,मघेरा","latitude":"54.8439000","longitude":"-6.6714500","fclass":"P","fcode":"PPL","country":"GB","cc2":"","admin1":"NIR","admin2":"N09000009","admin3":"","admin4":"","population":4085,"elevation":0,"gtopo30":74,"timezone":"Europe/London","moddate":"2016-12-04T00:00:00.000Z"},{"geonameid":2643208,"name":"Magherafelt","asciiname":"Magherafelt","alternatenames":"Machaire Fiolta,Machaire Fíolta,Makhurafelt,Marafelt,Марафелт,Махърафелт","latitude":"54.7535600","longitude":"-6.6065600","fclass":"P","fcode":"PPLA2","country":"GB","cc2":"","admin1":"NIR","admin2":"N09000009","admin3":"","admin4":"","population":9157,"elevation":0,"gtopo30":76,"timezone":"Europe/London","moddate":"2016-12-04T00:00:00.000Z"},{"geonameid":2643199,"name":"Maghery","asciiname":"Maghery","alternatenames":"Maghery","latitude":"54.5166700","longitude":"-6.5833300","fclass":"P","fcode":"PPL","country":"GB","cc2":"","admin1":"NIR","admin2":"N09000009","admin3":"","admin4":"","population":0,"elevation":0,"gtopo30":14,"timezone":"Europe/London","moddate":"2016-12-04T00:00:00.000Z"},{"geonameid":2642349,"name":"Moneymore","asciiname":"Moneymore","alternatenames":"","latitude":"54.6922900","longitude":"-6.6695600","fclass":"P","fcode":"PPL","country":"GB","cc2":"","admin1":"NIR","admin2":"N09000009","admin3":"","admin4":"","population":1426,"elevation":0,"gtopo30":48,"timezone":"Europe/London","moddate":"2016-12-04T00:00:00.000Z"},{"geonameid":2642348,"name":"Moneyneany","asciiname":"Moneyneany","alternatenames":"Moneyneaney,Moneyneany","latitude":"54.8166700","longitude":"-6.8333300","fclass":"P","fcode":"PPL","country":"GB","cc2":"GB","admin1":"NIR","admin2":"N09000009","admin3":"","admin4":"","population":0,"elevation":0,"gtopo30":94,"timezone":"Europe/London","moddate":"2016-12-04T00:00:00.000Z"},{"geonameid":2641650,"name":"New Ferry","asciiname":"New Ferry","alternatenames":"","latitude":"54.8212600","longitude":"-6.4606500","fclass":"P","fcode":"PPL","country":"GB","cc2":"","admin1":"NIR","admin2":"N09000009","admin3":"","admin4":"","population":0,"elevation":0,"gtopo30":14,"timezone":"Europe/London","moddate":"2016-12-04T00:00:00.000Z"},{"geonameid":2641611,"name":"Newmills","asciiname":"Newmills","alternatenames":"Newmills","latitude":"54.5500000","longitude":"-6.7333300","fclass":"P","fcode":"PPL","country":"GB","cc2":"","admin1":"NIR","admin2":"N09000009","admin3":"","admin4":"","population":0,"elevation":0,"gtopo30":79,"timezone":"Europe/London","moddate":"2016-12-04T00:00:00.000Z"},{"geonameid":2641590,"name":"Newport Trench","asciiname":"Newport Trench","alternatenames":"","latitude":"54.6333300","longitude":"-6.5166700","fclass":"P","fcode":"PPL","country":"GB","cc2":"","admin1":"NIR","admin2":"N09000009","admin3":"","admin4":"","population":0,"elevation":0,"gtopo30":24,"timezone":"Europe/London","moddate":"2016-12-04T00:00:00.000Z"},{"geonameid":2640927,"name":"Oritor","asciiname":"Oritor","alternatenames":"","latitude":"54.6569500","longitude":"-6.8022500","fclass":"P","fcode":"PPL","country":"GB","cc2":"","admin1":"NIR","admin2":"N09000009","admin3":"","admin4":"","population":0,"elevation":0,"gtopo30":89,"timezone":"Europe/London","moddate":"2016-12-04T00:00:00.000Z"},{"geonameid":2640142,"name":"Pomeroy","asciiname":"Pomeroy","alternatenames":"Pomeroy","latitude":"54.6000000","longitude":"-6.9333300","fclass":"P","fcode":"PPL","country":"GB","cc2":"","admin1":"NIR","admin2":"N09000009","admin3":"","admin4":"","population":0,"elevation":0,"gtopo30":175,"timezone":"Europe/London","moddate":"2018-07-04T00:00:00.000Z"},{"geonameid":8504562,"name":"Seskilgreen","asciiname":"Seskilgreen","alternatenames":"","latitude":"54.4753700","longitude":"-7.0749400","fclass":"P","fcode":"PPL","country":"GB","cc2":"","admin1":"NIR","admin2":"N09000009","admin3":"","admin4":"","population":0,"elevation":0,"gtopo30":111,"timezone":"Europe/London","moddate":"2016-12-04T00:00:00.000Z"},{"geonameid":2638014,"name":"Sherrigrim","asciiname":"Sherrigrim","alternatenames":"","latitude":"54.5666700","longitude":"-6.7500000","fclass":"P","fcode":"PPL","country":"GB","cc2":"","admin1":"NIR","admin2":"N09000009","admin3":"","admin4":"","population":0,"elevation":0,"gtopo30":81,"timezone":"Europe/London","moddate":"2016-12-04T00:00:00.000Z"},{"geonameid":2636931,"name":"Stewartstown","asciiname":"Stewartstown","alternatenames":"","latitude":"54.5773400","longitude":"-6.6767700","fclass":"P","fcode":"PPL","country":"GB","cc2":"","admin1":"NIR","admin2":"N09000009","admin3":"","admin4":"","population":0,"elevation":0,"gtopo30":88,"timezone":"Europe/London","moddate":"2016-12-04T00:00:00.000Z"},{"geonameid":2636410,"name":"Swatragh","asciiname":"Swatragh","alternatenames":"Swatragh","latitude":"54.9000000","longitude":"-6.6666700","fclass":"P","fcode":"PPL","country":"GB","cc2":"","admin1":"NIR","admin2":"N09000009","admin3":"","admin4":"","population":0,"elevation":0,"gtopo30":86,"timezone":"Europe/London","moddate":"2016-12-04T00:00:00.000Z"},{"geonameid":2636278,"name":"Tamlaght","asciiname":"Tamlaght","alternatenames":"Tamlaght,Tamlaght O'Crilly,Tamlaght O’Crilly","latitude":"54.9000000","longitude":"-6.5833300","fclass":"P","fcode":"PPL","country":"GB","cc2":"GB","admin1":"NIR","admin2":"N09000009","admin3":"","admin4":"","population":0,"elevation":0,"gtopo30":56,"timezone":"Europe/London","moddate":"2016-12-04T00:00:00.000Z"},{"geonameid":2636277,"name":"Tamnyrankin","asciiname":"Tamnyrankin","alternatenames":"","latitude":"54.9166700","longitude":"-6.6833300","fclass":"P","fcode":"PPL","country":"GB","cc2":"","admin1":"NIR","admin2":"N09000009","admin3":"","admin4":"","population":0,"elevation":0,"gtopo30":118,"timezone":"Europe/London","moddate":"2016-12-04T00:00:00.000Z"},{"geonameid":2656145,"name":"The Bawn","asciiname":"The Bawn","alternatenames":"","latitude":"54.4500000","longitude":"-6.9166700","fclass":"P","fcode":"PPL","country":"GB","cc2":"","admin1":"NIR","admin2":"N09000009","admin3":"","admin4":"","population":0,"elevation":0,"gtopo30":111,"timezone":"Europe/London","moddate":"2016-12-04T00:00:00.000Z"},{"geonameid":2639262,"name":"The Rock","asciiname":"The Rock","alternatenames":"","latitude":"54.5833300","longitude":"-6.8333300","fclass":"P","fcode":"PPL","country":"GB","cc2":"","admin1":"NIR","admin2":"N09000009","admin3":"","admin4":"","population":0,"elevation":0,"gtopo30":85,"timezone":"Europe/London","moddate":"2016-12-04T00:00:00.000Z"},{"geonameid":2637797,"name":"The Six Towns","asciiname":"The Six Towns","alternatenames":"","latitude":"54.7500000","longitude":"-6.8666700","fclass":"P","fcode":"PPL","country":"GB","cc2":"","admin1":"NIR","admin2":"N09000009","admin3":"","admin4":"","population":0,"elevation":0,"gtopo30":215,"timezone":"Europe/London","moddate":"2016-12-04T00:00:00.000Z"},{"geonameid":2635755,"name":"Tobermore","asciiname":"Tobermore","alternatenames":"Tobermore,tobermore,तोबेर्मोरे","latitude":"54.8166700","longitude":"-6.7000000","fclass":"P","fcode":"PPL","country":"GB","cc2":"","admin1":"NIR","admin2":"N09000009","admin3":"","admin4":"","population":0,"elevation":0,"gtopo30":45,"timezone":"Europe/London","moddate":"2016-12-04T00:00:00.000Z"},{"geonameid":2635382,"name":"Tullaghoge","asciiname":"Tullaghoge","alternatenames":"Tullaghoge,Tulloghoge,Tullyhogue","latitude":"54.6000000","longitude":"-6.7333300","fclass":"P","fcode":"PPL","country":"GB","cc2":"GB","admin1":"NIR","admin2":"N09000009","admin3":"","admin4":"","population":0,"elevation":0,"gtopo30":76,"timezone":"Europe/London","moddate":"2016-12-04T00:00:00.000Z"},{"geonameid":2635375,"name":"Tullyallen","asciiname":"Tullyallen","alternatenames":"","latitude":"54.4833300","longitude":"-6.8833300","fclass":"P","fcode":"PPL","country":"GB","cc2":"","admin1":"NIR","admin2":"N09000009","admin3":"","admin4":"","population":0,"elevation":0,"gtopo30":84,"timezone":"Europe/London","moddate":"2016-12-04T00:00:00.000Z"},{"geonameid":2635119,"name":"Upperlands","asciiname":"Upperlands","alternatenames":"Upperland","latitude":"54.8775000","longitude":"-6.6422700","fclass":"P","fcode":"PPL","country":"GB","cc2":"GB","admin1":"NIR","admin2":"N09000009","admin3":"","admin4":"","population":0,"elevation":0,"gtopo30":63,"timezone":"Europe/London","moddate":"2016-12-04T00:00:00.000Z"}],"admin3":[],"alternateNames":[]},"__N_SSG":true}