{"pageProps":{"locale":"ro","admin2":{"geonameid":683754,"name":"Comuna Breaza","country":"RO","admin1":"11","admin2":"45619","admin3":"","latitude":"45.0918300","longitude":"26.5324000"},"admin1":{"geonameid":683121,"name":"Buzău","admin1":"11"},"locations":[{"geonameid":685913,"name":"Bădeni","asciiname":"Badeni","alternatenames":"","latitude":"45.0988700","longitude":"26.5547200","fclass":"P","fcode":"PPL","country":"RO","cc2":"","admin1":"11","admin2":"45619","admin3":"","admin4":"","population":166,"elevation":0,"gtopo30":410,"timezone":"Europe/Bucharest","moddate":"2013-04-21T00:00:00.000Z"},{"geonameid":683761,"name":"Breaza","asciiname":"Breaza","alternatenames":"","latitude":"45.1000000","longitude":"26.5333300","fclass":"P","fcode":"PPLA2","country":"RO","cc2":"","admin1":"11","admin2":"45619","admin3":"","admin4":"","population":3127,"elevation":0,"gtopo30":418,"timezone":"Europe/Bucharest","moddate":"2012-06-12T00:00:00.000Z"},{"geonameid":679077,"name":"Dorobanți","asciiname":"Dorobanti","alternatenames":"","latitude":"45.0833300","longitude":"26.5333300","fclass":"P","fcode":"PPLX","country":"RO","cc2":"","admin1":"11","admin2":"45619","admin3":"","admin4":"","population":0,"elevation":0,"gtopo30":264,"timezone":"Europe/Bucharest","moddate":"2016-02-07T00:00:00.000Z"},{"geonameid":679013,"name":"Drăgăici","asciiname":"Dragaici","alternatenames":"","latitude":"45.0833300","longitude":"26.5500000","fclass":"P","fcode":"PPLX","country":"RO","cc2":"","admin1":"11","admin2":"45619","admin3":"","admin4":"","population":0,"elevation":0,"gtopo30":212,"timezone":"Europe/Bucharest","moddate":"2016-02-07T00:00:00.000Z"},{"geonameid":676765,"name":"Greceanca","asciiname":"Greceanca","alternatenames":"","latitude":"45.0786300","longitude":"26.5446800","fclass":"P","fcode":"PPL","country":"RO","cc2":"","admin1":"11","admin2":"45619","admin3":"","admin4":"","population":1151,"elevation":0,"gtopo30":195,"timezone":"Europe/Bucharest","moddate":"2013-04-21T00:00:00.000Z"},{"geonameid":671863,"name":"Ologeni","asciiname":"Ologeni","alternatenames":"","latitude":"45.1000000","longitude":"26.5333300","fclass":"P","fcode":"PPLX","country":"RO","cc2":"","admin1":"11","admin2":"45619","admin3":"","admin4":"","population":0,"elevation":0,"gtopo30":418,"timezone":"Europe/Bucharest","moddate":"2016-02-07T00:00:00.000Z"},{"geonameid":667304,"name":"Sfântu Gheorghe","asciiname":"Sfantu Gheorghe","alternatenames":"Sfantu Gheorghe,Sfantu Gheorghe Nou,Sfintu Gheorghe,Sfântu Gheorghe,Sfântu Gheorghe Nou,Sfîntu Gheorghe","latitude":"45.1666700","longitude":"26.5333300","fclass":"P","fcode":"PPL","country":"RO","cc2":"RO","admin1":"11","admin2":"45619","admin3":"","admin4":"","population":0,"elevation":0,"gtopo30":247,"timezone":"Europe/Bucharest","moddate":"2020-03-08T00:00:00.000Z"},{"geonameid":663557,"name":"Văleanca","asciiname":"Valeanca","alternatenames":"Valeanca,Valianca,Văleanca,Vălianca","latitude":"45.0833300","longitude":"26.5166700","fclass":"P","fcode":"PPL","country":"RO","cc2":"","admin1":"11","admin2":"45619","admin3":"","admin4":"","population":0,"elevation":0,"gtopo30":283,"timezone":"Europe/Bucharest","moddate":"2016-02-07T00:00:00.000Z"},{"geonameid":662900,"name":"Văleanca-Vilănești","asciiname":"Valeanca-Vilanesti","alternatenames":"","latitude":"45.0924700","longitude":"26.5045700","fclass":"P","fcode":"PPLX","country":"RO","cc2":"","admin1":"11","admin2":"45619","admin3":"","admin4":"","population":446,"elevation":0,"gtopo30":253,"timezone":"Europe/Bucharest","moddate":"2015-11-20T00:00:00.000Z"},{"geonameid":662682,"name":"Vispești","asciiname":"Vispesti","alternatenames":"Vispesti-Vilanesti,Vispeşti-Vilăneşti","latitude":"45.0974900","longitude":"26.5222200","fclass":"P","fcode":"PPL","country":"RO","cc2":"","admin1":"11","admin2":"45619","admin3":"","admin4":"","population":410,"elevation":0,"gtopo30":328,"timezone":"Europe/Bucharest","moddate":"2015-11-20T00:00:00.000Z"}],"admin3":[],"alternateNames":[]},"__N_SSG":true}