{"pageProps":{"locale":"ro","admin2":{"geonameid":8334643,"name":"Comuna Dorna-Arini","country":"RO","admin1":"34","admin2":"148131","admin3":"","latitude":"47.3592800","longitude":"25.4438300"},"admin1":{"geonameid":665849,"name":"Suceava","admin1":"34"},"locations":[{"geonameid":686160,"name":"Arin","asciiname":"Arin","alternatenames":"","latitude":"47.3500000","longitude":"25.4333300","fclass":"P","fcode":"PPLX","country":"RO","cc2":"","admin1":"34","admin2":"148131","admin3":"","admin4":"","population":0,"elevation":0,"gtopo30":789,"timezone":"Europe/Bucharest","moddate":"2016-02-07T00:00:00.000Z"},{"geonameid":682948,"name":"Călineşti","asciiname":"Calinesti","alternatenames":"","latitude":"47.4000000","longitude":"25.5000000","fclass":"P","fcode":"PPLX","country":"RO","cc2":"","admin1":"34","admin2":"148131","admin3":"","admin4":"","population":0,"elevation":0,"gtopo30":918,"timezone":"Europe/Bucharest","moddate":"2016-02-07T00:00:00.000Z"},{"geonameid":680414,"name":"Cozăneşti","asciiname":"Cozanesti","alternatenames":"","latitude":"47.3333300","longitude":"25.4500000","fclass":"P","fcode":"PPL","country":"RO","cc2":"","admin1":"34","admin2":"148131","admin3":"","admin4":"","population":1000,"elevation":0,"gtopo30":900,"timezone":"Europe/Bucharest","moddate":"2016-02-07T00:00:00.000Z"},{"geonameid":7576007,"name":"Dorna-Arini","asciiname":"Dorna-Arini","alternatenames":"","latitude":"47.3383200","longitude":"25.4074000","fclass":"P","fcode":"PPL","country":"RO","cc2":"","admin1":"34","admin2":"148131","admin3":"","admin4":"","population":1194,"elevation":0,"gtopo30":807,"timezone":"Europe/Bucharest","moddate":"2013-04-21T00:00:00.000Z"},{"geonameid":677455,"name":"Gheorghițeni","asciiname":"Gheorghiteni","alternatenames":"Georgiceni,Gheorghiteni,Gheorghiţeni","latitude":"47.3595600","longitude":"25.4423700","fclass":"P","fcode":"PPL","country":"RO","cc2":"RO","admin1":"34","admin2":"148131","admin3":"","admin4":"","population":280,"elevation":0,"gtopo30":771,"timezone":"Europe/Bucharest","moddate":"2013-04-21T00:00:00.000Z"},{"geonameid":676513,"name":"Gura Negri","asciiname":"Gura Negri","alternatenames":"","latitude":"47.3333300","longitude":"25.4166700","fclass":"P","fcode":"PPLX","country":"RO","cc2":"","admin1":"34","admin2":"148131","admin3":"","admin4":"","population":0,"elevation":0,"gtopo30":873,"timezone":"Europe/Bucharest","moddate":"2016-02-07T00:00:00.000Z"},{"geonameid":679092,"name":"Ortoaia","asciiname":"Ortoaia","alternatenames":"","latitude":"47.3500000","longitude":"25.4333300","fclass":"P","fcode":"PPL","country":"RO","cc2":"","admin1":"34","admin2":"148131","admin3":"","admin4":"","population":532,"elevation":0,"gtopo30":789,"timezone":"Europe/Bucharest","moddate":"2016-01-02T00:00:00.000Z"},{"geonameid":671646,"name":"Osoiu","asciiname":"Osoiu","alternatenames":"","latitude":"47.3666700","longitude":"25.4666700","fclass":"P","fcode":"PPLX","country":"RO","cc2":"","admin1":"34","admin2":"148131","admin3":"","admin4":"","population":0,"elevation":0,"gtopo30":849,"timezone":"Europe/Bucharest","moddate":"2016-02-07T00:00:00.000Z"},{"geonameid":668421,"name":"Rusca","asciiname":"Rusca","alternatenames":"","latitude":"47.3697500","longitude":"25.4543500","fclass":"P","fcode":"PPL","country":"RO","cc2":"","admin1":"34","admin2":"148131","admin3":"","admin4":"","population":295,"elevation":0,"gtopo30":772,"timezone":"Europe/Bucharest","moddate":"2013-04-21T00:00:00.000Z"},{"geonameid":665770,"name":"Sunători","asciiname":"Sunatori","alternatenames":"Sunator,Sunatori,Sunător,Sunători","latitude":"47.3939200","longitude":"25.4958900","fclass":"P","fcode":"PPL","country":"RO","cc2":"RO","admin1":"34","admin2":"148131","admin3":"","admin4":"","population":257,"elevation":0,"gtopo30":764,"timezone":"Europe/Bucharest","moddate":"2013-04-21T00:00:00.000Z"},{"geonameid":662122,"name":"Zugreni","asciiname":"Zugreni","alternatenames":"","latitude":"47.4000000","longitude":"25.5166700","fclass":"P","fcode":"PPLX","country":"RO","cc2":"","admin1":"34","admin2":"148131","admin3":"","admin4":"","population":0,"elevation":0,"gtopo30":929,"timezone":"Europe/Bucharest","moddate":"2016-02-07T00:00:00.000Z"}],"admin3":[],"alternateNames":[{"alternatenameId":393492,"geonameid":665849,"isoLanguage":"en","alternateName":"Suceava","isPreferredName":true,"isShortName":true,"isColloquial":false,"isHistoric":false}]},"__N_SSG":true}