{"pageProps":{"locale":"ro","admin2":{"geonameid":673505,"name":"Comuna Meteş","country":"RO","admin1":"01","admin2":"5577","admin3":"","latitude":"46.1054300","longitude":"23.4170700"},"admin1":{"geonameid":686581,"name":"Alba","admin1":"01"},"locations":[{"geonameid":686369,"name":"Ampoița","asciiname":"Ampoita","alternatenames":"","latitude":"46.1176100","longitude":"23.4501100","fclass":"P","fcode":"PPL","country":"RO","cc2":"","admin1":"01","admin2":"5577","admin3":"","admin4":"","population":700,"elevation":0,"gtopo30":341,"timezone":"Europe/Bucharest","moddate":"2013-04-21T00:00:00.000Z"},{"geonameid":679592,"name":"Dealu Poenii","asciiname":"Dealu Poenii","alternatenames":"","latitude":"46.1000000","longitude":"23.4166700","fclass":"P","fcode":"PPL","country":"RO","cc2":"","admin1":"01","admin2":"5577","admin3":"","admin4":"","population":0,"elevation":0,"gtopo30":346,"timezone":"Europe/Bucharest","moddate":"2016-02-07T00:00:00.000Z"},{"geonameid":675484,"name":"Isca","asciiname":"Isca","alternatenames":"","latitude":"46.1046000","longitude":"23.4062300","fclass":"P","fcode":"PPL","country":"RO","cc2":"","admin1":"01","admin2":"5577","admin3":"","admin4":"","population":16,"elevation":0,"gtopo30":380,"timezone":"Europe/Bucharest","moddate":"2013-04-21T00:00:00.000Z"},{"geonameid":674442,"name":"Lunca Ampoiței","asciiname":"Lunca Ampoitei","alternatenames":"Lunca Ampoita,Lunca Ampoitei,Lunca Ampoiţa,Lunca Ampoiţei","latitude":"46.1399500","longitude":"23.3851800","fclass":"P","fcode":"PPL","country":"RO","cc2":"RO","admin1":"01","admin2":"5577","admin3":"","admin4":"","population":186,"elevation":0,"gtopo30":593,"timezone":"Europe/Bucharest","moddate":"2013-04-21T00:00:00.000Z"},{"geonameid":674387,"name":"Lunca Meteșului","asciiname":"Lunca Metesului","alternatenames":"Lunca Metesului,Lunca Meteşului,Metes Lunca,Meteş Lunca","latitude":"46.1396500","longitude":"23.3664800","fclass":"P","fcode":"PPL","country":"RO","cc2":"RO","admin1":"01","admin2":"5577","admin3":"","admin4":"","population":130,"elevation":0,"gtopo30":622,"timezone":"Europe/Bucharest","moddate":"2013-04-21T00:00:00.000Z"},{"geonameid":673506,"name":"Meteş","asciiname":"Metes","alternatenames":"Metes,Meteş","latitude":"46.1000000","longitude":"23.4166700","fclass":"P","fcode":"PPLA2","country":"RO","cc2":"","admin1":"01","admin2":"5577","admin3":"","admin4":"","population":3114,"elevation":0,"gtopo30":346,"timezone":"Europe/Bucharest","moddate":"2012-06-12T00:00:00.000Z"},{"geonameid":671547,"name":"Pădurea","asciiname":"Padurea","alternatenames":"","latitude":"46.0984100","longitude":"23.4873200","fclass":"P","fcode":"PPL","country":"RO","cc2":"","admin1":"01","admin2":"5577","admin3":"","admin4":"","population":66,"elevation":0,"gtopo30":388,"timezone":"Europe/Bucharest","moddate":"2013-04-21T00:00:00.000Z"},{"geonameid":670105,"name":"Poiana Ampoiului","asciiname":"Poiana Ampoiului","alternatenames":"","latitude":"46.0889000","longitude":"23.3939900","fclass":"P","fcode":"PPL","country":"RO","cc2":"","admin1":"01","admin2":"5577","admin3":"","admin4":"","population":337,"elevation":0,"gtopo30":309,"timezone":"Europe/Bucharest","moddate":"2013-04-21T00:00:00.000Z"},{"geonameid":670017,"name":"Poiana Ursului","asciiname":"Poiana Ursului","alternatenames":"Dealu Gaurenilor,Dealu Găurenilor,Poiana Ursului","latitude":"46.0728900","longitude":"23.4379100","fclass":"P","fcode":"PPL","country":"RO","cc2":"RO","admin1":"01","admin2":"5577","admin3":"","admin4":"","population":24,"elevation":0,"gtopo30":671,"timezone":"Europe/Bucharest","moddate":"2013-04-21T00:00:00.000Z"},{"geonameid":669670,"name":"Presaca Ampoiului","asciiname":"Presaca Ampoiului","alternatenames":"Presaca Ampoiului,Prisaca-Ampoiului","latitude":"46.0968100","longitude":"23.3298700","fclass":"P","fcode":"PPL","country":"RO","cc2":"RO","admin1":"01","admin2":"5577","admin3":"","admin4":"","population":464,"elevation":0,"gtopo30":353,"timezone":"Europe/Bucharest","moddate":"2013-04-21T00:00:00.000Z"},{"geonameid":668990,"name":"Remetea","asciiname":"Remetea","alternatenames":"","latitude":"46.1200200","longitude":"23.4278100","fclass":"P","fcode":"PPL","country":"RO","cc2":"","admin1":"01","admin2":"5577","admin3":"","admin4":"","population":26,"elevation":0,"gtopo30":401,"timezone":"Europe/Bucharest","moddate":"2013-04-21T00:00:00.000Z"},{"geonameid":665385,"name":"Tăuți","asciiname":"Tauti","alternatenames":"Taut,Tauti,Tăuţ,Tăuţi","latitude":"46.0960600","longitude":"23.4678300","fclass":"P","fcode":"PPL","country":"RO","cc2":"RO","admin1":"01","admin2":"5577","admin3":"","admin4":"","population":638,"elevation":0,"gtopo30":282,"timezone":"Europe/Bucharest","moddate":"2013-04-21T00:00:00.000Z"},{"geonameid":663285,"name":"Văleni","asciiname":"Valeni","alternatenames":"Gaureni,Găureni,Valeni,Văleni","latitude":"46.0930100","longitude":"23.4273000","fclass":"P","fcode":"PPL","country":"RO","cc2":"RO","admin1":"01","admin2":"5577","admin3":"","admin4":"","population":287,"elevation":0,"gtopo30":366,"timezone":"Europe/Bucharest","moddate":"2013-04-20T00:00:00.000Z"}],"admin3":[],"alternateNames":[]},"__N_SSG":true}