{"pageProps":{"locale":"ro","admin2":{"geonameid":662627,"name":"Comuna Vlădeni","country":"RO","admin1":"07","admin2":"39738","admin3":"","latitude":"47.7221600","longitude":"26.5088000"},"admin1":{"geonameid":684038,"name":"Botoşani","admin1":"07"},"locations":[{"geonameid":683722,"name":"Brehuiești","asciiname":"Brehuiesti","alternatenames":"","latitude":"47.7019400","longitude":"26.5447200","fclass":"P","fcode":"PPL","country":"RO","cc2":"","admin1":"07","admin2":"39738","admin3":"","admin4":"","population":1532,"elevation":0,"gtopo30":279,"timezone":"Europe/Bucharest","moddate":"2013-04-21T00:00:00.000Z"},{"geonameid":675947,"name":"Hrișcani","asciiname":"Hriscani","alternatenames":"","latitude":"47.7468600","longitude":"26.5112800","fclass":"P","fcode":"PPL","country":"RO","cc2":"","admin1":"07","admin2":"39738","admin3":"","admin4":"","population":175,"elevation":0,"gtopo30":288,"timezone":"Europe/Bucharest","moddate":"2013-04-21T00:00:00.000Z"},{"geonameid":675879,"name":"Huțani","asciiname":"Hutani","alternatenames":"Hutan,Hutani,Huţan,Huţani","latitude":"47.7095300","longitude":"26.4857300","fclass":"P","fcode":"PPL","country":"RO","cc2":"RO","admin1":"07","admin2":"39738","admin3":"","admin4":"","population":525,"elevation":0,"gtopo30":261,"timezone":"Europe/Bucharest","moddate":"2013-04-21T00:00:00.000Z"},{"geonameid":673213,"name":"Mândrești","asciiname":"Mandresti","alternatenames":"Mindresti,Mîndreşti","latitude":"47.7333300","longitude":"26.4833300","fclass":"P","fcode":"PPL","country":"RO","cc2":"","admin1":"07","admin2":"39738","admin3":"","admin4":"","population":1037,"elevation":0,"gtopo30":325,"timezone":"Europe/Bucharest","moddate":"2015-11-18T00:00:00.000Z"},{"geonameid":662635,"name":"Vlădeni","asciiname":"Vladeni","alternatenames":"","latitude":"47.7166700","longitude":"26.5166700","fclass":"P","fcode":"PPLA2","country":"RO","cc2":"","admin1":"07","admin2":"39738","admin3":"","admin4":"","population":4963,"elevation":0,"gtopo30":273,"timezone":"Europe/Bucharest","moddate":"2012-06-12T00:00:00.000Z"}],"admin3":[],"alternateNames":[]},"__N_SSG":true}