{"pageProps":{"locale":"ro","admin2":{"geonameid":685738,"name":"Comuna Bălăbăneşti","country":"RO","admin1":"18","admin2":"75542","admin3":"","latitude":"46.0762300","longitude":"27.7537500"},"admin1":{"geonameid":677692,"name":"Galaţi","admin1":"18"},"locations":[{"geonameid":685739,"name":"Bălăbănești","asciiname":"Balabanesti","alternatenames":"","latitude":"46.0954600","longitude":"27.7220600","fclass":"P","fcode":"PPLA2","country":"RO","cc2":"","admin1":"18","admin2":"75542","admin3":"","admin4":"","population":895,"elevation":0,"gtopo30":142,"timezone":"Europe/Bucharest","moddate":"2013-04-21T00:00:00.000Z"},{"geonameid":683212,"name":"Bursucani","asciiname":"Bursucani","alternatenames":"","latitude":"46.0442400","longitude":"27.7716900","fclass":"P","fcode":"PPL","country":"RO","cc2":"","admin1":"18","admin2":"75542","admin3":"","admin4":"","population":556,"elevation":0,"gtopo30":207,"timezone":"Europe/Bucharest","moddate":"2013-04-21T00:00:00.000Z"},{"geonameid":677613,"name":"Gara Bălăbăneşti","asciiname":"Gara Balabanesti","alternatenames":"","latitude":"46.1333300","longitude":"27.6833300","fclass":"P","fcode":"PPLX","country":"RO","cc2":"","admin1":"18","admin2":"75542","admin3":"","admin4":"","population":0,"elevation":0,"gtopo30":107,"timezone":"Europe/Bucharest","moddate":"2016-02-07T00:00:00.000Z"},{"geonameid":674315,"name":"Lungești","asciiname":"Lungesti","alternatenames":"","latitude":"46.1091100","longitude":"27.7537300","fclass":"P","fcode":"PPL","country":"RO","cc2":"","admin1":"18","admin2":"75542","admin3":"","admin4":"","population":644,"elevation":0,"gtopo30":146,"timezone":"Europe/Bucharest","moddate":"2013-04-21T00:00:00.000Z"},{"geonameid":672120,"name":"Oanca","asciiname":"Oanca","alternatenames":"","latitude":"46.0500000","longitude":"27.7833300","fclass":"P","fcode":"PPL","country":"RO","cc2":"","admin1":"18","admin2":"75542","admin3":"","admin4":"","population":0,"elevation":0,"gtopo30":292,"timezone":"Europe/Bucharest","moddate":"2016-02-07T00:00:00.000Z"},{"geonameid":662190,"name":"Zimbru","asciiname":"Zimbru","alternatenames":"","latitude":"46.0561000","longitude":"27.7675400","fclass":"P","fcode":"PPL","country":"RO","cc2":"","admin1":"18","admin2":"75542","admin3":"","admin4":"","population":59,"elevation":0,"gtopo30":229,"timezone":"Europe/Bucharest","moddate":"2013-04-20T00:00:00.000Z"}],"admin3":[],"alternateNames":[]},"__N_SSG":true}