{"pageProps":{"locale":"ro","admin2":{"geonameid":680814,"name":"Comuna Corlăteni","country":"RO","admin1":"07","admin2":"36676","admin3":"","latitude":"47.9312100","longitude":"26.5851500"},"admin1":{"geonameid":684038,"name":"Botoşani","admin1":"07"},"locations":[{"geonameid":682721,"name":"Carasa","asciiname":"Carasa","alternatenames":"","latitude":"47.9415000","longitude":"26.5200700","fclass":"P","fcode":"PPL","country":"RO","cc2":"","admin1":"07","admin2":"36676","admin3":"","admin4":"","population":704,"elevation":0,"gtopo30":168,"timezone":"Europe/Bucharest","moddate":"2013-04-21T00:00:00.000Z"},{"geonameid":680815,"name":"Corlăteni","asciiname":"Corlateni","alternatenames":"Corlateni,Corlăteni","latitude":"47.9333300","longitude":"26.5500000","fclass":"P","fcode":"PPLA2","country":"RO","cc2":"","admin1":"07","admin2":"36676","admin3":"","admin4":"","population":4127,"elevation":0,"gtopo30":165,"timezone":"Europe/Bucharest","moddate":"2012-06-12T00:00:00.000Z"},{"geonameid":670341,"name":"Podeni","asciiname":"Podeni","alternatenames":"Podeni,Podu lui Stamate","latitude":"47.9258300","longitude":"26.6549100","fclass":"P","fcode":"PPL","country":"RO","cc2":"RO","admin1":"07","admin2":"36676","admin3":"","admin4":"","population":499,"elevation":0,"gtopo30":114,"timezone":"Europe/Bucharest","moddate":"2013-04-21T00:00:00.000Z"},{"geonameid":662634,"name":"Vlădeni","asciiname":"Vladeni","alternatenames":"","latitude":"47.9273700","longitude":"26.6106200","fclass":"P","fcode":"PPL","country":"RO","cc2":"","admin1":"07","admin2":"36676","admin3":"","admin4":"","population":569,"elevation":0,"gtopo30":106,"timezone":"Europe/Bucharest","moddate":"2013-04-20T00:00:00.000Z"}],"admin3":[],"alternateNames":[]},"__N_SSG":true}