{"pageProps":{"locale":"ro","admin2":{"geonameid":686441,"name":"Comuna Almaşu Mare","country":"RO","admin1":"01","admin2":"2309","admin3":"","latitude":"46.1087700","longitude":"23.1203800"},"admin1":{"geonameid":686581,"name":"Alba","admin1":"01"},"locations":[{"geonameid":686446,"name":"Almașu de Mijloc","asciiname":"Almasu de Mijloc","alternatenames":"Almasu de Mijloc,Almasul-de-Mijoc,Almaşu de Mijloc,Almaşul-de-Mijoc","latitude":"46.0669300","longitude":"23.1065400","fclass":"P","fcode":"PPL","country":"RO","cc2":"RO","admin1":"01","admin2":"2309","admin3":"","admin4":"","population":238,"elevation":0,"gtopo30":406,"timezone":"Europe/Bucharest","moddate":"2013-04-21T00:00:00.000Z"},{"geonameid":686443,"name":"Almaşu Mare","asciiname":"Almasu Mare","alternatenames":"Aimasul Mare,Aimaşul Mare,Almasel,Almasu Mare,Almasul-Mare,Almaşel,Almaşu Mare,Almaşul-Mare","latitude":"46.1101400","longitude":"23.1172100","fclass":"P","fcode":"PPLA2","country":"RO","cc2":"","admin1":"01","admin2":"2309","admin3":"","admin4":"","population":1649,"elevation":0,"gtopo30":635,"timezone":"Europe/Bucharest","moddate":"2012-06-12T00:00:00.000Z"},{"geonameid":683951,"name":"Brădet","asciiname":"Bradet","alternatenames":"","latitude":"46.1041800","longitude":"23.0951500","fclass":"P","fcode":"PPL","country":"RO","cc2":"","admin1":"01","admin2":"2309","admin3":"","admin4":"","population":60,"elevation":0,"gtopo30":609,"timezone":"Europe/Bucharest","moddate":"2013-04-21T00:00:00.000Z"},{"geonameid":682213,"name":"Cheile Cibului","asciiname":"Cheile Cibului","alternatenames":"","latitude":"46.0370800","longitude":"23.1824100","fclass":"P","fcode":"PPL","country":"RO","cc2":"","admin1":"01","admin2":"2309","admin3":"","admin4":"","population":57,"elevation":0,"gtopo30":569,"timezone":"Europe/Bucharest","moddate":"2013-04-21T00:00:00.000Z"},{"geonameid":681964,"name":"Cib","asciiname":"Cib","alternatenames":"","latitude":"46.0610800","longitude":"23.1902300","fclass":"P","fcode":"PPL","country":"RO","cc2":"","admin1":"01","admin2":"2309","admin3":"","admin4":"","population":401,"elevation":0,"gtopo30":569,"timezone":"Europe/Bucharest","moddate":"2013-04-21T00:00:00.000Z"},{"geonameid":677054,"name":"Glod","asciiname":"Glod","alternatenames":"","latitude":"46.0636900","longitude":"23.1589600","fclass":"P","fcode":"PPL","country":"RO","cc2":"","admin1":"01","admin2":"2309","admin3":"","admin4":"","population":271,"elevation":0,"gtopo30":546,"timezone":"Europe/Bucharest","moddate":"2013-04-21T00:00:00.000Z"},{"geonameid":12023666,"name":"Haneș Mină","asciiname":"Hanes Mina","alternatenames":"Hanes Mina","latitude":"46.1239800","longitude":"23.0905400","fclass":"P","fcode":"PPLA2","country":"RO","cc2":"","admin1":"01","admin2":"2309","admin3":"","admin4":"","population":0,"elevation":635,"gtopo30":721,"timezone":"Europe/Bucharest","moddate":"2019-02-21T00:00:00.000Z"},{"geonameid":672558,"name":"Nădăştia","asciiname":"Nadastia","alternatenames":"","latitude":"46.0807300","longitude":"23.1480200","fclass":"P","fcode":"PPL","country":"RO","cc2":"","admin1":"01","admin2":"2309","admin3":"","admin4":"","population":0,"elevation":0,"gtopo30":568,"timezone":"Europe/Bucharest","moddate":"2016-02-07T00:00:00.000Z"}],"admin3":[],"alternateNames":[]},"__N_SSG":true}