{"pageProps":{"locale":"en","admin2":{"geonameid":2650345,"name":"East Riding of Yorkshire","country":"GB","admin1":"ENG","admin2":"E1","admin3":"","latitude":"53.9166700","longitude":"-0.5000000"},"admin1":{"geonameid":6269131,"name":"England","admin1":"ENG","localeAltName":"England"},"locations":[{"geonameid":2657669,"name":"Adlingfleet","asciiname":"Adlingfleet","alternatenames":"","latitude":"53.6788100","longitude":"-0.7231200","fclass":"P","fcode":"PPL","country":"GB","cc2":"","admin1":"ENG","admin2":"E1","admin3":"00FB150","admin4":"","population":0,"elevation":0,"gtopo30":6,"timezone":"Europe/London","moddate":"2011-03-03T00:00:00.000Z"},{"geonameid":2657594,"name":"Airmyn","asciiname":"Airmyn","alternatenames":"","latitude":"53.7207400","longitude":"-0.8995900","fclass":"P","fcode":"PPLA3","country":"GB","cc2":"","admin1":"ENG","admin2":"E1","admin3":"00FB001","admin4":"","population":768,"elevation":0,"gtopo30":5,"timezone":"Europe/London","moddate":"2017-06-12T00:00:00.000Z"},{"geonameid":2657561,"name":"Aldbrough","asciiname":"Aldbrough","alternatenames":"","latitude":"53.8289300","longitude":"-0.1146700","fclass":"P","fcode":"PPLA3","country":"GB","cc2":"","admin1":"ENG","admin2":"E1","admin3":"00FB002","admin4":"","population":1269,"elevation":0,"gtopo30":17,"timezone":"Europe/London","moddate":"2017-06-12T00:00:00.000Z"},{"geonameid":2657024,"name":"Arram","asciiname":"Arram","alternatenames":"","latitude":"53.8845700","longitude":"-0.4268700","fclass":"P","fcode":"PPL","country":"GB","cc2":"","admin1":"ENG","admin2":"E1","admin3":"00FB087","admin4":"","population":0,"elevation":0,"gtopo30":4,"timezone":"Europe/London","moddate":"2011-03-03T00:00:00.000Z"},{"geonameid":2657022,"name":"Arras","asciiname":"Arras","alternatenames":"","latitude":"53.8666700","longitude":"-0.6000000","fclass":"P","fcode":"PPL","country":"GB","cc2":"","admin1":"ENG","admin2":"E1","admin3":"00FB093","admin4":"","population":0,"elevation":0,"gtopo30":96,"timezone":"Europe/London","moddate":"2016-06-22T00:00:00.000Z"},{"geonameid":2656834,"name":"Atwick","asciiname":"Atwick","alternatenames":"","latitude":"53.9401200","longitude":"-0.1890000","fclass":"P","fcode":"PPLA3","country":"GB","cc2":"","admin1":"ENG","admin2":"E1","admin3":"00FB005","admin4":"","population":0,"elevation":0,"gtopo30":12,"timezone":"Europe/London","moddate":"2011-07-31T00:00:00.000Z"},{"geonameid":2656785,"name":"Aughton","asciiname":"Aughton","alternatenames":"Aughton","latitude":"53.8333300","longitude":"-0.9333300","fclass":"P","fcode":"PPL","country":"GB","cc2":"","admin1":"ENG","admin2":"E1","admin3":"00FB044","admin4":"","population":0,"elevation":0,"gtopo30":10,"timezone":"Europe/London","moddate":"2016-06-22T00:00:00.000Z"},{"geonameid":2656619,"name":"Bainton","asciiname":"Bainton","alternatenames":"","latitude":"53.9500000","longitude":"-0.5333300","fclass":"P","fcode":"PPLA3","country":"GB","cc2":"","admin1":"ENG","admin2":"E1","admin3":"00FB006","admin4":"","population":0,"elevation":0,"gtopo30":45,"timezone":"Europe/London","moddate":"2011-07-31T00:00:00.000Z"},{"geonameid":2656574,"name":"Balkholme","asciiname":"Balkholme","alternatenames":"","latitude":"53.7432300","longitude":"-0.8087000","fclass":"P","fcode":"PPL","country":"GB","cc2":"","admin1":"ENG","admin2":"E1","admin3":"00FB082","admin4":"","population":0,"elevation":0,"gtopo30":7,"timezone":"Europe/London","moddate":"2016-06-22T00:00:00.000Z"},{"geonameid":2656315,"name":"Barmby on the Marsh","asciiname":"Barmby on the Marsh","alternatenames":"Barmby,Barmby on the Marsh","latitude":"53.7489600","longitude":"-0.9560700","fclass":"P","fcode":"PPLA3","country":"GB","cc2":"","admin1":"ENG","admin2":"E1","admin3":"00FB008","admin4":"","population":372,"elevation":0,"gtopo30":8,"timezone":"Europe/London","moddate":"2017-06-12T00:00:00.000Z"},{"geonameid":2656314,"name":"Barmby on the Moor","asciiname":"Barmby on the Moor","alternatenames":"Barmby,Barmby on the Moor","latitude":"53.9307800","longitude":"-0.8152200","fclass":"P","fcode":"PPL","country":"GB","cc2":"","admin1":"ENG","admin2":"E1","admin3":"00FB007","admin4":"","population":0,"elevation":0,"gtopo30":24,"timezone":"Europe/London","moddate":"2016-06-22T00:00:00.000Z"},{"geonameid":2656308,"name":"Barmston","asciiname":"Barmston","alternatenames":"","latitude":"54.0141200","longitude":"-0.2285700","fclass":"P","fcode":"PPLA3","country":"GB","cc2":"","admin1":"ENG","admin2":"E1","admin3":"00FB009","admin4":"","population":0,"elevation":0,"gtopo30":10,"timezone":"Europe/London","moddate":"2011-07-31T00:00:00.000Z"},{"geonameid":2656023,"name":"Beeford","asciiname":"Beeford","alternatenames":"","latitude":"53.9699900","longitude":"-0.2891300","fclass":"P","fcode":"PPL","country":"GB","cc2":"","admin1":"ENG","admin2":"E1","admin3":"00FB010","admin4":"","population":1078,"elevation":0,"gtopo30":9,"timezone":"Europe/London","moddate":"2017-06-12T00:00:00.000Z"},{"geonameid":2655923,"name":"Bempton","asciiname":"Bempton","alternatenames":"","latitude":"54.1303600","longitude":"-0.1785300","fclass":"P","fcode":"PPLA3","country":"GB","cc2":"","admin1":"ENG","admin2":"E1","admin3":"00FB012","admin4":"","population":1040,"elevation":0,"gtopo30":66,"timezone":"Europe/London","moddate":"2017-06-12T00:00:00.000Z"},{"geonameid":2655881,"name":"Bentley","asciiname":"Bentley","alternatenames":"Bentley","latitude":"53.8000000","longitude":"-0.4500000","fclass":"P","fcode":"PPL","country":"GB","cc2":"","admin1":"ENG","admin2":"E1","admin3":"00FB120","admin4":"","population":0,"elevation":0,"gtopo30":42,"timezone":"Europe/London","moddate":"2016-06-22T00:00:00.000Z"},{"geonameid":2655812,"name":"Bessingby","asciiname":"Bessingby","alternatenames":"","latitude":"54.0762600","longitude":"-0.2302000","fclass":"P","fcode":"PPL","country":"GB","cc2":"","admin1":"ENG","admin2":"E1","admin3":"00FB169","admin4":"","population":0,"elevation":0,"gtopo30":21,"timezone":"Europe/London","moddate":"2016-06-22T00:00:00.000Z"},{"geonameid":2655785,"name":"Beverley","asciiname":"Beverley","alternatenames":"Beverley,Bevurli,bebeolli,bei fu li,bwrly,Бевърли,بورلی,貝弗利,베벌리","latitude":"53.8458700","longitude":"-0.4233200","fclass":"P","fcode":"PPLA2","country":"GB","cc2":"","admin1":"ENG","admin2":"E1","admin3":"00FB166","admin4":"","population":30587,"elevation":0,"gtopo30":10,"timezone":"Europe/London","moddate":"2017-06-12T00:00:00.000Z"},{"geonameid":2655779,"name":"Bewholme","asciiname":"Bewholme","alternatenames":"","latitude":"53.9331100","longitude":"-0.2265600","fclass":"P","fcode":"PPL","country":"GB","cc2":"","admin1":"ENG","admin2":"E1","admin3":"00FB014","admin4":"","population":0,"elevation":0,"gtopo30":22,"timezone":"Europe/London","moddate":"2011-03-03T00:00:00.000Z"},{"geonameid":11593094,"name":"Bielby","asciiname":"Bielby","alternatenames":"","latitude":"53.8831500","longitude":"-0.8006300","fclass":"P","fcode":"PPL","country":"GB","cc2":"","admin1":"ENG","admin2":"E1","admin3":"00FB011","admin4":"","population":0,"elevation":0,"gtopo30":10,"timezone":"Europe/London","moddate":"2017-06-21T00:00:00.000Z"},{"geonameid":2655580,"name":"Bishop Burton","asciiname":"Bishop Burton","alternatenames":"","latitude":"53.8456200","longitude":"-0.4981100","fclass":"P","fcode":"PPL","country":"GB","cc2":"","admin1":"ENG","admin2":"E1","admin3":"00FB016","admin4":"","population":696,"elevation":0,"gtopo30":45,"timezone":"Europe/London","moddate":"2017-06-12T00:00:00.000Z"},{"geonameid":2655547,"name":"Bishop Wilton","asciiname":"Bishop Wilton","alternatenames":"","latitude":"53.9860500","longitude":"-0.7845200","fclass":"P","fcode":"PPL","country":"GB","cc2":"","admin1":"ENG","admin2":"E1","admin3":"00FB017","admin4":"","population":554,"elevation":0,"gtopo30":70,"timezone":"Europe/London","moddate":"2017-06-12T00:00:00.000Z"},{"geonameid":2655440,"name":"Blacktoft","asciiname":"Blacktoft","alternatenames":"","latitude":"53.7079700","longitude":"-0.7272800","fclass":"P","fcode":"PPL","country":"GB","cc2":"","admin1":"ENG","admin2":"E1","admin3":"00FB018","admin4":"","population":0,"elevation":0,"gtopo30":6,"timezone":"Europe/London","moddate":"2011-03-03T00:00:00.000Z"},{"geonameid":2655029,"name":"Boynton","asciiname":"Boynton","alternatenames":"","latitude":"54.0974600","longitude":"-0.2647900","fclass":"P","fcode":"PPLA3","country":"GB","cc2":"","admin1":"ENG","admin2":"E1","admin3":"00FB019","admin4":"","population":0,"elevation":0,"gtopo30":31,"timezone":"Europe/London","moddate":"2011-07-31T00:00:00.000Z"},{"geonameid":2654898,"name":"Brandesburton","asciiname":"Brandesburton","alternatenames":"Brandesburton,Brandsburton","latitude":"53.9111000","longitude":"-0.3012200","fclass":"P","fcode":"PPL","country":"GB","cc2":"","admin1":"ENG","admin2":"E1","admin3":"00FB020","admin4":"","population":1291,"elevation":0,"gtopo30":7,"timezone":"Europe/London","moddate":"2017-06-12T00:00:00.000Z"},{"geonameid":2654877,"name":"Brantingham","asciiname":"Brantingham","alternatenames":"","latitude":"53.7518100","longitude":"-0.5770400","fclass":"P","fcode":"PPLA3","country":"GB","cc2":"","admin1":"ENG","admin2":"E1","admin3":"00FB021","admin4":"","population":0,"elevation":0,"gtopo30":33,"timezone":"Europe/London","moddate":"2011-07-31T00:00:00.000Z"},{"geonameid":6453268,"name":"Breighton","asciiname":"Breighton","alternatenames":"Breighton","latitude":"53.7968800","longitude":"-0.9241500","fclass":"P","fcode":"PPL","country":"GB","cc2":"","admin1":"ENG","admin2":"E1","admin3":"00FB023","admin4":"","population":271,"elevation":0,"gtopo30":7,"timezone":"Europe/London","moddate":"2017-06-12T00:00:00.000Z"},{"geonameid":2654728,"name":"Bridlington","asciiname":"Bridlington","alternatenames":"brydlyngtwn,بریدلینگتون","latitude":"54.0830600","longitude":"-0.1919200","fclass":"P","fcode":"PPLA3","country":"GB","cc2":"","admin1":"ENG","admin2":"E1","admin3":"00FB169","admin4":"","population":35154,"elevation":0,"gtopo30":14,"timezone":"Europe/London","moddate":"2017-06-12T00:00:00.000Z"},{"geonameid":2654718,"name":"Brigham","asciiname":"Brigham","alternatenames":"Brigham","latitude":"53.9666700","longitude":"-0.3500000","fclass":"P","fcode":"PPL","country":"GB","cc2":"","admin1":"ENG","admin2":"E1","admin3":"00FB053","admin4":"","population":0,"elevation":0,"gtopo30":1,"timezone":"Europe/London","moddate":"2016-06-22T00:00:00.000Z"},{"geonameid":2654549,"name":"Broomfleet","asciiname":"Broomfleet","alternatenames":"","latitude":"53.7333300","longitude":"-0.6666700","fclass":"P","fcode":"PPLA3","country":"GB","cc2":"","admin1":"ENG","admin2":"E1","admin3":"00FB022","admin4":"","population":0,"elevation":0,"gtopo30":5,"timezone":"Europe/London","moddate":"2011-07-31T00:00:00.000Z"},{"geonameid":2654532,"name":"Brough","asciiname":"Brough","alternatenames":"","latitude":"53.7286100","longitude":"-0.5721500","fclass":"P","fcode":"PPL","country":"GB","cc2":"","admin1":"ENG","admin2":"E1","admin3":"00FB045","admin4":"","population":19904,"elevation":0,"gtopo30":8,"timezone":"Europe/London","moddate":"2017-06-12T00:00:00.000Z"},{"geonameid":2654430,"name":"Bubwith","asciiname":"Bubwith","alternatenames":"","latitude":"53.8190500","longitude":"-0.9196800","fclass":"P","fcode":"PPLA3","country":"GB","cc2":"","admin1":"ENG","admin2":"E1","admin3":"00FB023","admin4":"","population":954,"elevation":0,"gtopo30":9,"timezone":"Europe/London","moddate":"2017-06-12T00:00:00.000Z"},{"geonameid":2654370,"name":"Bugthorpe","asciiname":"Bugthorpe","alternatenames":"","latitude":"54.0108200","longitude":"-0.8226000","fclass":"P","fcode":"PPLA3","country":"GB","cc2":"","admin1":"ENG","admin2":"E1","admin3":"00FB024","admin4":"","population":0,"elevation":0,"gtopo30":49,"timezone":"Europe/London","moddate":"2011-07-31T00:00:00.000Z"},{"geonameid":2654227,"name":"Burshill","asciiname":"Burshill","alternatenames":"Burshill","latitude":"53.9166700","longitude":"-0.3333300","fclass":"P","fcode":"PPL","country":"GB","cc2":"","admin1":"ENG","admin2":"E1","admin3":"00FB020","admin4":"","population":0,"elevation":0,"gtopo30":2,"timezone":"Europe/London","moddate":"2016-06-22T00:00:00.000Z"},{"geonameid":2654220,"name":"Burstwick","asciiname":"Burstwick","alternatenames":"","latitude":"53.7321100","longitude":"-0.1395600","fclass":"P","fcode":"PPLA3","country":"GB","cc2":"","admin1":"ENG","admin2":"E1","admin3":"00FB025","admin4":"","population":1924,"elevation":0,"gtopo30":7,"timezone":"Europe/London","moddate":"2017-06-12T00:00:00.000Z"},{"geonameid":2654214,"name":"Burton Agnes","asciiname":"Burton Agnes","alternatenames":"","latitude":"54.0514200","longitude":"-0.3156200","fclass":"P","fcode":"PPL","country":"GB","cc2":"","admin1":"ENG","admin2":"E1","admin3":"00FB026","admin4":"","population":270,"elevation":0,"gtopo30":23,"timezone":"Europe/London","moddate":"2017-06-12T00:00:00.000Z"},{"geonameid":2654211,"name":"Burton Constable","asciiname":"Burton Constable","alternatenames":"","latitude":"53.8166700","longitude":"-0.2000000","fclass":"P","fcode":"PPLA3","country":"GB","cc2":"","admin1":"ENG","admin2":"E1","admin3":"00FB027","admin4":"","population":0,"elevation":0,"gtopo30":15,"timezone":"Europe/London","moddate":"2011-07-31T00:00:00.000Z"},{"geonameid":2654203,"name":"Burton Pidsea","asciiname":"Burton Pidsea","alternatenames":"","latitude":"53.7632700","longitude":"-0.1070300","fclass":"P","fcode":"PPLA3","country":"GB","cc2":"","admin1":"ENG","admin2":"E1","admin3":"00FB029","admin4":"","population":944,"elevation":0,"gtopo30":8,"timezone":"Europe/London","moddate":"2017-06-12T00:00:00.000Z"},{"geonameid":2653742,"name":"Carnaby","asciiname":"Carnaby","alternatenames":"","latitude":"54.0607000","longitude":"-0.2595700","fclass":"P","fcode":"PPLA3","country":"GB","cc2":"","admin1":"ENG","admin2":"E1","admin3":"00FB030","admin4":"","population":0,"elevation":0,"gtopo30":10,"timezone":"Europe/London","moddate":"2017-06-08T00:00:00.000Z"},{"geonameid":2653490,"name":"Catwick","asciiname":"Catwick","alternatenames":"","latitude":"53.8921500","longitude":"-0.2782100","fclass":"P","fcode":"PPL","country":"GB","cc2":"","admin1":"ENG","admin2":"E1","admin3":"00FB032","admin4":"","population":0,"elevation":0,"gtopo30":13,"timezone":"Europe/London","moddate":"2011-03-03T00:00:00.000Z"},{"geonameid":2653243,"name":"Cherry Burton","asciiname":"Cherry Burton","alternatenames":"","latitude":"53.8666700","longitude":"-0.5000000","fclass":"P","fcode":"PPLA3","country":"GB","cc2":"","admin1":"ENG","admin2":"E1","admin3":"00FB033","admin4":"","population":1392,"elevation":0,"gtopo30":30,"timezone":"Europe/London","moddate":"2017-06-12T00:00:00.000Z"},{"geonameid":2652276,"name":"Cotness","asciiname":"Cotness","alternatenames":"Cotness,Cotness Hall","latitude":"53.7077100","longitude":"-0.7955600","fclass":"P","fcode":"PPL","country":"GB","cc2":"","admin1":"ENG","admin2":"E1","admin3":"00FB086","admin4":"","population":0,"elevation":0,"gtopo30":4,"timezone":"Europe/London","moddate":"2015-07-11T00:00:00.000Z"},{"geonameid":2652262,"name":"Cottingham","asciiname":"Cottingham","alternatenames":"","latitude":"53.7805700","longitude":"-0.4154200","fclass":"P","fcode":"PPLA3","country":"GB","cc2":"","admin1":"ENG","admin2":"E1","admin3":"00FB167","admin4":"","population":0,"elevation":0,"gtopo30":11,"timezone":"Europe/London","moddate":"2011-07-31T00:00:00.000Z"},{"geonameid":2652194,"name":"Cowlam","asciiname":"Cowlam","alternatenames":"","latitude":"54.0837200","longitude":"-0.5326500","fclass":"P","fcode":"PPL","country":"GB","cc2":"","admin1":"ENG","admin2":"E1","admin3":"00FB035","admin4":"","population":0,"elevation":0,"gtopo30":172,"timezone":"Europe/London","moddate":"2011-03-03T00:00:00.000Z"},{"geonameid":2652077,"name":"Cranswick","asciiname":"Cranswick","alternatenames":"","latitude":"53.9500000","longitude":"-0.4333300","fclass":"P","fcode":"PPL","country":"GB","cc2":"","admin1":"ENG","admin2":"E1","admin3":"00FB078","admin4":"","population":0,"elevation":0,"gtopo30":6,"timezone":"Europe/London","moddate":"2016-06-22T00:00:00.000Z"},{"geonameid":2651255,"name":"Dimlington","asciiname":"Dimlington","alternatenames":"","latitude":"53.6559700","longitude":"0.1150200","fclass":"P","fcode":"PPL","country":"GB","cc2":"","admin1":"ENG","admin2":"E1","admin3":"00FB039","admin4":"","population":0,"elevation":0,"gtopo30":11,"timezone":"Europe/London","moddate":"2015-04-10T00:00:00.000Z"},{"geonameid":2648120,"name":"Driffield","asciiname":"Driffield","alternatenames":"Driffield,dryfyld,دریفیلد","latitude":"54.0061300","longitude":"-0.4449500","fclass":"P","fcode":"PPLA3","country":"GB","cc2":"","admin1":"ENG","admin2":"E1","admin3":"00FB038","admin4":"","population":13080,"elevation":0,"gtopo30":21,"timezone":"Europe/London","moddate":"2017-06-12T00:00:00.000Z"},{"geonameid":2650686,"name":"Dunnington","asciiname":"Dunnington","alternatenames":"Dunnington","latitude":"53.9500000","longitude":"-0.2500000","fclass":"P","fcode":"PPL","country":"GB","cc2":"","admin1":"ENG","admin2":"E1","admin3":"00FB014","admin4":"","population":2987,"elevation":0,"gtopo30":17,"timezone":"Europe/London","moddate":"2016-06-22T00:00:00.000Z"},{"geonameid":2650649,"name":"Dunswell","asciiname":"Dunswell","alternatenames":"","latitude":"53.8010600","longitude":"-0.3713900","fclass":"P","fcode":"PPL","country":"GB","cc2":"","admin1":"ENG","admin2":"E1","admin3":"00FB163","admin4":"","population":1682,"elevation":0,"gtopo30":2,"timezone":"Europe/London","moddate":"2016-06-22T00:00:00.000Z"},{"geonameid":2650519,"name":"Easington","asciiname":"Easington","alternatenames":"","latitude":"53.6535900","longitude":"0.1150100","fclass":"P","fcode":"PPLA3","country":"GB","cc2":"","admin1":"ENG","admin2":"E1","admin3":"00FB039","admin4":"","population":691,"elevation":0,"gtopo30":10,"timezone":"Europe/London","moddate":"2017-06-12T00:00:00.000Z"},{"geonameid":2650478,"name":"East Cottingwith","asciiname":"East Cottingwith","alternatenames":"","latitude":"53.8754000","longitude":"-0.9307500","fclass":"P","fcode":"PPL","country":"GB","cc2":"","admin1":"ENG","admin2":"E1","admin3":"00FB036","admin4":"","population":0,"elevation":0,"gtopo30":9,"timezone":"Europe/London","moddate":"2016-06-22T00:00:00.000Z"},{"geonameid":2650344,"name":"Eastrington","asciiname":"Eastrington","alternatenames":"","latitude":"53.7603800","longitude":"-0.7932500","fclass":"P","fcode":"PPLA3","country":"GB","cc2":"","admin1":"ENG","admin2":"E1","admin3":"00FB041","admin4":"","population":1147,"elevation":0,"gtopo30":7,"timezone":"Europe/London","moddate":"2017-06-12T00:00:00.000Z"},{"geonameid":2650100,"name":"Ellerker","asciiname":"Ellerker","alternatenames":"","latitude":"53.7532300","longitude":"-0.6041600","fclass":"P","fcode":"PPLA3","country":"GB","cc2":"","admin1":"ENG","admin2":"E1","admin3":"00FB043","admin4":"","population":307,"elevation":0,"gtopo30":12,"timezone":"Europe/London","moddate":"2017-06-12T00:00:00.000Z"},{"geonameid":2650099,"name":"Ellerton","asciiname":"Ellerton","alternatenames":"","latitude":"53.8500000","longitude":"-0.9333300","fclass":"P","fcode":"PPLA3","country":"GB","cc2":"","admin1":"ENG","admin2":"E1","admin3":"00FB044","admin4":"","population":388,"elevation":0,"gtopo30":10,"timezone":"Europe/London","moddate":"2017-06-12T00:00:00.000Z"},{"geonameid":2650083,"name":"Elloughton","asciiname":"Elloughton","alternatenames":"","latitude":"53.7377700","longitude":"-0.5698700","fclass":"P","fcode":"PPL","country":"GB","cc2":"","admin1":"ENG","admin2":"E1","admin3":"00FB045","admin4":"","population":0,"elevation":0,"gtopo30":29,"timezone":"Europe/London","moddate":"2011-03-03T00:00:00.000Z"},{"geonameid":2649868,"name":"Etton","asciiname":"Etton","alternatenames":"","latitude":"53.8784800","longitude":"-0.5131400","fclass":"P","fcode":"PPLA3","country":"GB","cc2":"","admin1":"ENG","admin2":"E1","admin3":"00FB047","admin4":"","population":277,"elevation":0,"gtopo30":27,"timezone":"Europe/London","moddate":"2017-06-13T00:00:00.000Z"},{"geonameid":2649841,"name":"Everingham","asciiname":"Everingham","alternatenames":"","latitude":"53.8737500","longitude":"-0.7801600","fclass":"P","fcode":"PPL","country":"GB","cc2":"","admin1":"ENG","admin2":"E1","admin3":"00FB048","admin4":"","population":0,"elevation":0,"gtopo30":13,"timezone":"Europe/London","moddate":"2011-03-03T00:00:00.000Z"},{"geonameid":6693762,"name":"Everthorpe","asciiname":"Everthorpe","alternatenames":"","latitude":"53.7685500","longitude":"-0.6368600","fclass":"P","fcode":"PPL","country":"GB","cc2":"","admin1":"ENG","admin2":"E1","admin3":"00FB102","admin4":"","population":0,"elevation":0,"gtopo30":17,"timezone":"Europe/London","moddate":"2016-06-22T00:00:00.000Z"},{"geonameid":2649710,"name":"Fangfoss","asciiname":"Fangfoss","alternatenames":"","latitude":"53.9690000","longitude":"-0.8347300","fclass":"P","fcode":"PPL","country":"GB","cc2":"","admin1":"ENG","admin2":"E1","admin3":"00FB049","admin4":"","population":0,"elevation":0,"gtopo30":24,"timezone":"Europe/London","moddate":"2011-03-03T00:00:00.000Z"},{"geonameid":2649326,"name":"Faxfleet","asciiname":"Faxfleet","alternatenames":"Faxfleet,Flaxfleet","latitude":"53.7066500","longitude":"-0.6939400","fclass":"P","fcode":"PPL","country":"GB","cc2":"","admin1":"ENG","admin2":"E1","admin3":"00FB018","admin4":"","population":0,"elevation":0,"gtopo30":4,"timezone":"Europe/London","moddate":"2011-03-03T00:00:00.000Z"},{"geonameid":2649451,"name":"Fimber","asciiname":"Fimber","alternatenames":"","latitude":"54.0349500","longitude":"-0.6313300","fclass":"P","fcode":"PPLA3","country":"GB","cc2":"","admin1":"ENG","admin2":"E1","admin3":"00FB050","admin4":"","population":0,"elevation":0,"gtopo30":96,"timezone":"Europe/London","moddate":"2015-02-18T00:00:00.000Z"},{"geonameid":2649337,"name":"Flamborough","asciiname":"Flamborough","alternatenames":"","latitude":"54.1169600","longitude":"-0.1236400","fclass":"P","fcode":"PPLA3","country":"GB","cc2":"","admin1":"ENG","admin2":"E1","admin3":"00FB051","admin4":"","population":1914,"elevation":0,"gtopo30":2,"timezone":"Europe/London","moddate":"2020-01-20T00:00:00.000Z"},{"geonameid":2649299,"name":"Flinton","asciiname":"Flinton","alternatenames":"","latitude":"53.8077800","longitude":"-0.1480200","fclass":"P","fcode":"PPL","country":"GB","cc2":"","admin1":"ENG","admin2":"E1","admin3":"00FB077","admin4":"","population":0,"elevation":0,"gtopo30":13,"timezone":"Europe/London","moddate":"2011-03-03T00:00:00.000Z"},{"geonameid":2649264,"name":"Foggathorpe","asciiname":"Foggathorpe","alternatenames":"","latitude":"53.8293500","longitude":"-0.8554400","fclass":"P","fcode":"PPL","country":"GB","cc2":"","admin1":"ENG","admin2":"E1","admin3":"00FB052","admin4":"","population":0,"elevation":0,"gtopo30":7,"timezone":"Europe/London","moddate":"2011-03-03T00:00:00.000Z"},{"geonameid":2649227,"name":"Fordon","asciiname":"Fordon","alternatenames":"Fordon","latitude":"54.1500000","longitude":"-0.3833300","fclass":"P","fcode":"PPL","country":"GB","cc2":"","admin1":"ENG","admin2":"E1","admin3":"00FB162","admin4":"","population":0,"elevation":0,"gtopo30":84,"timezone":"Europe/London","moddate":"2016-06-22T00:00:00.000Z"},{"geonameid":2649157,"name":"Foston on the Wolds","asciiname":"Foston on the Wolds","alternatenames":"Foston,Foston on the Wolds","latitude":"53.9821800","longitude":"-0.3280300","fclass":"P","fcode":"PPL","country":"GB","cc2":"","admin1":"ENG","admin2":"E1","admin3":"00FB053","admin4":"","population":0,"elevation":0,"gtopo30":13,"timezone":"Europe/London","moddate":"2011-03-03T00:00:00.000Z"},{"geonameid":2649107,"name":"Fraisthorpe","asciiname":"Fraisthorpe","alternatenames":"","latitude":"54.0365100","longitude":"-0.2412700","fclass":"P","fcode":"PPL","country":"GB","cc2":"","admin1":"ENG","admin2":"E1","admin3":"00FB009","admin4":"","population":0,"elevation":0,"gtopo30":11,"timezone":"Europe/London","moddate":"2016-06-22T00:00:00.000Z"},{"geonameid":2649056,"name":"Fridaythorpe","asciiname":"Fridaythorpe","alternatenames":"","latitude":"54.0200900","longitude":"-0.6652900","fclass":"P","fcode":"PPL","country":"GB","cc2":"","admin1":"ENG","admin2":"E1","admin3":"00FB054","admin4":"","population":0,"elevation":0,"gtopo30":169,"timezone":"Europe/London","moddate":"2011-03-03T00:00:00.000Z"},{"geonameid":2648993,"name":"Full Sutton","asciiname":"Full Sutton","alternatenames":"Full Sutton","latitude":"53.9886900","longitude":"-0.8675800","fclass":"P","fcode":"PPL","country":"GB","cc2":"","admin1":"ENG","admin2":"E1","admin3":"00FB055","admin4":"","population":1072,"elevation":0,"gtopo30":19,"timezone":"Europe/London","moddate":"2017-06-12T00:00:00.000Z"},{"geonameid":2648807,"name":"Garton","asciiname":"Garton","alternatenames":"","latitude":"53.8003500","longitude":"-0.0829100","fclass":"P","fcode":"PPL","country":"GB","cc2":"","admin1":"ENG","admin2":"E1","admin3":"00FB040","admin4":"","population":0,"elevation":0,"gtopo30":14,"timezone":"Europe/London","moddate":"2016-06-22T00:00:00.000Z"},{"geonameid":2648806,"name":"Garton on the Wolds","asciiname":"Garton on the Wolds","alternatenames":"Garton,Garton on the Wolds","latitude":"54.0209800","longitude":"-0.5028000","fclass":"P","fcode":"PPL","country":"GB","cc2":"","admin1":"ENG","admin2":"E1","admin3":"00FB056","admin4":"","population":348,"elevation":0,"gtopo30":57,"timezone":"Europe/London","moddate":"2017-06-12T00:00:00.000Z"},{"geonameid":2648675,"name":"Gilberdyke","asciiname":"Gilberdyke","alternatenames":"","latitude":"53.7529700","longitude":"-0.7389200","fclass":"P","fcode":"PPL","country":"GB","cc2":"","admin1":"ENG","admin2":"E1","admin3":"00FB057","admin4":"","population":3430,"elevation":0,"gtopo30":4,"timezone":"Europe/London","moddate":"2017-06-12T00:00:00.000Z"},{"geonameid":2648331,"name":"Goodmanham","asciiname":"Goodmanham","alternatenames":"","latitude":"53.8740500","longitude":"-0.6513200","fclass":"P","fcode":"PPL","country":"GB","cc2":"","admin1":"ENG","admin2":"E1","admin3":"00FB058","admin4":"","population":244,"elevation":0,"gtopo30":46,"timezone":"Europe/London","moddate":"2017-06-12T00:00:00.000Z"},{"geonameid":2648319,"name":"Goole","asciiname":"Goole","alternatenames":"Gul,gwl  rydyng shrqy ywrkshr,jwwl,Гул,جوول,گول، ریدینگ شرقی یورکشر","latitude":"53.7032400","longitude":"-0.8773200","fclass":"P","fcode":"PPLA3","country":"GB","cc2":"","admin1":"ENG","admin2":"E1","admin3":"00FB059","admin4":"","population":20810,"elevation":0,"gtopo30":4,"timezone":"Europe/London","moddate":"2017-06-12T00:00:00.000Z"},{"geonameid":11593284,"name":"Gowdall","asciiname":"Gowdall","alternatenames":"","latitude":"53.6951600","longitude":"-1.0593200","fclass":"P","fcode":"PPL","country":"GB","cc2":"","admin1":"ENG","admin2":"E1","admin3":"00FB061","admin4":"","population":0,"elevation":0,"gtopo30":7,"timezone":"Europe/London","moddate":"2017-06-22T00:00:00.000Z"},{"geonameid":2648252,"name":"Goxhill","asciiname":"Goxhill","alternatenames":"Goxhill","latitude":"53.8833300","longitude":"-0.2000000","fclass":"P","fcode":"PPL","country":"GB","cc2":"","admin1":"ENG","admin2":"E1","admin3":"00FB065","admin4":"","population":0,"elevation":0,"gtopo30":15,"timezone":"Europe/London","moddate":"2016-06-22T00:00:00.000Z"},{"geonameid":2648130,"name":"Great Cowden","asciiname":"Great Cowden","alternatenames":"","latitude":"53.8655300","longitude":"-0.1347900","fclass":"P","fcode":"PPL","country":"GB","cc2":"","admin1":"ENG","admin2":"E1","admin3":"00FB092","admin4":"","population":0,"elevation":0,"gtopo30":20,"timezone":"Europe/London","moddate":"2011-03-03T00:00:00.000Z"},{"geonameid":2648099,"name":"Great Givendale","asciiname":"Great Givendale","alternatenames":"Great Givendale","latitude":"53.9666700","longitude":"-0.7666700","fclass":"P","fcode":"PPL","country":"GB","cc2":"","admin1":"ENG","admin2":"E1","admin3":"00FB096","admin4":"","population":0,"elevation":0,"gtopo30":104,"timezone":"Europe/London","moddate":"2016-06-22T00:00:00.000Z"},{"geonameid":2647870,"name":"Grindale","asciiname":"Grindale","alternatenames":"","latitude":"54.1245300","longitude":"-0.2736300","fclass":"P","fcode":"PPLA3","country":"GB","cc2":"","admin1":"ENG","admin2":"E1","admin3":"00FB062","admin4":"","population":0,"elevation":0,"gtopo30":55,"timezone":"Europe/London","moddate":"2011-07-31T00:00:00.000Z"},{"geonameid":2647606,"name":"Halsham","asciiname":"Halsham","alternatenames":"","latitude":"53.7298500","longitude":"-0.0745000","fclass":"P","fcode":"PPLA3","country":"GB","cc2":"","admin1":"ENG","admin2":"E1","admin3":"00FB063","admin4":"","population":0,"elevation":0,"gtopo30":3,"timezone":"Europe/London","moddate":"2011-07-31T00:00:00.000Z"},{"geonameid":2647448,"name":"Harpham","asciiname":"Harpham","alternatenames":"","latitude":"54.0390000","longitude":"-0.3268900","fclass":"P","fcode":"PPL","country":"GB","cc2":"","admin1":"ENG","admin2":"E1","admin3":"00FB064","admin4":"","population":0,"elevation":0,"gtopo30":11,"timezone":"Europe/London","moddate":"2014-12-30T00:00:00.000Z"},{"geonameid":2647418,"name":"Harswell","asciiname":"Harswell","alternatenames":"","latitude":"53.8577600","longitude":"-0.7457300","fclass":"P","fcode":"PPL","country":"GB","cc2":"","admin1":"ENG","admin2":"E1","admin3":"00FB048","admin4":"","population":0,"elevation":0,"gtopo30":9,"timezone":"Europe/London","moddate":"2011-03-03T00:00:00.000Z"},{"geonameid":2647250,"name":"Hayton","asciiname":"Hayton","alternatenames":"","latitude":"53.9000000","longitude":"-0.7500000","fclass":"P","fcode":"PPLA3","country":"GB","cc2":"","admin1":"ENG","admin2":"E1","admin3":"00FB066","admin4":"","population":193,"elevation":0,"gtopo30":20,"timezone":"Europe/London","moddate":"2017-06-12T00:00:00.000Z"},{"geonameid":2647191,"name":"Hedon","asciiname":"Hedon","alternatenames":"hdwn,هدون","latitude":"53.7396200","longitude":"-0.1965500","fclass":"P","fcode":"PPLA3","country":"GB","cc2":"","admin1":"ENG","admin2":"E1","admin3":"00FB067","admin4":"","population":10358,"elevation":0,"gtopo30":4,"timezone":"Europe/London","moddate":"2017-06-12T00:00:00.000Z"},{"geonameid":2647034,"name":"Hessle","asciiname":"Hessle","alternatenames":"hsl,هسل","latitude":"53.7245400","longitude":"-0.4384200","fclass":"P","fcode":"PPLA3","country":"GB","cc2":"","admin1":"ENG","admin2":"E1","admin3":"00FB068","admin4":"","population":0,"elevation":0,"gtopo30":11,"timezone":"Europe/London","moddate":"2011-07-31T00:00:00.000Z"},{"geonameid":2646973,"name":"High Catton","asciiname":"High Catton","alternatenames":"","latitude":"53.9735100","longitude":"-0.9077500","fclass":"P","fcode":"PPL","country":"GB","cc2":"","admin1":"ENG","admin2":"E1","admin3":"00FB031","admin4":"","population":0,"elevation":0,"gtopo30":21,"timezone":"Europe/London","moddate":"2016-06-22T00:00:00.000Z"},{"geonameid":6947734,"name":"High Hunsley","asciiname":"High Hunsley","alternatenames":"","latitude":"53.8040500","longitude":"-0.5521900","fclass":"P","fcode":"PPL","country":"GB","cc2":"","admin1":"ENG","admin2":"E1","admin3":"00FB120","admin4":"","population":0,"elevation":0,"gtopo30":152,"timezone":"Europe/London","moddate":"2016-06-22T00:00:00.000Z"},{"geonameid":2646962,"name":"Highfield","asciiname":"Highfield","alternatenames":"","latitude":"53.8178800","longitude":"-0.9011400","fclass":"P","fcode":"PPL","country":"GB","cc2":"","admin1":"ENG","admin2":"E1","admin3":"00FB023","admin4":"","population":0,"elevation":0,"gtopo30":7,"timezone":"Europe/London","moddate":"2019-10-02T00:00:00.000Z"},{"geonameid":2646877,"name":"Hilston","asciiname":"Hilston","alternatenames":"","latitude":"53.7824000","longitude":"-0.0521900","fclass":"P","fcode":"PPL","country":"GB","cc2":"","admin1":"ENG","admin2":"E1","admin3":"00FB118","admin4":"","population":0,"elevation":0,"gtopo30":16,"timezone":"Europe/London","moddate":"2016-06-22T00:00:00.000Z"},{"geonameid":2646736,"name":"Hollym","asciiname":"Hollym","alternatenames":"","latitude":"53.7040200","longitude":"0.0400800","fclass":"P","fcode":"PPLA3","country":"GB","cc2":"","admin1":"ENG","admin2":"E1","admin3":"00FB069","admin4":"","population":339,"elevation":0,"gtopo30":9,"timezone":"Europe/London","moddate":"2017-06-12T00:00:00.000Z"},{"geonameid":2646718,"name":"Holme upon Spalding Moor","asciiname":"Holme upon Spalding Moor","alternatenames":"Holme,Holme upon Spalding Moor","latitude":"53.8357300","longitude":"-0.7773600","fclass":"P","fcode":"PPL","country":"GB","cc2":"","admin1":"ENG","admin2":"E1","admin3":"00FB070","admin4":"","population":0,"elevation":0,"gtopo30":9,"timezone":"Europe/London","moddate":"2011-03-03T00:00:00.000Z"},{"geonameid":2646712,"name":"Holmpton","asciiname":"Holmpton","alternatenames":"","latitude":"53.6877100","longitude":"0.0658300","fclass":"P","fcode":"PPLA3","country":"GB","cc2":"","admin1":"ENG","admin2":"E1","admin3":"00FB071","admin4":"","population":0,"elevation":0,"gtopo30":22,"timezone":"Europe/London","moddate":"2011-07-31T00:00:00.000Z"},{"geonameid":2646652,"name":"Hook","asciiname":"Hook","alternatenames":"","latitude":"53.7213200","longitude":"-0.8489100","fclass":"P","fcode":"PPLA3","country":"GB","cc2":"","admin1":"ENG","admin2":"E1","admin3":"00FB072","admin4":"","population":0,"elevation":0,"gtopo30":5,"timezone":"Europe/London","moddate":"2015-07-11T00:00:00.000Z"},{"geonameid":2646583,"name":"Hornsea","asciiname":"Hornsea","alternatenames":"hwrnsy  rydyng shrqy ywrkshr,هورنسی، ریدینگ شرقی یورکشر","latitude":"53.9104100","longitude":"-0.1680600","fclass":"P","fcode":"PPLA3","country":"GB","cc2":"","admin1":"ENG","admin2":"E1","admin3":"00FB073","admin4":"","population":8432,"elevation":0,"gtopo30":7,"timezone":"Europe/London","moddate":"2017-06-12T00:00:00.000Z"},{"geonameid":2646537,"name":"Hotham","asciiname":"Hotham","alternatenames":"","latitude":"53.7958300","longitude":"-0.6425300","fclass":"P","fcode":"PPLA3","country":"GB","cc2":"","admin1":"ENG","admin2":"E1","admin3":"00FB074","admin4":"","population":233,"elevation":0,"gtopo30":31,"timezone":"Europe/London","moddate":"2017-06-12T00:00:00.000Z"},{"geonameid":2646499,"name":"Howden","asciiname":"Howden","alternatenames":"hwdn,هودن","latitude":"53.7463000","longitude":"-0.8699400","fclass":"P","fcode":"PPLA3","country":"GB","cc2":"","admin1":"ENG","admin2":"E1","admin3":"00FB075","admin4":"","population":4142,"elevation":0,"gtopo30":6,"timezone":"Europe/London","moddate":"2017-06-12T00:00:00.000Z"},{"geonameid":10376006,"name":"Howden Dyke","asciiname":"Howden Dyke","alternatenames":"","latitude":"53.7338900","longitude":"-0.8532900","fclass":"P","fcode":"PPL","country":"GB","cc2":"","admin1":"ENG","admin2":"E1","admin3":"00FB082","admin4":"","population":0,"elevation":0,"gtopo30":4,"timezone":"Europe/London","moddate":"2015-07-11T00:00:00.000Z"},{"geonameid":2646456,"name":"Huggate","asciiname":"Huggate","alternatenames":"","latitude":"53.9855400","longitude":"-0.6567300","fclass":"P","fcode":"PPL","country":"GB","cc2":"","admin1":"ENG","admin2":"E1","admin3":"00FB076","admin4":"","population":342,"elevation":0,"gtopo30":158,"timezone":"Europe/London","moddate":"2017-06-12T00:00:00.000Z"},{"geonameid":2646431,"name":"Humbleton","asciiname":"Humbleton","alternatenames":"","latitude":"53.7833300","longitude":"-0.1500000","fclass":"P","fcode":"PPLA3","country":"GB","cc2":"","admin1":"ENG","admin2":"E1","admin3":"00FB077","admin4":"","population":0,"elevation":0,"gtopo30":12,"timezone":"Europe/London","moddate":"2011-07-31T00:00:00.000Z"},{"geonameid":2646339,"name":"Hutton","asciiname":"Hutton","alternatenames":"Hutton","latitude":"53.9666700","longitude":"-0.4333300","fclass":"P","fcode":"PPL","country":"GB","cc2":"","admin1":"ENG","admin2":"E1","admin3":"00FB078","admin4":"","population":560,"elevation":0,"gtopo30":13,"timezone":"Europe/London","moddate":"2018-12-04T00:00:00.000Z"},{"geonameid":9884060,"name":"Kelleythorpe","asciiname":"Kelleythorpe","alternatenames":"","latitude":"53.9945300","longitude":"-0.4603100","fclass":"P","fcode":"PPL","country":"GB","cc2":"","admin1":"ENG","admin2":"E1","admin3":"00FB084","admin4":"","population":0,"elevation":0,"gtopo30":20,"timezone":"Europe/London","moddate":"2015-01-01T00:00:00.000Z"},{"geonameid":2645734,"name":"Keyingham","asciiname":"Keyingham","alternatenames":"","latitude":"53.7096100","longitude":"-0.1132500","fclass":"P","fcode":"PPLA3","country":"GB","cc2":"","admin1":"ENG","admin2":"E1","admin3":"00FB080","admin4":"","population":2314,"elevation":0,"gtopo30":12,"timezone":"Europe/London","moddate":"2017-06-12T00:00:00.000Z"},{"geonameid":2645662,"name":"Kilham","asciiname":"Kilham","alternatenames":"","latitude":"54.0641300","longitude":"-0.3805700","fclass":"P","fcode":"PPLA3","country":"GB","cc2":"","admin1":"ENG","admin2":"E1","admin3":"00FB081","admin4":"","population":960,"elevation":0,"gtopo30":28,"timezone":"Europe/London","moddate":"2017-06-13T00:00:00.000Z"},{"geonameid":2645566,"name":"Kilnsea","asciiname":"Kilnsea","alternatenames":"","latitude":"53.6204100","longitude":"0.1392200","fclass":"P","fcode":"PPL","country":"GB","cc2":"","admin1":"ENG","admin2":"E1","admin3":"00FB039","admin4":"","population":0,"elevation":0,"gtopo30":4,"timezone":"Europe/London","moddate":"2016-06-22T00:00:00.000Z"},{"geonameid":2645564,"name":"Kilnwick","asciiname":"Kilnwick","alternatenames":"","latitude":"53.9325600","longitude":"-0.4809500","fclass":"P","fcode":"PPL","country":"GB","cc2":"","admin1":"ENG","admin2":"E1","admin3":"00FB013","admin4":"","population":0,"elevation":0,"gtopo30":17,"timezone":"Europe/London","moddate":"2011-03-03T00:00:00.000Z"},{"geonameid":2645558,"name":"Kilpin","asciiname":"Kilpin","alternatenames":"","latitude":"53.7328000","longitude":"-0.8339700","fclass":"P","fcode":"PPLA3","country":"GB","cc2":"","admin1":"ENG","admin2":"E1","admin3":"00FB082","admin4":"","population":0,"elevation":0,"gtopo30":3,"timezone":"Europe/London","moddate":"2015-07-11T00:00:00.000Z"},{"geonameid":10376007,"name":"Kilpin Pike","asciiname":"Kilpin Pike","alternatenames":"","latitude":"53.7308200","longitude":"-0.8469300","fclass":"P","fcode":"PPL","country":"GB","cc2":"","admin1":"ENG","admin2":"E1","admin3":"00FB082","admin4":"","population":0,"elevation":0,"gtopo30":5,"timezone":"Europe/London","moddate":"2015-07-11T00:00:00.000Z"},{"geonameid":2645333,"name":"Kirby Underdale","asciiname":"Kirby Underdale","alternatenames":"Kirby Underdale,Kirkby Underdale","latitude":"54.0171500","longitude":"-0.7710200","fclass":"P","fcode":"PPLA3","country":"GB","cc2":"","admin1":"ENG","admin2":"E1","admin3":"00FB083","admin4":"","population":0,"elevation":0,"gtopo30":110,"timezone":"Europe/London","moddate":"2015-02-18T00:00:00.000Z"},{"geonameid":2645283,"name":"Kirk Ella","asciiname":"Kirk Ella","alternatenames":"","latitude":"53.7539900","longitude":"-0.4549000","fclass":"P","fcode":"PPLA3","country":"GB","cc2":"","admin1":"ENG","admin2":"E1","admin3":"00FB170","admin4":"","population":0,"elevation":0,"gtopo30":41,"timezone":"Europe/London","moddate":"2011-07-31T00:00:00.000Z"},{"geonameid":2645316,"name":"Kirkburn","asciiname":"Kirkburn","alternatenames":"","latitude":"53.9833500","longitude":"-0.5039700","fclass":"P","fcode":"PPL","country":"GB","cc2":"","admin1":"ENG","admin2":"E1","admin3":"00FB084","admin4":"","population":0,"elevation":0,"gtopo30":23,"timezone":"Europe/London","moddate":"2011-03-03T00:00:00.000Z"},{"geonameid":2645160,"name":"Knedlington","asciiname":"Knedlington","alternatenames":"","latitude":"53.7427200","longitude":"-0.8849100","fclass":"P","fcode":"PPL","country":"GB","cc2":"","admin1":"ENG","admin2":"E1","admin3":"00FB004","admin4":"","population":0,"elevation":0,"gtopo30":6,"timezone":"Europe/London","moddate":"2011-03-03T00:00:00.000Z"},{"geonameid":11592753,"name":"Langtoft","asciiname":"Langtoft","alternatenames":"","latitude":"54.0874100","longitude":"-0.4567500","fclass":"P","fcode":"PPL","country":"GB","cc2":"","admin1":"ENG","admin2":"E1","admin3":"00FB085","admin4":"","population":0,"elevation":0,"gtopo30":65,"timezone":"Europe/London","moddate":"2017-06-19T00:00:00.000Z"},{"geonameid":2644773,"name":"Laxton","asciiname":"Laxton","alternatenames":"","latitude":"53.7200500","longitude":"-0.8032900","fclass":"P","fcode":"PPLA3","country":"GB","cc2":"","admin1":"ENG","admin2":"E1","admin3":"00FB086","admin4":"","population":0,"elevation":0,"gtopo30":6,"timezone":"Europe/London","moddate":"2015-07-11T00:00:00.000Z"},{"geonameid":2644710,"name":"Leconfield","asciiname":"Leconfield","alternatenames":"Leckonfield,Leconfield","latitude":"53.8773000","longitude":"-0.4572900","fclass":"P","fcode":"PPL","country":"GB","cc2":"","admin1":"ENG","admin2":"E1","admin3":"00FB087","admin4":"","population":2127,"elevation":0,"gtopo30":12,"timezone":"Europe/London","moddate":"2017-06-12T00:00:00.000Z"},{"geonameid":2644578,"name":"Leven","asciiname":"Leven","alternatenames":"","latitude":"53.8902800","longitude":"-0.3178300","fclass":"P","fcode":"PPLA3","country":"GB","cc2":"","admin1":"ENG","admin2":"E1","admin3":"00FB088","admin4":"","population":2433,"elevation":0,"gtopo30":6,"timezone":"Europe/London","moddate":"2017-06-12T00:00:00.000Z"},{"geonameid":2644396,"name":"Lissett","asciiname":"Lissett","alternatenames":"","latitude":"54.0053000","longitude":"-0.2515700","fclass":"P","fcode":"PPL","country":"GB","cc2":"","admin1":"ENG","admin2":"E1","admin3":"00FB151","admin4":"","population":0,"elevation":0,"gtopo30":2,"timezone":"Europe/London","moddate":"2016-06-22T00:00:00.000Z"},{"geonameid":2644336,"name":"Little Driffield","asciiname":"Little Driffield","alternatenames":"Emswell with Little Driffield,Little Driffield","latitude":"54.0022500","longitude":"-0.4661000","fclass":"P","fcode":"PPL","country":"GB","cc2":"","admin1":"ENG","admin2":"E1","admin3":"00FB056","admin4":"","population":0,"elevation":0,"gtopo30":20,"timezone":"Europe/London","moddate":"2015-01-01T00:00:00.000Z"},{"geonameid":2644224,"name":"Little Weighton","asciiname":"Little Weighton","alternatenames":"","latitude":"53.7902100","longitude":"-0.5067900","fclass":"P","fcode":"PPL","country":"GB","cc2":"","admin1":"ENG","admin2":"E1","admin3":"00FB120","admin4":"","population":1015,"elevation":0,"gtopo30":83,"timezone":"Europe/London","moddate":"2017-06-12T00:00:00.000Z"},{"geonameid":2643788,"name":"Lockington","asciiname":"Lockington","alternatenames":"","latitude":"53.9141500","longitude":"-0.4857200","fclass":"P","fcode":"PPLA3","country":"GB","cc2":"","admin1":"ENG","admin2":"E1","admin3":"00FB089","admin4":"","population":374,"elevation":0,"gtopo30":16,"timezone":"Europe/London","moddate":"2017-06-12T00:00:00.000Z"},{"geonameid":2643745,"name":"Londesborough","asciiname":"Londesborough","alternatenames":"","latitude":"53.8833300","longitude":"-0.6833300","fclass":"P","fcode":"PPLA3","country":"GB","cc2":"","admin1":"ENG","admin2":"E1","admin3":"00FB090","admin4":"","population":0,"elevation":0,"gtopo30":34,"timezone":"Europe/London","moddate":"2011-07-31T00:00:00.000Z"},{"geonameid":2643643,"name":"Long Riston","asciiname":"Long Riston","alternatenames":"Long Riston","latitude":"53.8650000","longitude":"-0.2889500","fclass":"P","fcode":"PPL","country":"GB","cc2":"","admin1":"ENG","admin2":"E1","admin3":"00FB117","admin4":"","population":979,"elevation":0,"gtopo30":14,"timezone":"Europe/London","moddate":"2017-06-12T00:00:00.000Z"},{"geonameid":2643544,"name":"Low Catton","asciiname":"Low Catton","alternatenames":"Catton,Low Catton","latitude":"53.9743900","longitude":"-0.9262700","fclass":"P","fcode":"PPL","country":"GB","cc2":"","admin1":"ENG","admin2":"E1","admin3":"00FB031","admin4":"","population":0,"elevation":0,"gtopo30":16,"timezone":"Europe/London","moddate":"2011-03-03T00:00:00.000Z"},{"geonameid":2643471,"name":"Lowthorpe","asciiname":"Lowthorpe","alternatenames":"","latitude":"54.0282700","longitude":"-0.3496300","fclass":"P","fcode":"PPL","country":"GB","cc2":"","admin1":"ENG","admin2":"E1","admin3":"00FB064","admin4":"","population":0,"elevation":0,"gtopo30":12,"timezone":"Europe/London","moddate":"2014-12-30T00:00:00.000Z"},{"geonameid":2643390,"name":"Lund","asciiname":"Lund","alternatenames":"","latitude":"53.9192000","longitude":"-0.5221100","fclass":"P","fcode":"PPLA3","country":"GB","cc2":"","admin1":"ENG","admin2":"E1","admin3":"00FB091","admin4":"","population":308,"elevation":0,"gtopo30":38,"timezone":"Europe/London","moddate":"2017-06-12T00:00:00.000Z"},{"geonameid":2643079,"name":"Mappleton","asciiname":"Mappleton","alternatenames":"Mapleton,Mappleton","latitude":"53.8768700","longitude":"-0.1366400","fclass":"P","fcode":"PPLA3","country":"GB","cc2":"","admin1":"ENG","admin2":"E1","admin3":"00FB092","admin4":"","population":0,"elevation":0,"gtopo30":19,"timezone":"Europe/London","moddate":"2011-07-31T00:00:00.000Z"},{"geonameid":2643021,"name":"Market Weighton","asciiname":"Market Weighton","alternatenames":"markt wytwn,مارکت ویتون","latitude":"53.8631000","longitude":"-0.6650500","fclass":"P","fcode":"PPL","country":"GB","cc2":"","admin1":"ENG","admin2":"E1","admin3":"00FB093","admin4":"","population":6429,"elevation":0,"gtopo30":26,"timezone":"Europe/London","moddate":"2017-06-12T00:00:00.000Z"},{"geonameid":2642842,"name":"Meaux","asciiname":"Meaux","alternatenames":"Meaux,Melsa","latitude":"53.8406000","longitude":"-0.3386900","fclass":"P","fcode":"PPL","country":"GB","cc2":"","admin1":"ENG","admin2":"E1","admin3":"00FB155","admin4":"","population":0,"elevation":0,"gtopo30":6,"timezone":"Europe/London","moddate":"2011-03-03T00:00:00.000Z"},{"geonameid":2642800,"name":"Melbourne","asciiname":"Melbourne","alternatenames":"","latitude":"53.8875500","longitude":"-0.8592500","fclass":"P","fcode":"PPLA3","country":"GB","cc2":"","admin1":"ENG","admin2":"E1","admin3":"00FB094","admin4":"","population":793,"elevation":0,"gtopo30":10,"timezone":"Europe/London","moddate":"2017-06-12T00:00:00.000Z"},{"geonameid":2642581,"name":"Middleton on the Wolds","asciiname":"Middleton on the Wolds","alternatenames":"","latitude":"53.9334900","longitude":"-0.5609000","fclass":"P","fcode":"PPL","country":"GB","cc2":"","admin1":"ENG","admin2":"E1","admin3":"00FB095","admin4":"","population":825,"elevation":0,"gtopo30":42,"timezone":"Europe/London","moddate":"2017-06-12T00:00:00.000Z"},{"geonameid":2642512,"name":"Millington","asciiname":"Millington","alternatenames":"","latitude":"53.9500000","longitude":"-0.7333300","fclass":"P","fcode":"PPLA3","country":"GB","cc2":"","admin1":"ENG","admin2":"E1","admin3":"00FB096","admin4":"","population":0,"elevation":0,"gtopo30":91,"timezone":"Europe/London","moddate":"2011-07-31T00:00:00.000Z"},{"geonameid":2641915,"name":"Nafferton","asciiname":"Nafferton","alternatenames":"","latitude":"54.0196500","longitude":"-0.3919000","fclass":"P","fcode":"PPLA3","country":"GB","cc2":"","admin1":"ENG","admin2":"E1","admin3":"00FB098","admin4":"","population":2433,"elevation":0,"gtopo30":25,"timezone":"Europe/London","moddate":"2017-06-12T00:00:00.000Z"},{"geonameid":2641594,"name":"Newport","asciiname":"Newport","alternatenames":"","latitude":"53.7633300","longitude":"-0.6998600","fclass":"P","fcode":"PPLA3","country":"GB","cc2":"","admin1":"ENG","admin2":"E1","admin3":"00FB100","admin4":"","population":1580,"elevation":0,"gtopo30":3,"timezone":"Europe/London","moddate":"2017-06-12T00:00:00.000Z"},{"geonameid":2641410,"name":"North Burton","asciiname":"North Burton","alternatenames":"Burton Fleming,North Burton","latitude":"54.1355900","longitude":"-0.3409200","fclass":"P","fcode":"PPL","country":"GB","cc2":"","admin1":"ENG","admin2":"E1","admin3":"00FB028","admin4":"","population":430,"elevation":0,"gtopo30":43,"timezone":"Europe/London","moddate":"2017-06-12T00:00:00.000Z"},{"geonameid":2641404,"name":"North Cave","asciiname":"North Cave","alternatenames":"","latitude":"53.7801200","longitude":"-0.6496500","fclass":"P","fcode":"PPLA3","country":"GB","cc2":"","admin1":"ENG","admin2":"E1","admin3":"00FB102","admin4":"","population":1348,"elevation":0,"gtopo30":16,"timezone":"Europe/London","moddate":"2017-06-12T00:00:00.000Z"},{"geonameid":2641393,"name":"North Cliffe","asciiname":"North Cliffe","alternatenames":"","latitude":"53.8166700","longitude":"-0.6666700","fclass":"P","fcode":"PPL","country":"GB","cc2":"","admin1":"ENG","admin2":"E1","admin3":"00FB136","admin4":"","population":0,"elevation":0,"gtopo30":50,"timezone":"Europe/London","moddate":"2017-07-21T00:00:00.000Z"},{"geonameid":2641378,"name":"North Dalton","asciiname":"North Dalton","alternatenames":"","latitude":"53.9572300","longitude":"-0.5758600","fclass":"P","fcode":"PPL","country":"GB","cc2":"","admin1":"ENG","admin2":"E1","admin3":"00FB103","admin4":"","population":302,"elevation":0,"gtopo30":57,"timezone":"Europe/London","moddate":"2017-06-12T00:00:00.000Z"},{"geonameid":2641356,"name":"North Ferriby","asciiname":"North Ferriby","alternatenames":"Ferriby,North Ferriby","latitude":"53.7212400","longitude":"-0.5052000","fclass":"P","fcode":"PPLA3","country":"GB","cc2":"","admin1":"ENG","admin2":"E1","admin3":"00FB104","admin4":"","population":7416,"elevation":0,"gtopo30":20,"timezone":"Europe/London","moddate":"2011-07-31T00:00:00.000Z"},{"geonameid":11593351,"name":"North Frodingham","asciiname":"North Frodingham","alternatenames":"","latitude":"53.9625700","longitude":"-0.3235400","fclass":"P","fcode":"PPL","country":"GB","cc2":"","admin1":"ENG","admin2":"E1","admin3":"00FB105","admin4":"","population":0,"elevation":0,"gtopo30":12,"timezone":"Europe/London","moddate":"2017-06-22T00:00:00.000Z"},{"geonameid":2641352,"name":"North Frodingham","asciiname":"North Frodingham","alternatenames":"","latitude":"53.9666700","longitude":"-0.4833300","fclass":"P","fcode":"PPL","country":"GB","cc2":"","admin1":"ENG","admin2":"E1","admin3":"00FB084","admin4":"","population":0,"elevation":0,"gtopo30":21,"timezone":"Europe/London","moddate":"2016-06-22T00:00:00.000Z"},{"geonameid":2641294,"name":"North Newbald","asciiname":"North Newbald","alternatenames":"North Newbald","latitude":"53.8166700","longitude":"-0.6166700","fclass":"P","fcode":"PPL","country":"GB","cc2":"","admin1":"ENG","admin2":"E1","admin3":"00FB099","admin4":"","population":1115,"elevation":0,"gtopo30":45,"timezone":"Europe/London","moddate":"2017-06-12T00:00:00.000Z"},{"geonameid":2641158,"name":"Nunburnholme","asciiname":"Nunburnholme","alternatenames":"","latitude":"53.9216400","longitude":"-0.7082600","fclass":"P","fcode":"PPL","country":"GB","cc2":"","admin1":"ENG","admin2":"E1","admin3":"00FB106","admin4":"","population":0,"elevation":0,"gtopo30":41,"timezone":"Europe/London","moddate":"2011-03-03T00:00:00.000Z"},{"geonameid":2640833,"name":"Ottringham","asciiname":"Ottringham","alternatenames":"","latitude":"53.7009200","longitude":"-0.0790900","fclass":"P","fcode":"PPLA3","country":"GB","cc2":"","admin1":"ENG","admin2":"E1","admin3":"00FB107","admin4":"","population":597,"elevation":0,"gtopo30":6,"timezone":"Europe/London","moddate":"2017-06-12T00:00:00.000Z"},{"geonameid":2640815,"name":"Ousefleet","asciiname":"Ousefleet","alternatenames":"","latitude":"53.6981700","longitude":"-0.7408600","fclass":"P","fcode":"PPL","country":"GB","cc2":"","admin1":"ENG","admin2":"E1","admin3":"00FB150","admin4":"","population":0,"elevation":0,"gtopo30":4,"timezone":"Europe/London","moddate":"2011-03-03T00:00:00.000Z"},{"geonameid":2640786,"name":"Out Newton","asciiname":"Out Newton","alternatenames":"","latitude":"53.6756600","longitude":"0.0905500","fclass":"P","fcode":"PPL","country":"GB","cc2":"","admin1":"ENG","admin2":"E1","admin3":"00FB039","admin4":"","population":0,"elevation":0,"gtopo30":20,"timezone":"Europe/London","moddate":"2016-06-22T00:00:00.000Z"},{"geonameid":2640571,"name":"Patrington","asciiname":"Patrington","alternatenames":"","latitude":"53.6839500","longitude":"-0.0133000","fclass":"P","fcode":"PPLA3","country":"GB","cc2":"","admin1":"ENG","admin2":"E1","admin3":"00FB108","admin4":"","population":1501,"elevation":0,"gtopo30":14,"timezone":"Europe/London","moddate":"2017-06-12T00:00:00.000Z"},{"geonameid":2640561,"name":"Paull","asciiname":"Paull","alternatenames":"","latitude":"53.7200800","longitude":"-0.2330300","fclass":"P","fcode":"PPLA3","country":"GB","cc2":"","admin1":"ENG","admin2":"E1","admin3":"00FB109","admin4":"","population":0,"elevation":0,"gtopo30":2,"timezone":"Europe/London","moddate":"2011-07-31T00:00:00.000Z"},{"geonameid":2640185,"name":"Pocklington","asciiname":"Pocklington","alternatenames":"pwklyngtwn,پوکلینگتون","latitude":"53.9333500","longitude":"-0.7810600","fclass":"P","fcode":"PPLA3","country":"GB","cc2":"","admin1":"ENG","admin2":"E1","admin3":"00FB110","admin4":"","population":8337,"elevation":0,"gtopo30":37,"timezone":"Europe/London","moddate":"2017-06-12T00:00:00.000Z"},{"geonameid":2640166,"name":"Pollington","asciiname":"Pollington","alternatenames":"","latitude":"53.6709300","longitude":"-1.0723700","fclass":"P","fcode":"PPLA3","country":"GB","cc2":"","admin1":"ENG","admin2":"E1","admin3":"00FB111","admin4":"","population":834,"elevation":0,"gtopo30":8,"timezone":"Europe/London","moddate":"2017-06-12T00:00:00.000Z"},{"geonameid":2639913,"name":"Preston","asciiname":"Preston","alternatenames":"","latitude":"53.7566300","longitude":"-0.1977500","fclass":"P","fcode":"PPLA3","country":"GB","cc2":"","admin1":"ENG","admin2":"E1","admin3":"00FB112","admin4":"","population":0,"elevation":0,"gtopo30":9,"timezone":"Europe/London","moddate":"2011-07-31T00:00:00.000Z"},{"geonameid":2639590,"name":"Rawcliffe","asciiname":"Rawcliffe","alternatenames":"","latitude":"53.6977700","longitude":"-0.9631900","fclass":"P","fcode":"PPLA3","country":"GB","cc2":"","admin1":"ENG","admin2":"E1","admin3":"00FB113","admin4":"","population":1542,"elevation":0,"gtopo30":7,"timezone":"Europe/London","moddate":"2017-06-13T00:00:00.000Z"},{"geonameid":2639518,"name":"Reedness","asciiname":"Reedness","alternatenames":"","latitude":"53.6992500","longitude":"-0.7986000","fclass":"P","fcode":"PPL","country":"GB","cc2":"","admin1":"ENG","admin2":"E1","admin3":"00FB114","admin4":"","population":339,"elevation":0,"gtopo30":5,"timezone":"Europe/London","moddate":"2017-06-12T00:00:00.000Z"},{"geonameid":2639350,"name":"Rimswell","asciiname":"Rimswell","alternatenames":"","latitude":"53.7407900","longitude":"-0.0174200","fclass":"P","fcode":"PPLA3","country":"GB","cc2":"","admin1":"ENG","admin2":"E1","admin3":"00FB115","admin4":"","population":0,"elevation":0,"gtopo30":12,"timezone":"Europe/London","moddate":"2011-07-31T00:00:00.000Z"},{"geonameid":2639316,"name":"Rise","asciiname":"Rise","alternatenames":"","latitude":"53.8630200","longitude":"-0.2463100","fclass":"P","fcode":"PPL","country":"GB","cc2":"","admin1":"ENG","admin2":"E1","admin3":"00FB116","admin4":"","population":0,"elevation":0,"gtopo30":23,"timezone":"Europe/London","moddate":"2011-03-03T00:00:00.000Z"},{"geonameid":2639166,"name":"Roos","asciiname":"Roos","alternatenames":"","latitude":"53.7529200","longitude":"-0.0446300","fclass":"P","fcode":"PPLA3","country":"GB","cc2":"","admin1":"ENG","admin2":"E1","admin3":"00FB118","admin4":"","population":846,"elevation":0,"gtopo30":15,"timezone":"Europe/London","moddate":"2017-06-12T00:00:00.000Z"},{"geonameid":2639071,"name":"Rotsea","asciiname":"Rotsea","alternatenames":"","latitude":"53.9512100","longitude":"-0.3783400","fclass":"P","fcode":"PPL","country":"GB","cc2":"","admin1":"ENG","admin2":"E1","admin3":"00FB078","admin4":"","population":0,"elevation":0,"gtopo30":6,"timezone":"Europe/London","moddate":"2011-03-03T00:00:00.000Z"},{"geonameid":2639052,"name":"Routh","asciiname":"Routh","alternatenames":"","latitude":"53.8696500","longitude":"-0.3437700","fclass":"P","fcode":"PPL","country":"GB","cc2":"","admin1":"ENG","admin2":"E1","admin3":"00FB119","admin4":"","population":0,"elevation":0,"gtopo30":5,"timezone":"Europe/London","moddate":"2011-03-03T00:00:00.000Z"},{"geonameid":2638986,"name":"Rudston","asciiname":"Rudston","alternatenames":"","latitude":"54.0908900","longitude":"-0.3281700","fclass":"P","fcode":"PPL","country":"GB","cc2":"","admin1":"ENG","admin2":"E1","admin3":"00FB121","admin4":"","population":409,"elevation":0,"gtopo30":30,"timezone":"Europe/London","moddate":"2017-06-12T00:00:00.000Z"},{"geonameid":2638929,"name":"Ruston Parva","asciiname":"Ruston Parva","alternatenames":"","latitude":"54.0436900","longitude":"-0.3778300","fclass":"P","fcode":"PPL","country":"GB","cc2":"","admin1":"ENG","admin2":"E1","admin3":"00FB064","admin4":"","population":0,"elevation":0,"gtopo30":30,"timezone":"Europe/London","moddate":"2014-12-30T00:00:00.000Z"},{"geonameid":2638900,"name":"Ryehill","asciiname":"Ryehill","alternatenames":"","latitude":"53.7166700","longitude":"-0.1500000","fclass":"P","fcode":"PPL","country":"GB","cc2":"","admin1":"ENG","admin2":"E1","admin3":"00FB145","admin4":"","population":0,"elevation":0,"gtopo30":3,"timezone":"Europe/London","moddate":"2017-07-21T00:00:00.000Z"},{"geonameid":2638634,"name":"Saltmarshe","asciiname":"Saltmarshe","alternatenames":"Saltmarsh,Saltmarshe","latitude":"53.7078600","longitude":"-0.8117400","fclass":"P","fcode":"PPL","country":"GB","cc2":"","admin1":"ENG","admin2":"E1","admin3":"00FB086","admin4":"","population":0,"elevation":0,"gtopo30":9,"timezone":"Europe/London","moddate":"2015-07-11T00:00:00.000Z"},{"geonameid":2638612,"name":"Sancton","asciiname":"Sancton","alternatenames":"","latitude":"53.8417300","longitude":"-0.6325200","fclass":"P","fcode":"PPL","country":"GB","cc2":"","admin1":"ENG","admin2":"E1","admin3":"00FB122","admin4":"","population":286,"elevation":0,"gtopo30":51,"timezone":"Europe/London","moddate":"2017-06-12T00:00:00.000Z"},{"geonameid":10376004,"name":"Sandhall","asciiname":"Sandhall","alternatenames":"","latitude":"53.7037700","longitude":"-0.8504500","fclass":"P","fcode":"PPLX","country":"GB","cc2":"","admin1":"ENG","admin2":"E1","admin3":"00FB082","admin4":"","population":0,"elevation":0,"gtopo30":6,"timezone":"Europe/London","moddate":"2015-07-11T00:00:00.000Z"},{"geonameid":2638582,"name":"Sandholme","asciiname":"Sandholme","alternatenames":"","latitude":"53.7662200","longitude":"-0.7455300","fclass":"P","fcode":"PPL","country":"GB","cc2":"","admin1":"ENG","admin2":"E1","admin3":"00FB057","admin4":"","population":0,"elevation":0,"gtopo30":5,"timezone":"Europe/London","moddate":"2016-06-22T00:00:00.000Z"},{"geonameid":2638448,"name":"Scalby","asciiname":"Scalby","alternatenames":"Scalby","latitude":"53.7666700","longitude":"-0.7166700","fclass":"P","fcode":"PPL","country":"GB","cc2":"","admin1":"ENG","admin2":"E1","admin3":"00FB100","admin4":"","population":9462,"elevation":0,"gtopo30":6,"timezone":"Europe/London","moddate":"2016-06-22T00:00:00.000Z"},{"geonameid":2638370,"name":"Scorborough","asciiname":"Scorborough","alternatenames":"Scorborough,Scorbrough","latitude":"53.8954500","longitude":"-0.4596000","fclass":"P","fcode":"PPL","country":"GB","cc2":"","admin1":"ENG","admin2":"E1","admin3":"00FB087","admin4":"","population":0,"elevation":0,"gtopo30":11,"timezone":"Europe/London","moddate":"2011-03-03T00:00:00.000Z"},{"geonameid":2638269,"name":"Seaton Ross","asciiname":"Seaton Ross","alternatenames":"","latitude":"53.8612400","longitude":"-0.8130200","fclass":"P","fcode":"PPL","country":"GB","cc2":"","admin1":"ENG","admin2":"E1","admin3":"00FB124","admin4":"","population":565,"elevation":0,"gtopo30":8,"timezone":"Europe/London","moddate":"2017-06-12T00:00:00.000Z"},{"geonameid":2637951,"name":"Shiptonthorpe","asciiname":"Shiptonthorpe","alternatenames":"","latitude":"53.8792800","longitude":"-0.7060900","fclass":"P","fcode":"PPL","country":"GB","cc2":"","admin1":"ENG","admin2":"E1","admin3":"00FB125","admin4":"","population":503,"elevation":0,"gtopo30":24,"timezone":"Europe/London","moddate":"2017-06-12T00:00:00.000Z"},{"geonameid":2637850,"name":"Sigglesthorne","asciiname":"Sigglesthorne","alternatenames":"","latitude":"53.8983300","longitude":"-0.2437800","fclass":"P","fcode":"PPL","country":"GB","cc2":"","admin1":"ENG","admin2":"E1","admin3":"00FB126","admin4":"","population":0,"elevation":0,"gtopo30":11,"timezone":"Europe/London","moddate":"2011-03-03T00:00:00.000Z"},{"geonameid":2637766,"name":"Skeffling","asciiname":"Skeffling","alternatenames":"Skeffling","latitude":"53.6535800","longitude":"0.0738400","fclass":"P","fcode":"PPL","country":"GB","cc2":"","admin1":"ENG","admin2":"E1","admin3":"00FB127","admin4":"","population":149,"elevation":0,"gtopo30":6,"timezone":"Europe/London","moddate":"2017-06-12T00:00:00.000Z"},{"geonameid":2637748,"name":"Skelton","asciiname":"Skelton","alternatenames":"Skelton","latitude":"53.7252100","longitude":"-0.8418700","fclass":"P","fcode":"PPL","country":"GB","cc2":"","admin1":"ENG","admin2":"E1","admin3":"00FB082","admin4":"","population":6538,"elevation":0,"gtopo30":5,"timezone":"Europe/London","moddate":"2015-07-11T00:00:00.000Z"},{"geonameid":2637737,"name":"Skerne","asciiname":"Skerne","alternatenames":"","latitude":"53.9836300","longitude":"-0.4068800","fclass":"P","fcode":"PPL","country":"GB","cc2":"","admin1":"ENG","admin2":"E1","admin3":"00FB128","admin4":"","population":0,"elevation":0,"gtopo30":11,"timezone":"Europe/London","moddate":"2015-01-01T00:00:00.000Z"},{"geonameid":2637716,"name":"Skidby","asciiname":"Skidby","alternatenames":"","latitude":"53.7892100","longitude":"-0.4613100","fclass":"P","fcode":"PPL","country":"GB","cc2":"","admin1":"ENG","admin2":"E1","admin3":"00FB129","admin4":"","population":1132,"elevation":0,"gtopo30":50,"timezone":"Europe/London","moddate":"2017-06-12T00:00:00.000Z"},{"geonameid":2637703,"name":"Skipsea","asciiname":"Skipsea","alternatenames":"","latitude":"53.9767400","longitude":"-0.2208400","fclass":"P","fcode":"PPLA3","country":"GB","cc2":"","admin1":"ENG","admin2":"E1","admin3":"00FB130","admin4":"","population":693,"elevation":0,"gtopo30":5,"timezone":"Europe/London","moddate":"2017-06-12T00:00:00.000Z"},{"geonameid":2637695,"name":"Skirpenbeck","asciiname":"Skirpenbeck","alternatenames":"","latitude":"54.0038500","longitude":"-0.8621200","fclass":"P","fcode":"PPL","country":"GB","cc2":"","admin1":"ENG","admin2":"E1","admin3":"00FB132","admin4":"","population":0,"elevation":0,"gtopo30":22,"timezone":"Europe/London","moddate":"2011-03-03T00:00:00.000Z"},{"geonameid":2637656,"name":"Sledmere","asciiname":"Sledmere","alternatenames":"","latitude":"54.0713500","longitude":"-0.5766000","fclass":"P","fcode":"PPL","country":"GB","cc2":"","admin1":"ENG","admin2":"E1","admin3":"00FB133","admin4":"","population":0,"elevation":0,"gtopo30":125,"timezone":"Europe/London","moddate":"2011-03-03T00:00:00.000Z"},{"geonameid":2637599,"name":"Snaith","asciiname":"Snaith","alternatenames":"","latitude":"53.6911200","longitude":"-1.0285900","fclass":"P","fcode":"PPL","country":"GB","cc2":"","admin1":"ENG","admin2":"E1","admin3":"00FB134","admin4":"","population":3305,"elevation":0,"gtopo30":11,"timezone":"Europe/London","moddate":"2017-06-12T00:00:00.000Z"},{"geonameid":2637461,"name":"South Cave","asciiname":"South Cave","alternatenames":"Cave Theas,sawt kyw,ساوت کیو","latitude":"53.7698700","longitude":"-0.6010700","fclass":"P","fcode":"PPLA3","country":"GB","cc2":"","admin1":"ENG","admin2":"E1","admin3":"00FB135","admin4":"","population":3879,"elevation":0,"gtopo30":32,"timezone":"Europe/London","moddate":"2017-06-12T00:00:00.000Z"},{"geonameid":2637442,"name":"South Dalton","asciiname":"South Dalton","alternatenames":"","latitude":"53.8955000","longitude":"-0.5301000","fclass":"P","fcode":"PPL","country":"GB","cc2":"","admin1":"ENG","admin2":"E1","admin3":"00FB037","admin4":"","population":0,"elevation":0,"gtopo30":41,"timezone":"Europe/London","moddate":"2011-03-03T00:00:00.000Z"},{"geonameid":2637361,"name":"South Newbald","asciiname":"South Newbald","alternatenames":"","latitude":"53.8121100","longitude":"-0.6030500","fclass":"P","fcode":"PPL","country":"GB","cc2":"","admin1":"ENG","admin2":"E1","admin3":"00FB099","admin4":"","population":0,"elevation":0,"gtopo30":109,"timezone":"Europe/London","moddate":"2016-06-22T00:00:00.000Z"},{"geonameid":2637468,"name":"Southburn","asciiname":"Southburn","alternatenames":"","latitude":"53.9761600","longitude":"-0.4927200","fclass":"P","fcode":"PPL","country":"GB","cc2":"","admin1":"ENG","admin2":"E1","admin3":"00FB084","admin4":"","population":0,"elevation":0,"gtopo30":26,"timezone":"Europe/London","moddate":"2011-03-03T00:00:00.000Z"},{"geonameid":2637263,"name":"Spaldington","asciiname":"Spaldington","alternatenames":"","latitude":"53.7927300","longitude":"-0.8489900","fclass":"P","fcode":"PPL","country":"GB","cc2":"","admin1":"ENG","admin2":"E1","admin3":"00FB137","admin4":"","population":0,"elevation":0,"gtopo30":8,"timezone":"Europe/London","moddate":"2011-03-03T00:00:00.000Z"},{"geonameid":2637185,"name":"Sproatley","asciiname":"Sproatley","alternatenames":"","latitude":"53.7937900","longitude":"-0.1913000","fclass":"P","fcode":"PPL","country":"GB","cc2":"","admin1":"ENG","admin2":"E1","admin3":"00FB138","admin4":"","population":1350,"elevation":0,"gtopo30":22,"timezone":"Europe/London","moddate":"2017-06-12T00:00:00.000Z"},{"geonameid":2637147,"name":"Staddlethorpe","asciiname":"Staddlethorpe","alternatenames":"","latitude":"53.7438800","longitude":"-0.7324300","fclass":"P","fcode":"PPL","country":"GB","cc2":"","admin1":"ENG","admin2":"E1","admin3":"00FB057","admin4":"","population":0,"elevation":0,"gtopo30":2,"timezone":"Europe/London","moddate":"2011-03-03T00:00:00.000Z"},{"geonameid":2637102,"name":"Stamford Bridge","asciiname":"Stamford Bridge","alternatenames":"Stanfurdubryggja,Stanfurðubryggja","latitude":"53.9885000","longitude":"-0.9154700","fclass":"P","fcode":"PPLA3","country":"GB","cc2":"","admin1":"ENG","admin2":"E1","admin3":"00FB139","admin4":"","population":3528,"elevation":0,"gtopo30":21,"timezone":"Europe/London","moddate":"2017-06-12T00:00:00.000Z"},{"geonameid":2636522,"name":"Sunk Island","asciiname":"Sunk Island","alternatenames":"","latitude":"53.6516800","longitude":"-0.0840700","fclass":"P","fcode":"PPLA3","country":"GB","cc2":"","admin1":"ENG","admin2":"E1","admin3":"00FB140","admin4":"","population":0,"elevation":0,"gtopo30":4,"timezone":"Europe/London","moddate":"2011-07-31T00:00:00.000Z"},{"geonameid":2636468,"name":"Sutton upon Derwent","asciiname":"Sutton upon Derwent","alternatenames":"Sutton,Sutton upon Derwent","latitude":"53.9131400","longitude":"-0.9246500","fclass":"P","fcode":"PPLA3","country":"GB","cc2":"","admin1":"ENG","admin2":"E1","admin3":"00FB141","admin4":"","population":594,"elevation":0,"gtopo30":9,"timezone":"Europe/London","moddate":"2017-06-12T00:00:00.000Z"},{"geonameid":2636440,"name":"Swanland","asciiname":"Swanland","alternatenames":"","latitude":"53.7373300","longitude":"-0.4916700","fclass":"P","fcode":"PPL","country":"GB","cc2":"","admin1":"ENG","admin2":"E1","admin3":"00FB142","admin4":"","population":0,"elevation":0,"gtopo30":81,"timezone":"Europe/London","moddate":"2011-03-03T00:00:00.000Z"},{"geonameid":2636387,"name":"Swine","asciiname":"Swine","alternatenames":"Swinley Priory","latitude":"53.8062900","longitude":"-0.2759400","fclass":"P","fcode":"PPL","country":"GB","cc2":"","admin1":"ENG","admin2":"E1","admin3":"00FB143","admin4":"","population":0,"elevation":0,"gtopo30":5,"timezone":"Europe/London","moddate":"2017-10-25T00:00:00.000Z"},{"geonameid":2636386,"name":"Swinefleet","asciiname":"Swinefleet","alternatenames":"","latitude":"53.6908600","longitude":"-0.8349200","fclass":"P","fcode":"PPL","country":"GB","cc2":"","admin1":"ENG","admin2":"E1","admin3":"00FB144","admin4":"","population":787,"elevation":0,"gtopo30":5,"timezone":"Europe/London","moddate":"2017-06-12T00:00:00.000Z"},{"geonameid":2636019,"name":"Thirtleby","asciiname":"Thirtleby","alternatenames":"","latitude":"53.7965600","longitude":"-0.2172200","fclass":"P","fcode":"PPL","country":"GB","cc2":"","admin1":"ENG","admin2":"E1","admin3":"00FB034","admin4":"","population":0,"elevation":0,"gtopo30":19,"timezone":"Europe/London","moddate":"2011-03-03T00:00:00.000Z"},{"geonameid":2635988,"name":"Thorngumbald","asciiname":"Thorngumbald","alternatenames":"Thorngumbald,Thorngumbold","latitude":"53.7210000","longitude":"-0.1717500","fclass":"P","fcode":"PPL","country":"GB","cc2":"","admin1":"ENG","admin2":"E1","admin3":"00FB145","admin4":"","population":2973,"elevation":0,"gtopo30":6,"timezone":"Europe/London","moddate":"2017-06-12T00:00:00.000Z"},{"geonameid":2635971,"name":"Thornton","asciiname":"Thornton","alternatenames":"","latitude":"53.9000000","longitude":"-0.8500000","fclass":"P","fcode":"PPLA3","country":"GB","cc2":"","admin1":"ENG","admin2":"E1","admin3":"00FB146","admin4":"","population":0,"elevation":0,"gtopo30":10,"timezone":"Europe/London","moddate":"2011-07-31T00:00:00.000Z"},{"geonameid":2635871,"name":"Thwing","asciiname":"Thwing","alternatenames":"","latitude":"54.1154700","longitude":"-0.3895000","fclass":"P","fcode":"PPLA3","country":"GB","cc2":"","admin1":"ENG","admin2":"E1","admin3":"00FB147","admin4":"","population":0,"elevation":0,"gtopo30":107,"timezone":"Europe/London","moddate":"2011-07-31T00:00:00.000Z"},{"geonameid":2635863,"name":"Tibthorpe","asciiname":"Tibthorpe","alternatenames":"","latitude":"53.9866100","longitude":"-0.5369400","fclass":"P","fcode":"PPL","country":"GB","cc2":"","admin1":"ENG","admin2":"E1","admin3":"00FB148","admin4":"","population":0,"elevation":0,"gtopo30":61,"timezone":"Europe/London","moddate":"2011-03-03T00:00:00.000Z"},{"geonameid":2635856,"name":"Tickton","asciiname":"Tickton","alternatenames":"","latitude":"53.8623300","longitude":"-0.3833000","fclass":"P","fcode":"PPL","country":"GB","cc2":"","admin1":"ENG","admin2":"E1","admin3":"00FB149","admin4":"","population":1731,"elevation":0,"gtopo30":4,"timezone":"Europe/London","moddate":"2017-06-12T00:00:00.000Z"},{"geonameid":2635354,"name":"Tunstall","asciiname":"Tunstall","alternatenames":"","latitude":"53.7687500","longitude":"-0.0200800","fclass":"P","fcode":"PPL","country":"GB","cc2":"","admin1":"ENG","admin2":"E1","admin3":"00FB118","admin4":"","population":0,"elevation":0,"gtopo30":15,"timezone":"Europe/London","moddate":"2016-06-22T00:00:00.000Z"},{"geonameid":2635189,"name":"Ulrome","asciiname":"Ulrome","alternatenames":"","latitude":"53.9919800","longitude":"-0.2296800","fclass":"P","fcode":"PPLA3","country":"GB","cc2":"","admin1":"ENG","admin2":"E1","admin3":"00FB151","admin4":"","population":239,"elevation":0,"gtopo30":11,"timezone":"Europe/London","moddate":"2017-06-12T00:00:00.000Z"},{"geonameid":2634879,"name":"Walkington","asciiname":"Walkington","alternatenames":"","latitude":"53.8195000","longitude":"-0.4895800","fclass":"P","fcode":"PPL","country":"GB","cc2":"","admin1":"ENG","admin2":"E1","admin3":"00FB152","admin4":"","population":1769,"elevation":0,"gtopo30":61,"timezone":"Europe/London","moddate":"2017-06-12T00:00:00.000Z"},{"geonameid":2634804,"name":"Wansford","asciiname":"Wansford","alternatenames":"","latitude":"53.9946800","longitude":"-0.3814700","fclass":"P","fcode":"PPL","country":"GB","cc2":"","admin1":"ENG","admin2":"E1","admin3":"00FB128","admin4":"","population":0,"elevation":0,"gtopo30":7,"timezone":"Europe/London","moddate":"2014-12-31T00:00:00.000Z"},{"geonameid":2634733,"name":"Warter","asciiname":"Warter","alternatenames":"","latitude":"53.9421600","longitude":"-0.6785200","fclass":"P","fcode":"PPL","country":"GB","cc2":"","admin1":"ENG","admin2":"E1","admin3":"00FB153","admin4":"","population":0,"elevation":0,"gtopo30":74,"timezone":"Europe/London","moddate":"2011-03-03T00:00:00.000Z"},{"geonameid":2634661,"name":"Watton","asciiname":"Watton","alternatenames":"","latitude":"53.9333300","longitude":"-0.4500000","fclass":"P","fcode":"PPLA3","country":"GB","cc2":"","admin1":"ENG","admin2":"E1","admin3":"00FB154","admin4":"","population":7601,"elevation":0,"gtopo30":8,"timezone":"Europe/London","moddate":"2011-07-31T00:00:00.000Z"},{"geonameid":2634657,"name":"Wauldby","asciiname":"Wauldby","alternatenames":"Wauldby","latitude":"53.7500000","longitude":"-0.5333300","fclass":"P","fcode":"PPL","country":"GB","cc2":"","admin1":"ENG","admin2":"E1","admin3":"00FB156","admin4":"","population":0,"elevation":0,"gtopo30":115,"timezone":"Europe/London","moddate":"2016-06-22T00:00:00.000Z"},{"geonameid":2634644,"name":"Wawne","asciiname":"Wawne","alternatenames":"","latitude":"53.8170900","longitude":"-0.3484300","fclass":"P","fcode":"PPL","country":"GB","cc2":"","admin1":"ENG","admin2":"E1","admin3":"00FB155","admin4":"","population":975,"elevation":0,"gtopo30":6,"timezone":"Europe/London","moddate":"2017-06-12T00:00:00.000Z"},{"geonameid":2634642,"name":"Waxholme","asciiname":"Waxholme","alternatenames":"","latitude":"53.7411000","longitude":"0.0089300","fclass":"P","fcode":"PPL","country":"GB","cc2":"","admin1":"ENG","admin2":"E1","admin3":"00FB115","admin4":"","population":0,"elevation":0,"gtopo30":16,"timezone":"Europe/London","moddate":"2016-06-22T00:00:00.000Z"},{"geonameid":2634557,"name":"Welton","asciiname":"Welton","alternatenames":"Welton,Welton  East Yorkshire","latitude":"53.7321100","longitude":"-0.5523200","fclass":"P","fcode":"PPLA3","country":"GB","cc2":"","admin1":"ENG","admin2":"E1","admin3":"00FB156","admin4":"","population":0,"elevation":0,"gtopo30":24,"timezone":"Europe/London","moddate":"2011-07-31T00:00:00.000Z"},{"geonameid":2634554,"name":"Welwick","asciiname":"Welwick","alternatenames":"","latitude":"53.6682400","longitude":"0.0315500","fclass":"P","fcode":"PPL","country":"GB","cc2":"","admin1":"ENG","admin2":"E1","admin3":"00FB157","admin4":"","population":0,"elevation":0,"gtopo30":13,"timezone":"Europe/London","moddate":"2011-03-03T00:00:00.000Z"},{"geonameid":2634208,"name":"Wetwang","asciiname":"Wetwang","alternatenames":"","latitude":"54.0175000","longitude":"-0.5773800","fclass":"P","fcode":"PPLA3","country":"GB","cc2":"","admin1":"ENG","admin2":"E1","admin3":"00FB158","admin4":"","population":761,"elevation":0,"gtopo30":66,"timezone":"Europe/London","moddate":"2017-06-12T00:00:00.000Z"},{"geonameid":2634045,"name":"Whitgift","asciiname":"Whitgift","alternatenames":"","latitude":"53.6953400","longitude":"-0.7671300","fclass":"P","fcode":"PPL","country":"GB","cc2":"","admin1":"ENG","admin2":"E1","admin3":"00FB150","admin4":"","population":0,"elevation":0,"gtopo30":4,"timezone":"Europe/London","moddate":"2011-03-03T00:00:00.000Z"},{"geonameid":2633926,"name":"Wilberfoss","asciiname":"Wilberfoss","alternatenames":"","latitude":"53.9485400","longitude":"-0.8894500","fclass":"P","fcode":"PPL","country":"GB","cc2":"","admin1":"ENG","admin2":"E1","admin3":"00FB159","admin4":"","population":1866,"elevation":0,"gtopo30":15,"timezone":"Europe/London","moddate":"2017-06-12T00:00:00.000Z"},{"geonameid":2633911,"name":"Willerby","asciiname":"Willerby","alternatenames":"","latitude":"53.7609900","longitude":"-0.4418600","fclass":"P","fcode":"PPLA3","country":"GB","cc2":"","admin1":"ENG","admin2":"E1","admin3":"00FB171","admin4":"","population":0,"elevation":0,"gtopo30":16,"timezone":"Europe/London","moddate":"2011-07-31T00:00:00.000Z"},{"geonameid":2633836,"name":"Winestead","asciiname":"Winestead","alternatenames":"","latitude":"53.7020200","longitude":"-0.0326800","fclass":"P","fcode":"PPL","country":"GB","cc2":"","admin1":"ENG","admin2":"E1","admin3":"00FB108","admin4":"","population":0,"elevation":0,"gtopo30":13,"timezone":"Europe/London","moddate":"2011-03-03T00:00:00.000Z"},{"geonameid":2633744,"name":"Withernsea","asciiname":"Withernsea","alternatenames":"Uiternsi,wytrnsy,Уитернси,ویترنسی","latitude":"53.7311500","longitude":"0.0319500","fclass":"P","fcode":"PPLA3","country":"GB","cc2":"","admin1":"ENG","admin2":"E1","admin3":"00FB160","admin4":"","population":6159,"elevation":0,"gtopo30":1,"timezone":"Europe/London","moddate":"2019-10-15T00:00:00.000Z"},{"geonameid":2633743,"name":"Withernwick","asciiname":"Withernwick","alternatenames":"","latitude":"53.8488600","longitude":"-0.1874200","fclass":"P","fcode":"PPL","country":"GB","cc2":"","admin1":"ENG","admin2":"E1","admin3":"00FB161","admin4":"","population":453,"elevation":0,"gtopo30":14,"timezone":"Europe/London","moddate":"2017-06-12T00:00:00.000Z"},{"geonameid":2633705,"name":"Wold Newton","asciiname":"Wold Newton","alternatenames":"","latitude":"54.1428000","longitude":"-0.3999300","fclass":"P","fcode":"PPLA3","country":"GB","cc2":"","admin1":"ENG","admin2":"E1","admin3":"00FB162","admin4":"","population":337,"elevation":0,"gtopo30":52,"timezone":"Europe/London","moddate":"2017-06-12T00:00:00.000Z"},{"geonameid":2633487,"name":"Wressell","asciiname":"Wressell","alternatenames":"Wressell,Wressle","latitude":"53.7737300","longitude":"-0.9247400","fclass":"P","fcode":"PPL","country":"GB","cc2":"","admin1":"ENG","admin2":"E1","admin3":"00FB164","admin4":"","population":0,"elevation":0,"gtopo30":8,"timezone":"Europe/London","moddate":"2016-06-22T00:00:00.000Z"},{"geonameid":2633430,"name":"Wyton","asciiname":"Wyton","alternatenames":"","latitude":"53.7824000","longitude":"-0.2171300","fclass":"P","fcode":"PPL","country":"GB","cc2":"","admin1":"ENG","admin2":"E1","admin3":"00FB015","admin4":"","population":0,"elevation":0,"gtopo30":8,"timezone":"Europe/London","moddate":"2011-03-03T00:00:00.000Z"},{"geonameid":2633354,"name":"Yokefleet","asciiname":"Yokefleet","alternatenames":"","latitude":"53.7080500","longitude":"-0.7573800","fclass":"P","fcode":"PPL","country":"GB","cc2":"","admin1":"ENG","admin2":"E1","admin3":"00FB018","admin4":"","population":0,"elevation":0,"gtopo30":5,"timezone":"Europe/London","moddate":"2011-03-03T00:00:00.000Z"}],"admin3":[{"geonameid":7300431,"name":"Airmyn","admin3":"00FB001"},{"geonameid":7295033,"name":"Aldbrough","admin3":"00FB002"},{"geonameid":7293446,"name":"Allerthorpe","admin3":"00FB003"},{"geonameid":7298403,"name":"Anlaby with Anlaby Common","admin3":"00FB168"},{"geonameid":7300432,"name":"Asselby","admin3":"00FB004"},{"geonameid":7296487,"name":"Atwick","admin3":"00FB005"},{"geonameid":7298430,"name":"Bainton","admin3":"00FB006"},{"geonameid":7293337,"name":"Barmby Moor","admin3":"00FB007"},{"geonameid":7296488,"name":"Barmby on the Marsh","admin3":"00FB008"},{"geonameid":7297986,"name":"Barmston","admin3":"00FB009"},{"geonameid":7293447,"name":"Beeford","admin3":"00FB010"},{"geonameid":7293448,"name":"Bempton","admin3":"00FB012"},{"geonameid":7300433,"name":"Beswick","admin3":"00FB013"},{"geonameid":7298472,"name":"Beverley","admin3":"00FB166"},{"geonameid":7295035,"name":"Bewholme","admin3":"00FB014"},{"geonameid":7298431,"name":"Bielby","admin3":"00FB011"},{"geonameid":7293449,"name":"Bilton","admin3":"00FB015"},{"geonameid":7293450,"name":"Bishop Burton","admin3":"00FB016"},{"geonameid":7295045,"name":"Bishop Wilton","admin3":"00FB017"},{"geonameid":7299641,"name":"Blacktoft","admin3":"00FB018"},{"geonameid":7300434,"name":"Boynton","admin3":"00FB019"},{"geonameid":7300435,"name":"Brandesburton","admin3":"00FB020"},{"geonameid":7296622,"name":"Brantingham","admin3":"00FB021"},{"geonameid":7300469,"name":"Bridlington","admin3":"00FB169"},{"geonameid":7297987,"name":"Broomfleet","admin3":"00FB022"},{"geonameid":7295047,"name":"Bubwith","admin3":"00FB023"},{"geonameid":7298432,"name":"Bugthorpe","admin3":"00FB024"},{"geonameid":7293451,"name":"Burstwick","admin3":"00FB025"},{"geonameid":7293452,"name":"Burton Agnes","admin3":"00FB026"},{"geonameid":7293453,"name":"Burton Constable","admin3":"00FB027"},{"geonameid":7298433,"name":"Burton Fleming","admin3":"00FB028"},{"geonameid":7295048,"name":"Burton Pidsea","admin3":"00FB029"},{"geonameid":7298434,"name":"Carnaby","admin3":"00FB030"},{"geonameid":7295049,"name":"Catton","admin3":"00FB031"},{"geonameid":7296624,"name":"Catwick","admin3":"00FB032"},{"geonameid":7295050,"name":"Cherry Burton","admin3":"00FB033"},{"geonameid":7298435,"name":"Coniston","admin3":"00FB034"},{"geonameid":7298436,"name":"Cottam","admin3":"00FB035"},{"geonameid":7298473,"name":"Cottingham","admin3":"00FB167"},{"geonameid":7293454,"name":"Cottingwith","admin3":"00FB036"},{"geonameid":7293455,"name":"Dalton Holme","admin3":"00FB037"},{"geonameid":7295051,"name":"Driffield","admin3":"00FB038"},{"geonameid":7295052,"name":"Easington","admin3":"00FB039"},{"geonameid":7300436,"name":"East Garton","admin3":"00FB040"},{"geonameid":7300437,"name":"Eastrington","admin3":"00FB041"},{"geonameid":7295053,"name":"Ellerby","admin3":"00FB042"},{"geonameid":7293456,"name":"Ellerker","admin3":"00FB043"},{"geonameid":7298437,"name":"Ellerton","admin3":"00FB044"},{"geonameid":7298438,"name":"Elloughton-cum-Brough","admin3":"00FB045"},{"geonameid":7300438,"name":"Elstronwick","admin3":"00FB046"},{"geonameid":7298439,"name":"Etton","admin3":"00FB047"},{"geonameid":7298440,"name":"Everingham","admin3":"00FB048"},{"geonameid":7295054,"name":"Fangfoss","admin3":"00FB049"},{"geonameid":7298441,"name":"Fimber","admin3":"00FB050"},{"geonameid":7293457,"name":"Flamborough","admin3":"00FB051"},{"geonameid":7293458,"name":"Foggathorpe","admin3":"00FB052"},{"geonameid":7293459,"name":"Foston","admin3":"00FB053"},{"geonameid":7293460,"name":"Fridaythorpe","admin3":"00FB054"},{"geonameid":7298926,"name":"Full Sutton","admin3":"00FB055"},{"geonameid":7300439,"name":"Garton","admin3":"00FB056"},{"geonameid":7300440,"name":"Gilberdyke","admin3":"00FB057"},{"geonameid":7300441,"name":"Goodmanham","admin3":"00FB058"},{"geonameid":7295046,"name":"Goole Fields","admin3":"00FB060"},{"geonameid":7296623,"name":"Goole Township","admin3":"00FB059"},{"geonameid":7293461,"name":"Gowdall","admin3":"00FB061"},{"geonameid":7300442,"name":"Grindale","admin3":"00FB062"},{"geonameid":7300443,"name":"Halsham","admin3":"00FB063"},{"geonameid":7300444,"name":"Harpham","admin3":"00FB064"},{"geonameid":7296042,"name":"Hatfield","admin3":"00FB065"},{"geonameid":7300445,"name":"Hayton","admin3":"00FB066"},{"geonameid":7295055,"name":"Hedon","admin3":"00FB067"},{"geonameid":7298442,"name":"Hessle","admin3":"00FB068"},{"geonameid":7295056,"name":"Hollym","admin3":"00FB069"},{"geonameid":7300446,"name":"Holme upon Spalding Moor","admin3":"00FB070"},{"geonameid":7295057,"name":"Holmpton","admin3":"00FB071"},{"geonameid":7290789,"name":"Hook","admin3":"00FB072"},{"geonameid":7298443,"name":"Hornsea","admin3":"00FB073"},{"geonameid":7298444,"name":"Hotham","admin3":"00FB074"},{"geonameid":7298445,"name":"Howden","admin3":"00FB075"},{"geonameid":7298006,"name":"Huggate","admin3":"00FB076"},{"geonameid":7298446,"name":"Humbleton","admin3":"00FB077"},{"geonameid":7300447,"name":"Hutton Cranswick","admin3":"00FB078"},{"geonameid":7300448,"name":"Kelk","admin3":"00FB079"},{"geonameid":7293462,"name":"Keyingham","admin3":"00FB080"},{"geonameid":7295058,"name":"Kilham","admin3":"00FB081"},{"geonameid":7298447,"name":"Kilpin","admin3":"00FB082"},{"geonameid":7295059,"name":"Kirby Underdale","admin3":"00FB083"},{"geonameid":7300470,"name":"Kirk Ella","admin3":"00FB170"},{"geonameid":7293463,"name":"Kirkburn","admin3":"00FB084"},{"geonameid":7293464,"name":"Langtoft","admin3":"00FB085"},{"geonameid":7295060,"name":"Laxton","admin3":"00FB086"},{"geonameid":7295061,"name":"Leconfield","admin3":"00FB087"},{"geonameid":7298448,"name":"Leven","admin3":"00FB088"},{"geonameid":7295062,"name":"Lockington","admin3":"00FB089"},{"geonameid":7300449,"name":"Londesborough","admin3":"00FB090"},{"geonameid":7296546,"name":"Lund","admin3":"00FB091"},{"geonameid":7300450,"name":"Mappleton","admin3":"00FB092"},{"geonameid":7298449,"name":"Market Weighton","admin3":"00FB093"},{"geonameid":7300451,"name":"Melbourne","admin3":"00FB094"},{"geonameid":7300467,"name":"Melton","admin3":"00FB156"},{"geonameid":7298450,"name":"Middleton","admin3":"00FB095"},{"geonameid":7297988,"name":"Millington","admin3":"00FB096"},{"geonameid":7296228,"name":"Molescroft","admin3":"00FB097"},{"geonameid":7296229,"name":"Nafferton","admin3":"00FB098"},{"geonameid":7300452,"name":"Newbald","admin3":"00FB099"},{"geonameid":7296024,"name":"Newport","admin3":"00FB100"},{"geonameid":7298451,"name":"Newton on Derwent","admin3":"00FB101"},{"geonameid":7300453,"name":"North Cave","admin3":"00FB102"},{"geonameid":7298452,"name":"North Dalton","admin3":"00FB103"},{"geonameid":7300454,"name":"North Ferriby","admin3":"00FB104"},{"geonameid":7296230,"name":"North Frodingham","admin3":"00FB105"},{"geonameid":7298453,"name":"Nunburnholme","admin3":"00FB106"},{"geonameid":7296231,"name":"Ottringham","admin3":"00FB107"},{"geonameid":7295063,"name":"Patrington","admin3":"00FB108"},{"geonameid":7296232,"name":"Paull","admin3":"00FB109"},{"geonameid":7295064,"name":"Pocklington","admin3":"00FB110"},{"geonameid":7295065,"name":"Pollington","admin3":"00FB111"},{"geonameid":7296233,"name":"Preston","admin3":"00FB112"},{"geonameid":7300455,"name":"Rawcliffe","admin3":"00FB113"},{"geonameid":7296234,"name":"Reedness","admin3":"00FB114"},{"geonameid":7295066,"name":"Rimswell","admin3":"00FB115"},{"geonameid":7298454,"name":"Rise","admin3":"00FB116"},{"geonameid":7300456,"name":"Riston","admin3":"00FB117"},{"geonameid":7298455,"name":"Roos","admin3":"00FB118"},{"geonameid":7300457,"name":"Routh","admin3":"00FB119"},{"geonameid":7300458,"name":"Rowley","admin3":"00FB120"},{"geonameid":7295067,"name":"Rudston","admin3":"00FB121"},{"geonameid":7298456,"name":"Sancton","admin3":"00FB122"},{"geonameid":7298457,"name":"Seaton","admin3":"00FB123"},{"geonameid":7298458,"name":"Seaton Ross","admin3":"00FB124"},{"geonameid":7296235,"name":"Shipton Thorpe","admin3":"00FB125"},{"geonameid":7300459,"name":"Sigglesthorne","admin3":"00FB126"},{"geonameid":7300460,"name":"Skeffling","admin3":"00FB127"},{"geonameid":7296236,"name":"Skerne and Wansford","admin3":"00FB128"},{"geonameid":7298459,"name":"Skidby","admin3":"00FB129"},{"geonameid":7295068,"name":"Skipsea","admin3":"00FB130"},{"geonameid":7298927,"name":"Skirlaugh","admin3":"00FB131"},{"geonameid":7298460,"name":"Skirpenbeck","admin3":"00FB132"},{"geonameid":7295069,"name":"Sledmere","admin3":"00FB133"},{"geonameid":7296237,"name":"Snaith and Cowick","admin3":"00FB134"},{"geonameid":7298461,"name":"South Cave","admin3":"00FB135"},{"geonameid":7298462,"name":"South Cliffe","admin3":"00FB136"},{"geonameid":7298463,"name":"Spaldington","admin3":"00FB137"},{"geonameid":7300461,"name":"Sproatley","admin3":"00FB138"},{"geonameid":7297989,"name":"Stamford Bridge","admin3":"00FB139"},{"geonameid":7300462,"name":"Sunk Island","admin3":"00FB140"},{"geonameid":7300463,"name":"Sutton upon Derwent","admin3":"00FB141"},{"geonameid":7300464,"name":"Swanland","admin3":"00FB142"},{"geonameid":7291293,"name":"Swine","admin3":"00FB143"},{"geonameid":7300465,"name":"Swinefleet","admin3":"00FB144"},{"geonameid":7290820,"name":"Thorngumbald","admin3":"00FB145"},{"geonameid":7297354,"name":"Thornton","admin3":"00FB146"},{"geonameid":7298464,"name":"Thwing","admin3":"00FB147"},{"geonameid":7298465,"name":"Tibthorpe","admin3":"00FB148"},{"geonameid":7293465,"name":"Tickton","admin3":"00FB149"},{"geonameid":7300466,"name":"Twin Rivers","admin3":"00FB150"},{"geonameid":7293466,"name":"Ulrome","admin3":"00FB151"},{"geonameid":7298466,"name":"Walkington","admin3":"00FB152"},{"geonameid":7298467,"name":"Warter","admin3":"00FB153"},{"geonameid":7298468,"name":"Watton","admin3":"00FB154"},{"geonameid":7295070,"name":"Wawne","admin3":"00FB155"},{"geonameid":7295071,"name":"Welwick","admin3":"00FB157"},{"geonameid":7293467,"name":"Wetwang","admin3":"00FB158"},{"geonameid":7295072,"name":"Wilberfoss","admin3":"00FB159"},{"geonameid":7298474,"name":"Willerby","admin3":"00FB171"},{"geonameid":7300468,"name":"Withernsea","admin3":"00FB160"},{"geonameid":7295073,"name":"Withernwick","admin3":"00FB161"},{"geonameid":7298469,"name":"Wold Newton","admin3":"00FB162"},{"geonameid":7298470,"name":"Woodmansey","admin3":"00FB163"},{"geonameid":7298471,"name":"Wressle","admin3":"00FB164"},{"geonameid":7296625,"name":"Yapham","admin3":"00FB165"}],"alternateNames":[{"alternatenameId":1626647,"geonameid":6269131,"isoLanguage":"en","alternateName":"England","isPreferredName":true,"isShortName":true,"isColloquial":false,"isHistoric":false}]},"__N_SSG":true}