{"pageProps":{"locale":"ro","admin2":{"geonameid":673389,"name":"Comuna Mihăileni","country":"RO","admin1":"20","admin2":"85074","admin3":"","latitude":"46.4887400","longitude":"25.8302700"},"admin1":{"geonameid":676309,"name":"Harghita","admin1":"20"},"locations":[{"geonameid":674648,"name":"Livezi","asciiname":"Livezi","alternatenames":"Livezi,Lovesz,Lövész,Vaszi","latitude":"46.5178400","longitude":"25.8508700","fclass":"P","fcode":"PPL","country":"RO","cc2":"RO","admin1":"20","admin2":"85074","admin3":"","admin4":"","population":567,"elevation":0,"gtopo30":823,"timezone":"Europe/Bucharest","moddate":"2013-04-21T00:00:00.000Z"},{"geonameid":673393,"name":"Mihăileni","asciiname":"Mihaileni","alternatenames":"Csikszentmihaly,Csikszentmihály,Mihaileni,Mihăileni","latitude":"46.4666700","longitude":"25.8166700","fclass":"P","fcode":"PPLA2","country":"RO","cc2":"","admin1":"20","admin2":"85074","admin3":"","admin4":"","population":2605,"elevation":0,"gtopo30":733,"timezone":"Europe/Bucharest","moddate":"2012-06-12T00:00:00.000Z"},{"geonameid":672552,"name":"Nădejdea","asciiname":"Nadejdea","alternatenames":"Ainad,Ajnad,Ajnád,Nadejde,Nadejdea,Nadejdea Gara,Nadejdi,Nădejde,Nădejdea,Nădejdea Gară,Nădejdi","latitude":"46.4964000","longitude":"25.8395100","fclass":"P","fcode":"PPL","country":"RO","cc2":"RO","admin1":"20","admin2":"85074","admin3":"","admin4":"","population":683,"elevation":0,"gtopo30":769,"timezone":"Europe/Bucharest","moddate":"2014-06-04T00:00:00.000Z"},{"geonameid":664040,"name":"Văcărești","asciiname":"Vacaresti","alternatenames":"Vacaresti,Vacsarcsi,Vacsárcsi,Văcăreşti","latitude":"46.4658400","longitude":"25.7984900","fclass":"P","fcode":"PPL","country":"RO","cc2":"RO","admin1":"20","admin2":"85074","admin3":"","admin4":"","population":599,"elevation":0,"gtopo30":716,"timezone":"Europe/Bucharest","moddate":"2013-04-20T00:00:00.000Z"}],"admin3":[],"alternateNames":[]},"__N_SSG":true}