{"pageProps":{"locale":"en","admin2":{"geonameid":3333201,"name":"St. Helens","country":"GB","admin1":"ENG","admin2":"N1","admin3":"","latitude":"53.4166700","longitude":"-2.7500000","localeAltName":"St. Helens"},"admin1":{"geonameid":6269131,"name":"England","admin1":"ENG","localeAltName":"England"},"locations":[{"geonameid":2655666,"name":"Billinge","asciiname":"Billinge","alternatenames":"","latitude":"53.4979500","longitude":"-2.7081000","fclass":"P","fcode":"PPL","country":"GB","cc2":"","admin1":"ENG","admin2":"N1","admin3":"00BZ001","admin4":"","population":5896,"elevation":0,"gtopo30":111,"timezone":"Europe/London","moddate":"2017-06-12T00:00:00.000Z"},{"geonameid":7870364,"name":"Bold Heath","asciiname":"Bold Heath","alternatenames":"","latitude":"53.3971500","longitude":"-2.6981700","fclass":"P","fcode":"PPL","country":"GB","cc2":"","admin1":"ENG","admin2":"N1","admin3":"00BZ002","admin4":"","population":0,"elevation":0,"gtopo30":32,"timezone":"Europe/London","moddate":"2011-06-14T00:00:00.000Z"},{"geonameid":2652811,"name":"Clock Face","asciiname":"Clock Face","alternatenames":"","latitude":"53.4171800","longitude":"-2.7109000","fclass":"P","fcode":"PPL","country":"GB","cc2":"","admin1":"ENG","admin2":"N1","admin3":"00BZ002","admin4":"","population":0,"elevation":0,"gtopo30":53,"timezone":"Europe/London","moddate":"2011-03-03T00:00:00.000Z"},{"geonameid":2652083,"name":"Crank","asciiname":"Crank","alternatenames":"","latitude":"53.4916100","longitude":"-2.7476800","fclass":"P","fcode":"PPL","country":"GB","cc2":"","admin1":"ENG","admin2":"N1","admin3":"00BZ004","admin4":"","population":0,"elevation":0,"gtopo30":79,"timezone":"Europe/London","moddate":"2011-03-03T00:00:00.000Z"},{"geonameid":2650556,"name":"Earlestown","asciiname":"Earlestown","alternatenames":"Earlestown","latitude":"53.4524700","longitude":"-2.6395700","fclass":"P","fcode":"PPL","country":"GB","cc2":"","admin1":"ENG","admin2":"N1","admin3":"00EU003","admin4":"","population":0,"elevation":0,"gtopo30":36,"timezone":"Europe/London","moddate":"2011-03-03T00:00:00.000Z"},{"geonameid":2650272,"name":"Eccleston","asciiname":"Eccleston","alternatenames":"","latitude":"53.4500000","longitude":"-2.7833300","fclass":"P","fcode":"PPLA3","country":"GB","cc2":"","admin1":"ENG","admin2":"N1","admin3":"00BZ003","admin4":"","population":0,"elevation":0,"gtopo30":45,"timezone":"Europe/London","moddate":"2011-07-31T00:00:00.000Z"},{"geonameid":2648826,"name":"Garswood","asciiname":"Garswood","alternatenames":"","latitude":"53.4887800","longitude":"-2.6722400","fclass":"P","fcode":"PPL","country":"GB","cc2":"","admin1":"ENG","admin2":"N1","admin3":"00BZ006","admin4":"","population":0,"elevation":0,"gtopo30":76,"timezone":"Europe/London","moddate":"2011-03-03T00:00:00.000Z"},{"geonameid":2647265,"name":"Haydock","asciiname":"Haydock","alternatenames":"","latitude":"53.4672300","longitude":"-2.6816600","fclass":"P","fcode":"PPL","country":"GB","cc2":"","admin1":"ENG","admin2":"N1","admin3":"00EU003","admin4":"","population":17333,"elevation":0,"gtopo30":41,"timezone":"Europe/London","moddate":"2011-03-03T00:00:00.000Z"},{"geonameid":2641705,"name":"New Boston","asciiname":"New Boston","alternatenames":"","latitude":"53.4711600","longitude":"-2.6481000","fclass":"P","fcode":"PPL","country":"GB","cc2":"","admin1":"ENG","admin2":"N1","admin3":"00EU003","admin4":"","population":0,"elevation":0,"gtopo30":52,"timezone":"Europe/London","moddate":"2011-03-03T00:00:00.000Z"},{"geonameid":2641548,"name":"Newton in Makerfield","asciiname":"Newton in Makerfield","alternatenames":"Newton,Newton in Makerfield,Newton-le-Willows","latitude":"53.4500800","longitude":"-2.6338800","fclass":"P","fcode":"PPL","country":"GB","cc2":"","admin1":"ENG","admin2":"N1","admin3":"00EU003","admin4":"","population":0,"elevation":0,"gtopo30":34,"timezone":"Europe/London","moddate":"2011-03-03T00:00:00.000Z"},{"geonameid":2641546,"name":"Newton-le-Willows","asciiname":"Newton-le-Willows","alternatenames":"Newton-le-Willows,nywtwn-lh-wylwwz,نیوتون-له-ویلووز","latitude":"53.4500000","longitude":"-2.6000000","fclass":"P","fcode":"PPL","country":"GB","cc2":"","admin1":"ENG","admin2":"N1","admin3":"","admin4":"","population":21782,"elevation":0,"gtopo30":35,"timezone":"Europe/London","moddate":"2013-08-05T00:00:00.000Z"},{"geonameid":2641040,"name":"Old Boston","asciiname":"Old Boston","alternatenames":"","latitude":"53.4722900","longitude":"-2.6438700","fclass":"P","fcode":"PPL","country":"GB","cc2":"","admin1":"ENG","admin2":"N1","admin3":"00EU003","admin4":"","population":0,"elevation":0,"gtopo30":51,"timezone":"Europe/London","moddate":"2011-03-03T00:00:00.000Z"},{"geonameid":2639693,"name":"Rainford","asciiname":"Rainford","alternatenames":"","latitude":"53.5022300","longitude":"-2.7883900","fclass":"P","fcode":"PPL","country":"GB","cc2":"","admin1":"ENG","admin2":"N1","admin3":"00BZ004","admin4":"","population":6131,"elevation":0,"gtopo30":44,"timezone":"Europe/London","moddate":"2011-03-03T00:00:00.000Z"},{"geonameid":2639689,"name":"Rainhill","asciiname":"Rainhill","alternatenames":"Rainhill,Rainhull","latitude":"53.4156700","longitude":"-2.7660700","fclass":"P","fcode":"PPLA3","country":"GB","cc2":"","admin1":"ENG","admin2":"N1","admin3":"00BZ005","admin4":"","population":10853,"elevation":0,"gtopo30":31,"timezone":"Europe/London","moddate":"2020-03-03T00:00:00.000Z"},{"geonameid":2638785,"name":"St Helens","asciiname":"St Helens","alternatenames":"Saint Helens,Sent-Khelens,St Helens,St. Helens,Сент-Хеленс","latitude":"53.4500000","longitude":"-2.7333300","fclass":"P","fcode":"PPLA2","country":"GB","cc2":"","admin1":"ENG","admin2":"N1","admin3":"","admin4":"","population":102555,"elevation":0,"gtopo30":31,"timezone":"Europe/London","moddate":"2014-04-28T00:00:00.000Z"},{"geonameid":2636048,"name":"Thatto Heath","asciiname":"Thatto Heath","alternatenames":"","latitude":"53.4357100","longitude":"-2.7588300","fclass":"P","fcode":"PPL","country":"GB","cc2":"","admin1":"ENG","admin2":"N1","admin3":"00BZ003","admin4":"","population":0,"elevation":0,"gtopo30":67,"timezone":"Europe/London","moddate":"2011-03-03T00:00:00.000Z"}],"admin3":[{"geonameid":7301314,"name":"Billinge Chapel End","admin3":"00BZ001"},{"geonameid":7299562,"name":"Bold","admin3":"00BZ002"},{"geonameid":7301315,"name":"Eccleston","admin3":"00BZ003"},{"geonameid":7301316,"name":"Rainford","admin3":"00BZ004"},{"geonameid":7292492,"name":"Rainhill","admin3":"00BZ005"},{"geonameid":7297266,"name":"Seneley Green","admin3":"00BZ006"},{"geonameid":7292493,"name":"Windle","admin3":"00BZ007"}],"alternateNames":[{"alternatenameId":8666526,"geonameid":3333201,"isoLanguage":"en","alternateName":"St. Helens","isPreferredName":true,"isShortName":true,"isColloquial":false,"isHistoric":false},{"alternatenameId":1626647,"geonameid":6269131,"isoLanguage":"en","alternateName":"England","isPreferredName":true,"isShortName":true,"isColloquial":false,"isHistoric":false}]},"__N_SSG":true}