{"pageProps":{"locale":"en","admin2":{"geonameid":3333158,"name":"Kent","country":"GB","admin1":"ENG","admin2":"G5","admin3":"","latitude":"51.1666700","longitude":"0.6666700","localeAltName":"Kent"},"admin1":{"geonameid":6269131,"name":"England","admin1":"ENG","localeAltName":"England"},"locations":[{"geonameid":2657679,"name":"Addington","asciiname":"Addington","alternatenames":"","latitude":"51.3068500","longitude":"0.3736200","fclass":"P","fcode":"PPL","country":"GB","cc2":"","admin1":"ENG","admin2":"G5","admin3":"29UP","admin4":"29UP001","population":857,"elevation":0,"gtopo30":62,"timezone":"Europe/London","moddate":"2018-07-03T00:00:00.000Z"},{"geonameid":11592713,"name":"Adisham","asciiname":"Adisham","alternatenames":"Adesham","latitude":"51.2405100","longitude":"1.1879800","fclass":"P","fcode":"PPL","country":"GB","cc2":"","admin1":"ENG","admin2":"G5","admin3":"","admin4":"29UC001","population":0,"elevation":0,"gtopo30":36,"timezone":"Europe/London","moddate":"2017-06-18T00:00:00.000Z"},{"geonameid":2657531,"name":"Aldington","asciiname":"Aldington","alternatenames":"","latitude":"51.0916400","longitude":"0.9446100","fclass":"P","fcode":"PPL","country":"GB","cc2":"","admin1":"ENG","admin2":"G5","admin3":"29UB","admin4":"29UB001","population":988,"elevation":0,"gtopo30":78,"timezone":"Europe/London","moddate":"2018-07-03T00:00:00.000Z"},{"geonameid":2657500,"name":"Alkham","asciiname":"Alkham","alternatenames":"","latitude":"51.1351500","longitude":"1.2231700","fclass":"P","fcode":"PPL","country":"GB","cc2":"","admin1":"ENG","admin2":"G5","admin3":"29UE","admin4":"29UE001","population":351,"elevation":0,"gtopo30":58,"timezone":"Europe/London","moddate":"2018-07-03T00:00:00.000Z"},{"geonameid":2657473,"name":"Allington","asciiname":"Allington","alternatenames":"Allington","latitude":"51.2833300","longitude":"0.5166700","fclass":"P","fcode":"PPL","country":"GB","cc2":"","admin1":"ENG","admin2":"G5","admin3":"29UH","admin4":"","population":0,"elevation":0,"gtopo30":22,"timezone":"Europe/London","moddate":"2012-01-17T00:00:00.000Z"},{"geonameid":11593083,"name":"Appledore","asciiname":"Appledore","alternatenames":"","latitude":"51.0322200","longitude":"0.7873700","fclass":"P","fcode":"PPL","country":"GB","cc2":"","admin1":"ENG","admin2":"G5","admin3":"29UB","admin4":"29UB002","population":0,"elevation":0,"gtopo30":12,"timezone":"Europe/London","moddate":"2017-06-21T00:00:00.000Z"},{"geonameid":11073402,"name":"Arpinge","asciiname":"Arpinge","alternatenames":"","latitude":"51.1085100","longitude":"1.1252000","fclass":"P","fcode":"PPL","country":"GB","cc2":"","admin1":"ENG","admin2":"G5","admin3":"6945806","admin4":"29UL016","population":0,"elevation":0,"gtopo30":174,"timezone":"Europe/London","moddate":"2016-06-22T00:00:00.000Z"},{"geonameid":6695249,"name":"Ash","asciiname":"Ash","alternatenames":"","latitude":"51.2788300","longitude":"1.2797400","fclass":"P","fcode":"PPL","country":"GB","cc2":"","admin1":"ENG","admin2":"G5","admin3":"29UE","admin4":"29UE002","population":2767,"elevation":0,"gtopo30":22,"timezone":"Europe/London","moddate":"2018-07-03T00:00:00.000Z"},{"geonameid":2656986,"name":"Ash","asciiname":"Ash","alternatenames":"","latitude":"51.3563500","longitude":"0.2969700","fclass":"P","fcode":"PPL","country":"GB","cc2":"","admin1":"ENG","admin2":"G5","admin3":"6945814","admin4":"29UK001","population":0,"elevation":0,"gtopo30":146,"timezone":"Europe/London","moddate":"2018-07-03T00:00:00.000Z"},{"geonameid":2656955,"name":"Ashford","asciiname":"Ashford","alternatenames":"Asfordas,Ashford,Ashford i Kent,Ašfordas,Ehshford,Eshford,QDH,a shen fu de,aesyupeodeu,ashfwrd  knt,Ешфорд,Эшфорд,اشفورد، کنت,阿什福德,애슈퍼드","latitude":"51.1464800","longitude":"0.8737600","fclass":"P","fcode":"PPLA3","country":"GB","cc2":"","admin1":"ENG","admin2":"G5","admin3":"29UB","admin4":"","population":62787,"elevation":0,"gtopo30":50,"timezone":"Europe/London","moddate":"2014-08-29T00:00:00.000Z"},{"geonameid":10109471,"name":"Ashurst","asciiname":"Ashurst","alternatenames":"","latitude":"51.1297900","longitude":"0.1542400","fclass":"P","fcode":"PPL","country":"GB","cc2":"","admin1":"ENG","admin2":"G5","admin3":"29UQ","admin4":"29UQ015","population":0,"elevation":0,"gtopo30":49,"timezone":"Europe/London","moddate":"2015-02-21T00:00:00.000Z"},{"geonameid":2656716,"name":"Aylesford","asciiname":"Aylesford","alternatenames":"AEgelesthrep,Ægelesþrep","latitude":"51.3037400","longitude":"0.4793600","fclass":"P","fcode":"PPL","country":"GB","cc2":"","admin1":"ENG","admin2":"G5","admin3":"29UP","admin4":"29UP002","population":4548,"elevation":0,"gtopo30":5,"timezone":"Europe/London","moddate":"2018-07-03T00:00:00.000Z"},{"geonameid":7115300,"name":"Aylesham","asciiname":"Aylesham","alternatenames":"","latitude":"51.2253900","longitude":"1.2015700","fclass":"P","fcode":"PPL","country":"GB","cc2":"","admin1":"ENG","admin2":"G5","admin3":"29UE","admin4":"29UE003","population":3793,"elevation":0,"gtopo30":77,"timezone":"Europe/London","moddate":"2018-07-03T00:00:00.000Z"},{"geonameid":2656646,"name":"Badlesmere","asciiname":"Badlesmere","alternatenames":"","latitude":"51.2417200","longitude":"0.8769800","fclass":"P","fcode":"PPL","country":"GB","cc2":"","admin1":"ENG","admin2":"G5","admin3":"29UM","admin4":"29UM035","population":0,"elevation":0,"gtopo30":104,"timezone":"Europe/London","moddate":"2018-07-03T00:00:00.000Z"},{"geonameid":2656375,"name":"Bapchild","asciiname":"Bapchild","alternatenames":"","latitude":"51.3335100","longitude":"0.7685300","fclass":"P","fcode":"PPL","country":"GB","cc2":"","admin1":"ENG","admin2":"G5","admin3":"29UM","admin4":"29UM002","population":0,"elevation":0,"gtopo30":13,"timezone":"Europe/London","moddate":"2018-07-03T00:00:00.000Z"},{"geonameid":2656344,"name":"Barfreston","asciiname":"Barfreston","alternatenames":"","latitude":"51.2059200","longitude":"1.2402500","fclass":"P","fcode":"PPL","country":"GB","cc2":"","admin1":"ENG","admin2":"G5","admin3":"29UE","admin4":"29UE007","population":0,"elevation":0,"gtopo30":66,"timezone":"Europe/London","moddate":"2018-07-03T00:00:00.000Z"},{"geonameid":6620354,"name":"Barham","asciiname":"Barham","alternatenames":"","latitude":"51.2057000","longitude":"1.1573400","fclass":"P","fcode":"PPL","country":"GB","cc2":"","admin1":"ENG","admin2":"G5","admin3":"6945807","admin4":"29UC002","population":1114,"elevation":0,"gtopo30":53,"timezone":"Europe/London","moddate":"2018-07-03T00:00:00.000Z"},{"geonameid":11073401,"name":"Beachborough","asciiname":"Beachborough","alternatenames":"","latitude":"51.1029800","longitude":"1.0925000","fclass":"P","fcode":"PPL","country":"GB","cc2":"","admin1":"ENG","admin2":"G5","admin3":"6945806","admin4":"29UL016","population":0,"elevation":0,"gtopo30":118,"timezone":"Europe/London","moddate":"2016-06-22T00:00:00.000Z"},{"geonameid":11592819,"name":"Bean","asciiname":"Bean","alternatenames":"","latitude":"51.4242900","longitude":"0.2876200","fclass":"P","fcode":"PPL","country":"GB","cc2":"","admin1":"ENG","admin2":"G5","admin3":"29UD","admin4":"29UD001","population":0,"elevation":0,"gtopo30":87,"timezone":"Europe/London","moddate":"2017-06-19T00:00:00.000Z"},{"geonameid":2656085,"name":"Bearsted","asciiname":"Bearsted","alternatenames":"","latitude":"51.2708700","longitude":"0.5747900","fclass":"P","fcode":"PPL","country":"GB","cc2":"","admin1":"ENG","admin2":"G5","admin3":"29UH","admin4":"29UH002","population":0,"elevation":0,"gtopo30":72,"timezone":"Europe/London","moddate":"2018-07-03T00:00:00.000Z"},{"geonameid":2655993,"name":"Bekesbourne","asciiname":"Bekesbourne","alternatenames":"","latitude":"51.2558700","longitude":"1.1371300","fclass":"P","fcode":"PPL","country":"GB","cc2":"","admin1":"ENG","admin2":"G5","admin3":"6945807","admin4":"29UC003","population":0,"elevation":0,"gtopo30":23,"timezone":"Europe/London","moddate":"2018-07-03T00:00:00.000Z"},{"geonameid":3209902,"name":"Beltinge","asciiname":"Beltinge","alternatenames":"","latitude":"51.3707400","longitude":"1.1568000","fclass":"P","fcode":"PPL","country":"GB","cc2":"","admin1":"ENG","admin2":"G5","admin3":"29UE","admin4":"","population":0,"elevation":0,"gtopo30":34,"timezone":"Europe/London","moddate":"2011-03-03T00:00:00.000Z"},{"geonameid":2655904,"name":"Benenden","asciiname":"Benenden","alternatenames":"Beneden,Benenden","latitude":"51.0669100","longitude":"0.5812500","fclass":"P","fcode":"PPL","country":"GB","cc2":"GB","admin1":"ENG","admin2":"G5","admin3":"29UQ","admin4":"29UQ001","population":787,"elevation":0,"gtopo30":100,"timezone":"Europe/London","moddate":"2018-07-03T00:00:00.000Z"},{"geonameid":2655805,"name":"Bethersden","asciiname":"Bethersden","alternatenames":"","latitude":"51.1286900","longitude":"0.7527600","fclass":"P","fcode":"PPL","country":"GB","cc2":"","admin1":"ENG","admin2":"G5","admin3":"29UB","admin4":"29UB003","population":876,"elevation":0,"gtopo30":35,"timezone":"Europe/London","moddate":"2018-07-03T00:00:00.000Z"},{"geonameid":2655716,"name":"Bicknor","asciiname":"Bicknor","alternatenames":"","latitude":"51.2950700","longitude":"0.6687500","fclass":"P","fcode":"PPL","country":"GB","cc2":"","admin1":"ENG","admin2":"G5","admin3":"29UH","admin4":"29UH003","population":0,"elevation":0,"gtopo30":150,"timezone":"Europe/London","moddate":"2018-07-03T00:00:00.000Z"},{"geonameid":2655714,"name":"Bidborough","asciiname":"Bidborough","alternatenames":"","latitude":"51.1695000","longitude":"0.2368900","fclass":"P","fcode":"PPL","country":"GB","cc2":"","admin1":"ENG","admin2":"G5","admin3":"29UQ","admin4":"29UQ002","population":0,"elevation":0,"gtopo30":125,"timezone":"Europe/London","moddate":"2018-07-03T00:00:00.000Z"},{"geonameid":2655713,"name":"Biddenden","asciiname":"Biddenden","alternatenames":"Biddenden","latitude":"51.1148900","longitude":"0.6381900","fclass":"P","fcode":"PPL","country":"GB","cc2":"","admin1":"ENG","admin2":"G5","admin3":"29UB","admin4":"29UB004","population":1303,"elevation":0,"gtopo30":47,"timezone":"Europe/London","moddate":"2018-07-03T00:00:00.000Z"},{"geonameid":2655656,"name":"Bilsington","asciiname":"Bilsington","alternatenames":"","latitude":"51.0734100","longitude":"0.9107100","fclass":"P","fcode":"PPL","country":"GB","cc2":"","admin1":"ENG","admin2":"G5","admin3":"29UB","admin4":"29UB005","population":0,"elevation":0,"gtopo30":22,"timezone":"Europe/London","moddate":"2018-07-03T00:00:00.000Z"},{"geonameid":2655627,"name":"Birchington-on-Sea","asciiname":"Birchington-on-Sea","alternatenames":"Birchington","latitude":"51.3757500","longitude":"1.3048000","fclass":"P","fcode":"PPL","country":"GB","cc2":"","admin1":"ENG","admin2":"G5","admin3":"2636057","admin4":"29UN002","population":9827,"elevation":0,"gtopo30":26,"timezone":"Europe/London","moddate":"2018-07-03T00:00:00.000Z"},{"geonameid":2655607,"name":"Birling","asciiname":"Birling","alternatenames":"","latitude":"51.3190300","longitude":"0.4095000","fclass":"P","fcode":"PPL","country":"GB","cc2":"","admin1":"ENG","admin2":"G5","admin3":"29UP","admin4":"29UP003","population":0,"elevation":0,"gtopo30":30,"timezone":"Europe/London","moddate":"2018-07-03T00:00:00.000Z"},{"geonameid":7284170,"name":"Bishopsbourne","asciiname":"Bishopsbourne","alternatenames":"","latitude":"51.2292700","longitude":"1.1352400","fclass":"P","fcode":"PPL","country":"GB","cc2":"","admin1":"ENG","admin2":"G5","admin3":"6945807","admin4":"29UC004","population":0,"elevation":0,"gtopo30":37,"timezone":"Europe/London","moddate":"2018-07-03T00:00:00.000Z"},{"geonameid":3209901,"name":"Bishopstone","asciiname":"Bishopstone","alternatenames":"","latitude":"51.3708300","longitude":"1.1916700","fclass":"P","fcode":"PPL","country":"GB","cc2":"","admin1":"ENG","admin2":"G5","admin3":"6945807","admin4":"","population":0,"elevation":0,"gtopo30":8,"timezone":"Europe/London","moddate":"2013-07-11T00:00:00.000Z"},{"geonameid":2655365,"name":"Blean","asciiname":"Blean","alternatenames":"","latitude":"51.3067900","longitude":"1.0430100","fclass":"P","fcode":"PPL","country":"GB","cc2":"","admin1":"ENG","admin2":"G5","admin3":"6945807","admin4":"29UC018","population":1536,"elevation":0,"gtopo30":79,"timezone":"Europe/London","moddate":"2018-07-03T00:00:00.000Z"},{"geonameid":2655297,"name":"Bobbing","asciiname":"Bobbing","alternatenames":"","latitude":"51.3554600","longitude":"0.7121800","fclass":"P","fcode":"PPL","country":"GB","cc2":"","admin1":"ENG","admin2":"G5","admin3":"29UM","admin4":"29UM003","population":0,"elevation":0,"gtopo30":32,"timezone":"Europe/London","moddate":"2018-07-03T00:00:00.000Z"},{"geonameid":2655193,"name":"Borden","asciiname":"Borden","alternatenames":"","latitude":"51.3342600","longitude":"0.7003800","fclass":"P","fcode":"PPL","country":"GB","cc2":"","admin1":"ENG","admin2":"G5","admin3":"29UM","admin4":"29UM004","population":741,"elevation":0,"gtopo30":60,"timezone":"Europe/London","moddate":"2018-07-03T00:00:00.000Z"},{"geonameid":2655172,"name":"Borough Green","asciiname":"Borough Green","alternatenames":"","latitude":"51.2915800","longitude":"0.3047800","fclass":"P","fcode":"PPL","country":"GB","cc2":"","admin1":"ENG","admin2":"G5","admin3":"29UP","admin4":"29UP004","population":4342,"elevation":0,"gtopo30":92,"timezone":"Europe/London","moddate":"2018-07-03T00:00:00.000Z"},{"geonameid":2655116,"name":"Boughton Aluph","asciiname":"Boughton Aluph","alternatenames":"","latitude":"51.1998900","longitude":"0.9059300","fclass":"P","fcode":"PPL","country":"GB","cc2":"","admin1":"ENG","admin2":"G5","admin3":"29UB","admin4":"29UB007","population":0,"elevation":0,"gtopo30":83,"timezone":"Europe/London","moddate":"2020-03-10T00:00:00.000Z"},{"geonameid":2655115,"name":"Boughton Malherbe","asciiname":"Boughton Malherbe","alternatenames":"","latitude":"51.2139800","longitude":"0.6919700","fclass":"P","fcode":"PPL","country":"GB","cc2":"","admin1":"ENG","admin2":"G5","admin3":"29UH","admin4":"29UH004","population":0,"elevation":0,"gtopo30":124,"timezone":"Europe/London","moddate":"2018-07-03T00:00:00.000Z"},{"geonameid":2655114,"name":"Boughton Monchelsea","asciiname":"Boughton Monchelsea","alternatenames":"","latitude":"51.2292200","longitude":"0.5326700","fclass":"P","fcode":"PPL","country":"GB","cc2":"","admin1":"ENG","admin2":"G5","admin3":"29UH","admin4":"29UH005","population":0,"elevation":0,"gtopo30":112,"timezone":"Europe/London","moddate":"2018-07-03T00:00:00.000Z"},{"geonameid":2655111,"name":"Boughton Street","asciiname":"Boughton Street","alternatenames":"","latitude":"51.2933800","longitude":"0.9513500","fclass":"P","fcode":"PPL","country":"GB","cc2":"","admin1":"ENG","admin2":"G5","admin3":"29UM","admin4":"29UM005","population":0,"elevation":0,"gtopo30":33,"timezone":"Europe/London","moddate":"2018-07-03T00:00:00.000Z"},{"geonameid":2655040,"name":"Boxley","asciiname":"Boxley","alternatenames":"","latitude":"51.3023900","longitude":"0.5421900","fclass":"P","fcode":"PPLA4","country":"GB","cc2":"","admin1":"ENG","admin2":"G5","admin3":"29UH","admin4":"29UH006","population":0,"elevation":0,"gtopo30":66,"timezone":"Europe/London","moddate":"2014-08-28T00:00:00.000Z"},{"geonameid":2655021,"name":"Brabourne","asciiname":"Brabourne","alternatenames":"","latitude":"51.1362100","longitude":"1.0055700","fclass":"P","fcode":"PPL","country":"GB","cc2":"","admin1":"ENG","admin2":"G5","admin3":"29UB","admin4":"29UB008","population":0,"elevation":0,"gtopo30":95,"timezone":"Europe/London","moddate":"2018-07-03T00:00:00.000Z"},{"geonameid":2654871,"name":"Brasted","asciiname":"Brasted","alternatenames":"","latitude":"51.2766000","longitude":"0.1106800","fclass":"P","fcode":"PPL","country":"GB","cc2":"","admin1":"ENG","admin2":"G5","admin3":"6945814","admin4":"29UK002","population":844,"elevation":0,"gtopo30":90,"timezone":"Europe/London","moddate":"2018-07-03T00:00:00.000Z"},{"geonameid":2654809,"name":"Bredgar","asciiname":"Bredgar","alternatenames":"","latitude":"51.3122400","longitude":"0.6967700","fclass":"P","fcode":"PPL","country":"GB","cc2":"","admin1":"ENG","admin2":"G5","admin3":"29UM","admin4":"29UM006","population":443,"elevation":0,"gtopo30":85,"timezone":"Europe/London","moddate":"2018-07-03T00:00:00.000Z"},{"geonameid":2654808,"name":"Bredhurst","asciiname":"Bredhurst","alternatenames":"Bredhurst","latitude":"51.3309900","longitude":"0.5760500","fclass":"P","fcode":"PPL","country":"GB","cc2":"","admin1":"ENG","admin2":"G5","admin3":"29UH","admin4":"29UH007","population":0,"elevation":0,"gtopo30":134,"timezone":"Europe/London","moddate":"2018-07-03T00:00:00.000Z"},{"geonameid":2654794,"name":"Brenchley","asciiname":"Brenchley","alternatenames":"","latitude":"51.1514100","longitude":"0.3982500","fclass":"P","fcode":"PPL","country":"GB","cc2":"","admin1":"ENG","admin2":"G5","admin3":"29UQ","admin4":"29UQ003","population":1171,"elevation":0,"gtopo30":96,"timezone":"Europe/London","moddate":"2018-07-03T00:00:00.000Z"},{"geonameid":2654781,"name":"Brenzett","asciiname":"Brenzett","alternatenames":"","latitude":"51.0100800","longitude":"0.8541900","fclass":"P","fcode":"PPL","country":"GB","cc2":"","admin1":"ENG","admin2":"G5","admin3":"6945806","admin4":"29UL002","population":0,"elevation":0,"gtopo30":3,"timezone":"Europe/London","moddate":"2018-07-03T00:00:00.000Z"},{"geonameid":2654760,"name":"Bridge","asciiname":"Bridge","alternatenames":"","latitude":"51.2451300","longitude":"1.1264000","fclass":"P","fcode":"PPL","country":"GB","cc2":"","admin1":"ENG","admin2":"G5","admin3":"6945807","admin4":"29UC005","population":1576,"elevation":0,"gtopo30":27,"timezone":"Europe/London","moddate":"2018-07-03T00:00:00.000Z"},{"geonameid":2654635,"name":"Broadstairs","asciiname":"Broadstairs","alternatenames":"Broadstairs,Brodstejrz,Brodsters,Бродстейрз,Бродстерс","latitude":"51.3590800","longitude":"1.4393800","fclass":"P","fcode":"PPL","country":"GB","cc2":"","admin1":"ENG","admin2":"G5","admin3":"2636057","admin4":"29UN003","population":23283,"elevation":0,"gtopo30":36,"timezone":"Europe/London","moddate":"2018-07-03T00:00:00.000Z"},{"geonameid":2654585,"name":"Brompton","asciiname":"Brompton","alternatenames":"","latitude":"51.4000000","longitude":"0.5333300","fclass":"P","fcode":"PPL","country":"GB","cc2":"","admin1":"ENG","admin2":"G5","admin3":"","admin4":"","population":0,"elevation":0,"gtopo30":3,"timezone":"Europe/London","moddate":"2007-06-15T00:00:00.000Z"},{"geonameid":2654569,"name":"Brook","asciiname":"Brook","alternatenames":"","latitude":"51.1590300","longitude":"0.9498900","fclass":"P","fcode":"PPL","country":"GB","cc2":"","admin1":"ENG","admin2":"G5","admin3":"29UB","admin4":"29UB009","population":310,"elevation":0,"gtopo30":45,"timezone":"Europe/London","moddate":"2018-07-03T00:00:00.000Z"},{"geonameid":2654564,"name":"Brookland","asciiname":"Brookland","alternatenames":"","latitude":"50.9993900","longitude":"0.8379700","fclass":"P","fcode":"PPL","country":"GB","cc2":"","admin1":"ENG","admin2":"G5","admin3":"6945806","admin4":"29UL003","population":479,"elevation":0,"gtopo30":2,"timezone":"Europe/London","moddate":"2018-07-03T00:00:00.000Z"},{"geonameid":2654592,"name":"Broomfield","asciiname":"Broomfield","alternatenames":"","latitude":"51.2436500","longitude":"0.6346300","fclass":"P","fcode":"PPL","country":"GB","cc2":"","admin1":"ENG","admin2":"G5","admin3":"29UH","admin4":"29UH008","population":0,"elevation":0,"gtopo30":61,"timezone":"Europe/London","moddate":"2018-07-03T00:00:00.000Z"},{"geonameid":3209904,"name":"Broomfield","asciiname":"Broomfield","alternatenames":"","latitude":"51.3574900","longitude":"1.1573600","fclass":"P","fcode":"PPL","country":"GB","cc2":"","admin1":"ENG","admin2":"G5","admin3":"6945807","admin4":"29UC026","population":0,"elevation":0,"gtopo30":39,"timezone":"Europe/London","moddate":"2018-07-03T00:00:00.000Z"},{"geonameid":2654293,"name":"Burham","asciiname":"Burham","alternatenames":"","latitude":"51.3324300","longitude":"0.4783300","fclass":"P","fcode":"PPL","country":"GB","cc2":"","admin1":"ENG","admin2":"G5","admin3":"29UP","admin4":"29UP005","population":1195,"elevation":0,"gtopo30":49,"timezone":"Europe/London","moddate":"2018-07-03T00:00:00.000Z"},{"geonameid":2654283,"name":"Burmarsh","asciiname":"Burmarsh","alternatenames":"","latitude":"51.0485700","longitude":"0.9969200","fclass":"P","fcode":"PPL","country":"GB","cc2":"","admin1":"ENG","admin2":"G5","admin3":"6945806","admin4":"29UL004","population":0,"elevation":0,"gtopo30":3,"timezone":"Europe/London","moddate":"2018-07-03T00:00:00.000Z"},{"geonameid":2653877,"name":"Canterbury","asciiname":"Canterbury","alternatenames":"Caergaint,Canterbury,Cantorbery,Cantorbéry,Cantuaria,Cantuária,Cantwaraburg,Cantwarebyrig,Durovernum,Durovernum Canticorum,Kantaraborg,Kanterberi,Kantermperi,Kentehrbery,Kenterberi,Kenterberija,Kenterberis,Kenturburi,gen de bo li,kaenteobeli,kan te bo lei,kantaberi,kantrbyry,kntrbry,qntrbry,Κάντερμπερι,Кантербери,Кентербери,Кентербері,Кентърбъри,Кентэрберы,Քենթերբերի,קנטרברי,كانتربيري,کنتربری,カンタベリー,坎特伯雷,根德伯里,캔터베리","latitude":"51.2790400","longitude":"1.0799200","fclass":"P","fcode":"PPL","country":"GB","cc2":"","admin1":"ENG","admin2":"G5","admin3":"6945807","admin4":"","population":55240,"elevation":0,"gtopo30":19,"timezone":"Europe/London","moddate":"2019-09-05T00:00:00.000Z"},{"geonameid":10376294,"name":"Capel le Ferne","asciiname":"Capel le Ferne","alternatenames":"","latitude":"51.1033900","longitude":"1.2116500","fclass":"P","fcode":"PPL","country":"GB","cc2":"","admin1":"ENG","admin2":"G5","admin3":"29UE","admin4":"29UE004","population":1386,"elevation":0,"gtopo30":152,"timezone":"Europe/London","moddate":"2017-06-13T00:00:00.000Z"},{"geonameid":11593129,"name":"Challock","asciiname":"Challock","alternatenames":"","latitude":"51.2168800","longitude":"0.8770200","fclass":"P","fcode":"PPL","country":"GB","cc2":"","admin1":"ENG","admin2":"G5","admin3":"29UB","admin4":"29UB010","population":0,"elevation":0,"gtopo30":162,"timezone":"Europe/London","moddate":"2017-06-21T00:00:00.000Z"},{"geonameid":2653342,"name":"Charing","asciiname":"Charing","alternatenames":"","latitude":"51.2107300","longitude":"0.7946600","fclass":"P","fcode":"PPL","country":"GB","cc2":"","admin1":"ENG","admin2":"G5","admin3":"29UB","admin4":"29UB011","population":1841,"elevation":0,"gtopo30":103,"timezone":"Europe/London","moddate":"2018-07-03T00:00:00.000Z"},{"geonameid":11593130,"name":"Chart Sutton","asciiname":"Chart Sutton","alternatenames":"","latitude":"51.2232800","longitude":"0.5714600","fclass":"P","fcode":"PPL","country":"GB","cc2":"","admin1":"ENG","admin2":"G5","admin3":"29UH","admin4":"29UH009","population":0,"elevation":0,"gtopo30":108,"timezone":"Europe/London","moddate":"2017-06-21T00:00:00.000Z"},{"geonameid":2653310,"name":"Chartham","asciiname":"Chartham","alternatenames":"","latitude":"51.2562000","longitude":"1.0183600","fclass":"P","fcode":"PPL","country":"GB","cc2":"","admin1":"ENG","admin2":"G5","admin3":"6945807","admin4":"29UC006","population":2836,"elevation":0,"gtopo30":18,"timezone":"Europe/London","moddate":"2018-07-03T00:00:00.000Z"},{"geonameid":2653305,"name":"Chatham","asciiname":"Chatham","alternatenames":"Catamas,Chatam,Chatem,Chatham,Chatham i Kent,chaeteom,chatamu,chatham  knt,Čatamas,Чатам,Чатем,چاتهام، کنت,チャタム,채텀","latitude":"51.3789100","longitude":"0.5278600","fclass":"P","fcode":"PPL","country":"GB","cc2":"","admin1":"ENG","admin2":"G5","admin3":"","admin4":"","population":75509,"elevation":0,"gtopo30":21,"timezone":"Europe/London","moddate":"2010-08-03T00:00:00.000Z"},{"geonameid":2653216,"name":"Chestfield","asciiname":"Chestfield","alternatenames":"","latitude":"51.3573500","longitude":"1.0655900","fclass":"P","fcode":"PPL","country":"GB","cc2":"","admin1":"ENG","admin2":"G5","admin3":"6945807","admin4":"29UC007","population":0,"elevation":0,"gtopo30":11,"timezone":"Europe/London","moddate":"2018-07-03T00:00:00.000Z"},{"geonameid":2653204,"name":"Chevening","asciiname":"Chevening","alternatenames":"","latitude":"51.2928400","longitude":"0.1395200","fclass":"P","fcode":"PPL","country":"GB","cc2":"","admin1":"ENG","admin2":"G5","admin3":"6945814","admin4":"29UK003","population":0,"elevation":0,"gtopo30":97,"timezone":"Europe/London","moddate":"2018-07-03T00:00:00.000Z"},{"geonameid":2653181,"name":"Chiddingstone","asciiname":"Chiddingstone","alternatenames":"","latitude":"51.1860700","longitude":"0.1483200","fclass":"P","fcode":"PPL","country":"GB","cc2":"","admin1":"ENG","admin2":"G5","admin3":"6945814","admin4":"29UK004","population":0,"elevation":0,"gtopo30":60,"timezone":"Europe/London","moddate":"2018-07-03T00:00:00.000Z"},{"geonameid":2653167,"name":"Chilham","asciiname":"Chilham","alternatenames":"","latitude":"51.2441300","longitude":"0.9622500","fclass":"P","fcode":"PPL","country":"GB","cc2":"","admin1":"ENG","admin2":"G5","admin3":"29UB","admin4":"29UB012","population":379,"elevation":0,"gtopo30":47,"timezone":"Europe/London","moddate":"2018-07-03T00:00:00.000Z"},{"geonameid":2653164,"name":"Chillenden","asciiname":"Chillenden","alternatenames":"","latitude":"51.2355800","longitude":"1.2519100","fclass":"P","fcode":"PPL","country":"GB","cc2":"","admin1":"ENG","admin2":"G5","admin3":"29UE","admin4":"29UE008","population":0,"elevation":0,"gtopo30":30,"timezone":"Europe/London","moddate":"2018-07-03T00:00:00.000Z"},{"geonameid":10246622,"name":"Chipstead, Kent","asciiname":"Chipstead, Kent","alternatenames":"","latitude":"51.2841700","longitude":"0.1468600","fclass":"P","fcode":"PPL","country":"GB","cc2":"","admin1":"ENG","admin2":"G5","admin3":"6945814","admin4":"29UK003","population":0,"elevation":0,"gtopo30":77,"timezone":"Europe/London","moddate":"2016-06-22T00:00:00.000Z"},{"geonameid":2653122,"name":"Chislet","asciiname":"Chislet","alternatenames":"","latitude":"51.3349600","longitude":"1.1914200","fclass":"P","fcode":"PPL","country":"GB","cc2":"","admin1":"ENG","admin2":"G5","admin3":"6945807","admin4":"29UC008","population":0,"elevation":0,"gtopo30":18,"timezone":"Europe/London","moddate":"2018-07-03T00:00:00.000Z"},{"geonameid":10376303,"name":"Church Hougham","asciiname":"Church Hougham","alternatenames":"","latitude":"51.1140000","longitude":"1.2557000","fclass":"P","fcode":"PPL","country":"GB","cc2":"","admin1":"ENG","admin2":"G5","admin3":"29UE","admin4":"29UE010","population":0,"elevation":0,"gtopo30":135,"timezone":"Europe/London","moddate":"2015-07-12T00:00:00.000Z"},{"geonameid":8224219,"name":"Cliffsend","asciiname":"Cliffsend","alternatenames":"Cliffs End","latitude":"51.3299700","longitude":"1.3667700","fclass":"P","fcode":"PPL","country":"GB","cc2":"","admin1":"ENG","admin2":"G5","admin3":"2636057","admin4":"29UN010","population":0,"elevation":0,"gtopo30":16,"timezone":"Europe/London","moddate":"2017-12-01T00:00:00.000Z"},{"geonameid":3209887,"name":"Cliftonville","asciiname":"Cliftonville","alternatenames":"","latitude":"51.3887100","longitude":"1.4050500","fclass":"P","fcode":"PPL","country":"GB","cc2":"","admin1":"ENG","admin2":"G5","admin3":"2636057","admin4":"","population":0,"elevation":0,"gtopo30":28,"timezone":"Europe/London","moddate":"2017-12-01T00:00:00.000Z"},{"geonameid":2652688,"name":"Cobham","asciiname":"Cobham","alternatenames":"","latitude":"51.3902400","longitude":"0.4024400","fclass":"P","fcode":"PPL","country":"GB","cc2":"","admin1":"ENG","admin2":"G5","admin3":"29UG","admin4":"29UG001","population":0,"elevation":0,"gtopo30":112,"timezone":"Europe/London","moddate":"2018-07-03T00:00:00.000Z"},{"geonameid":2652604,"name":"Coldred","asciiname":"Coldred","alternatenames":"","latitude":"51.1763300","longitude":"1.2460900","fclass":"P","fcode":"PPL","country":"GB","cc2":"","admin1":"ENG","admin2":"G5","admin3":"29UE","admin4":"29UE021","population":0,"elevation":0,"gtopo30":126,"timezone":"Europe/London","moddate":"2018-07-03T00:00:00.000Z"},{"geonameid":2652208,"name":"Cowden","asciiname":"Cowden","alternatenames":"","latitude":"51.1448100","longitude":"0.0934700","fclass":"P","fcode":"PPL","country":"GB","cc2":"","admin1":"ENG","admin2":"G5","admin3":"6945814","admin4":"29UK005","population":0,"elevation":0,"gtopo30":80,"timezone":"Europe/London","moddate":"2018-07-03T00:00:00.000Z"},{"geonameid":11592732,"name":"Coxheath","asciiname":"Coxheath","alternatenames":"","latitude":"51.2332000","longitude":"0.4959700","fclass":"P","fcode":"PPL","country":"GB","cc2":"","admin1":"ENG","admin2":"G5","admin3":"29UH","admin4":"29UH010","population":0,"elevation":0,"gtopo30":122,"timezone":"Europe/London","moddate":"2017-06-19T00:00:00.000Z"},{"geonameid":2652088,"name":"Cranbrook","asciiname":"Cranbrook","alternatenames":"Cranbrook i Kent,kranbrwk  knt,کرانبروک، کنت","latitude":"51.0966200","longitude":"0.5356700","fclass":"P","fcode":"PPL","country":"GB","cc2":"","admin1":"ENG","admin2":"G5","admin3":"29UQ","admin4":"29UQ005","population":4368,"elevation":0,"gtopo30":77,"timezone":"Europe/London","moddate":"2018-07-03T00:00:00.000Z"},{"geonameid":2651959,"name":"Crockham Hill","asciiname":"Crockham Hill","alternatenames":"Crockham Hill","latitude":"51.2365600","longitude":"0.0642900","fclass":"P","fcode":"PPL","country":"GB","cc2":"","admin1":"ENG","admin2":"G5","admin3":"6945814","admin4":"29UK028","population":291,"elevation":0,"gtopo30":122,"timezone":"Europe/London","moddate":"2018-07-03T00:00:00.000Z"},{"geonameid":10104873,"name":"Crockhurst Street","asciiname":"Crockhurst Street","alternatenames":"","latitude":"51.1801500","longitude":"0.3192500","fclass":"P","fcode":"PPL","country":"GB","cc2":"","admin1":"ENG","admin2":"G5","admin3":"29UQ","admin4":"29UQ004","population":0,"elevation":0,"gtopo30":54,"timezone":"Europe/London","moddate":"2015-02-18T00:00:00.000Z"},{"geonameid":2651799,"name":"Crundale","asciiname":"Crundale","alternatenames":"","latitude":"51.2036600","longitude":"0.9741800","fclass":"P","fcode":"PPL","country":"GB","cc2":"","admin1":"ENG","admin2":"G5","admin3":"29UB","admin4":"29UB013","population":0,"elevation":0,"gtopo30":64,"timezone":"Europe/London","moddate":"2018-07-03T00:00:00.000Z"},{"geonameid":6690814,"name":"Culverstone Green","asciiname":"Culverstone Green","alternatenames":"","latitude":"51.3408500","longitude":"0.3468600","fclass":"P","fcode":"PPLX","country":"GB","cc2":"","admin1":"ENG","admin2":"G5","admin3":"29UG","admin4":"29UG004","population":4001,"elevation":0,"gtopo30":178,"timezone":"Europe/London","moddate":"2018-07-03T00:00:00.000Z"},{"geonameid":2651522,"name":"Darenth","asciiname":"Darenth","alternatenames":"","latitude":"51.4213700","longitude":"0.2578400","fclass":"P","fcode":"PPL","country":"GB","cc2":"","admin1":"ENG","admin2":"G5","admin3":"29UD","admin4":"29UD002","population":2481,"elevation":0,"gtopo30":53,"timezone":"Europe/London","moddate":"2018-07-03T00:00:00.000Z"},{"geonameid":2651500,"name":"Dartford","asciiname":"Dartford","alternatenames":"Dartford,Dartfordas,Dartforde,da te fu de,dartfwrd,dateupeodeu,Дартфорд,Дартфорде,دارتفورد,達特福德,다트퍼드","latitude":"51.4465700","longitude":"0.2142300","fclass":"P","fcode":"PPL","country":"GB","cc2":"","admin1":"ENG","admin2":"G5","admin3":"29UD","admin4":"","population":56694,"elevation":0,"gtopo30":8,"timezone":"Europe/London","moddate":"2015-07-19T00:00:00.000Z"},{"geonameid":2651468,"name":"Deal","asciiname":"Deal","alternatenames":"","latitude":"51.2232200","longitude":"1.4043200","fclass":"P","fcode":"PPL","country":"GB","cc2":"","admin1":"ENG","admin2":"G5","admin3":"29UE","admin4":"29UE032","population":30555,"elevation":0,"gtopo30":4,"timezone":"Europe/London","moddate":"2018-07-03T00:00:00.000Z"},{"geonameid":6619433,"name":"Densole","asciiname":"Densole","alternatenames":"","latitude":"51.1298100","longitude":"1.1583700","fclass":"P","fcode":"PPL","country":"GB","cc2":"","admin1":"ENG","admin2":"G5","admin3":"6945806","admin4":"29UL028","population":937,"elevation":0,"gtopo30":154,"timezone":"Europe/London","moddate":"2018-07-03T00:00:00.000Z"},{"geonameid":2651360,"name":"Denton","asciiname":"Denton","alternatenames":"","latitude":"51.1835400","longitude":"1.1610300","fclass":"P","fcode":"PPL","country":"GB","cc2":"","admin1":"ENG","admin2":"G5","admin3":"29UE","admin4":"29UE005","population":0,"elevation":0,"gtopo30":112,"timezone":"Europe/London","moddate":"2018-07-03T00:00:00.000Z"},{"geonameid":2651303,"name":"Detling","asciiname":"Detling","alternatenames":"Detling","latitude":"51.2945900","longitude":"0.5698700","fclass":"P","fcode":"PPL","country":"GB","cc2":"","admin1":"ENG","admin2":"G5","admin3":"29UH","admin4":"29UH011","population":658,"elevation":0,"gtopo30":109,"timezone":"Europe/London","moddate":"2018-07-03T00:00:00.000Z"},{"geonameid":2651182,"name":"Doddington","asciiname":"Doddington","alternatenames":"","latitude":"51.2813800","longitude":"0.7722600","fclass":"P","fcode":"PPL","country":"GB","cc2":"","admin1":"ENG","admin2":"G5","admin3":"29UM","admin4":"29UM008","population":0,"elevation":0,"gtopo30":76,"timezone":"Europe/London","moddate":"2018-07-03T00:00:00.000Z"},{"geonameid":2651048,"name":"Dover","asciiname":"Dover","alternatenames":"Dofras,Douvres,Dover,Dovero,Dubris,Duur,Duvr,Duvur,Ntover,QQD,doba,dobeo,dovhara,du hua,duo fu er,duvri,dwbr,dwfr,dwwr,Ντόβερ,Довер,Дувр,Дувър,Дуўр,דובר,آبنائے ڈوور,دوفر,دوور,डोव्हर,დუვრი,ドーバー,多佛尔,度華,도버","latitude":"51.1259800","longitude":"1.3125700","fclass":"P","fcode":"PPL","country":"GB","cc2":"","admin1":"ENG","admin2":"G5","admin3":"29UE","admin4":"29UE033","population":41709,"elevation":0,"gtopo30":12,"timezone":"Europe/London","moddate":"2019-09-05T00:00:00.000Z"},{"geonameid":9612894,"name":"Dungeness","asciiname":"Dungeness","alternatenames":"Dungeness-fok","latitude":"50.9140100","longitude":"0.9563900","fclass":"P","fcode":"PPL","country":"GB","cc2":"","admin1":"ENG","admin2":"G5","admin3":"6945806","admin4":"29UL011","population":0,"elevation":0,"gtopo30":6,"timezone":"Europe/London","moddate":"2017-06-08T00:00:00.000Z"},{"geonameid":2650712,"name":"Dunkirk","asciiname":"Dunkirk","alternatenames":"","latitude":"51.2916900","longitude":"0.9792900","fclass":"P","fcode":"PPL","country":"GB","cc2":"","admin1":"ENG","admin2":"G5","admin3":"29UM","admin4":"29UM009","population":278,"elevation":0,"gtopo30":118,"timezone":"Europe/London","moddate":"2018-07-03T00:00:00.000Z"},{"geonameid":10246627,"name":"Dunton Green","asciiname":"Dunton Green","alternatenames":"","latitude":"51.2941800","longitude":"0.1665500","fclass":"P","fcode":"PPL","country":"GB","cc2":"","admin1":"ENG","admin2":"G5","admin3":"6945814","admin4":"29UK007","population":0,"elevation":0,"gtopo30":82,"timezone":"Europe/London","moddate":"2016-06-22T00:00:00.000Z"},{"geonameid":2650589,"name":"Dymchurch","asciiname":"Dymchurch","alternatenames":"Dymchurch","latitude":"51.0254400","longitude":"0.9939200","fclass":"P","fcode":"PPL","country":"GB","cc2":"","admin1":"ENG","admin2":"G5","admin3":"6945806","admin4":"29UL005","population":3263,"elevation":0,"gtopo30":2,"timezone":"Europe/London","moddate":"2018-07-03T00:00:00.000Z"},{"geonameid":2650503,"name":"East Barming","asciiname":"East Barming","alternatenames":"Barming,East Barming","latitude":"51.2500000","longitude":"0.4666700","fclass":"P","fcode":"PPL","country":"GB","cc2":"GB","admin1":"ENG","admin2":"G5","admin3":"29UH","admin4":"29UH037","population":0,"elevation":0,"gtopo30":76,"timezone":"Europe/London","moddate":"2018-07-03T00:00:00.000Z"},{"geonameid":2650447,"name":"East Farleigh","asciiname":"East Farleigh","alternatenames":"East Farleigh,Farleigh","latitude":"51.2520300","longitude":"0.4835700","fclass":"P","fcode":"PPL","country":"GB","cc2":"GB","admin1":"ENG","admin2":"G5","admin3":"29UH","admin4":"29UH013","population":0,"elevation":0,"gtopo30":35,"timezone":"Europe/London","moddate":"2018-07-03T00:00:00.000Z"},{"geonameid":2650381,"name":"East Malling","asciiname":"East Malling","alternatenames":"","latitude":"51.2852200","longitude":"0.4394500","fclass":"P","fcode":"PPL","country":"GB","cc2":"","admin1":"ENG","admin2":"G5","admin3":"29UP","admin4":"29UP007","population":0,"elevation":0,"gtopo30":45,"timezone":"Europe/London","moddate":"2018-07-03T00:00:00.000Z"},{"geonameid":2650357,"name":"East Peckham","asciiname":"East Peckham","alternatenames":"","latitude":"51.2123400","longitude":"0.3862400","fclass":"P","fcode":"PPL","country":"GB","cc2":"","admin1":"ENG","admin2":"G5","admin3":"29UP","admin4":"29UP008","population":2485,"elevation":0,"gtopo30":14,"timezone":"Europe/London","moddate":"2018-07-03T00:00:00.000Z"},{"geonameid":2650331,"name":"East Stourmouth","asciiname":"East Stourmouth","alternatenames":"East Stourmouth,Stourmouth","latitude":"51.3159100","longitude":"1.2488400","fclass":"P","fcode":"PPL","country":"GB","cc2":"","admin1":"ENG","admin2":"G5","admin3":"29UE","admin4":"29UE024","population":0,"elevation":0,"gtopo30":3,"timezone":"Europe/London","moddate":"2018-07-03T00:00:00.000Z"},{"geonameid":2650482,"name":"Eastchurch","asciiname":"Eastchurch","alternatenames":"","latitude":"51.4067300","longitude":"0.8576600","fclass":"P","fcode":"PPL","country":"GB","cc2":"","admin1":"ENG","admin2":"G5","admin3":"29UM","admin4":"29UM010","population":1135,"elevation":0,"gtopo30":51,"timezone":"Europe/London","moddate":"2018-07-03T00:00:00.000Z"},{"geonameid":2650394,"name":"Eastling","asciiname":"Eastling","alternatenames":"","latitude":"51.2744300","longitude":"0.8124700","fclass":"P","fcode":"PPL","country":"GB","cc2":"","admin1":"ENG","admin2":"G5","admin3":"29UM","admin4":"29UM011","population":0,"elevation":0,"gtopo30":96,"timezone":"Europe/London","moddate":"2018-07-03T00:00:00.000Z"},{"geonameid":2650341,"name":"Eastry","asciiname":"Eastry","alternatenames":"","latitude":"51.2463900","longitude":"1.3077600","fclass":"P","fcode":"PPL","country":"GB","cc2":"","admin1":"ENG","admin2":"G5","admin3":"29UE","admin4":"29UE006","population":2492,"elevation":0,"gtopo30":26,"timezone":"Europe/London","moddate":"2018-07-03T00:00:00.000Z"},{"geonameid":6640312,"name":"Ebbsfleet","asciiname":"Ebbsfleet","alternatenames":"","latitude":"51.3139800","longitude":"1.3520900","fclass":"P","fcode":"PPL","country":"GB","cc2":"","admin1":"ENG","admin2":"G5","admin3":"2636057","admin4":"29UN005","population":0,"elevation":0,"gtopo30":7,"timezone":"Europe/London","moddate":"2018-07-03T00:00:00.000Z"},{"geonameid":11748127,"name":"Eddington","asciiname":"Eddington","alternatenames":"","latitude":"51.3623800","longitude":"1.1309900","fclass":"P","fcode":"PPLX","country":"GB","cc2":"","admin1":"ENG","admin2":"G5","admin3":"6945807","admin4":"","population":0,"elevation":0,"gtopo30":13,"timezone":"Europe/London","moddate":"2017-10-24T00:00:00.000Z"},{"geonameid":2650246,"name":"Edenbridge","asciiname":"Edenbridge","alternatenames":"adnbryj  knt,ادنبریج، کنت","latitude":"51.1917200","longitude":"0.0672900","fclass":"P","fcode":"PPL","country":"GB","cc2":"","admin1":"ENG","admin2":"G5","admin3":"6945814","admin4":"29UK008","population":8172,"elevation":0,"gtopo30":46,"timezone":"Europe/London","moddate":"2018-07-03T00:00:00.000Z"},{"geonameid":2650194,"name":"Egerton","asciiname":"Egerton","alternatenames":"","latitude":"51.1941100","longitude":"0.7281000","fclass":"P","fcode":"PPL","country":"GB","cc2":"","admin1":"ENG","admin2":"G5","admin3":"29UB","admin4":"29UB015","population":0,"elevation":0,"gtopo30":99,"timezone":"Europe/London","moddate":"2018-07-03T00:00:00.000Z"},{"geonameid":2650120,"name":"Elham","asciiname":"Elham","alternatenames":"","latitude":"51.1519700","longitude":"1.1105000","fclass":"P","fcode":"PPL","country":"GB","cc2":"","admin1":"ENG","admin2":"G5","admin3":"6945806","admin4":"29UL006","population":911,"elevation":0,"gtopo30":96,"timezone":"Europe/London","moddate":"2018-07-03T00:00:00.000Z"},{"geonameid":2650075,"name":"Elmley","asciiname":"Elmley","alternatenames":"Elmley","latitude":"51.3666700","longitude":"0.7666700","fclass":"P","fcode":"PPL","country":"GB","cc2":"","admin1":"ENG","admin2":"G5","admin3":"29UM","admin4":"29UM040","population":0,"elevation":0,"gtopo30":-9999,"timezone":"Europe/London","moddate":"2018-07-03T00:00:00.000Z"},{"geonameid":2650070,"name":"Elmsted","asciiname":"Elmsted","alternatenames":"","latitude":"51.1641700","longitude":"1.0265800","fclass":"P","fcode":"PPL","country":"GB","cc2":"","admin1":"ENG","admin2":"G5","admin3":"6945806","admin4":"29UL007","population":0,"elevation":0,"gtopo30":162,"timezone":"Europe/London","moddate":"2018-07-03T00:00:00.000Z"},{"geonameid":2650069,"name":"Elmstone","asciiname":"Elmstone","alternatenames":"","latitude":"51.2973000","longitude":"1.2409400","fclass":"P","fcode":"PPL","country":"GB","cc2":"","admin1":"ENG","admin2":"G5","admin3":"29UE","admin4":"29UE015","population":0,"elevation":0,"gtopo30":12,"timezone":"Europe/London","moddate":"2018-07-03T00:00:00.000Z"},{"geonameid":2650030,"name":"Elvington","asciiname":"Elvington","alternatenames":"Elvington,Halt Elrington","latitude":"51.2075300","longitude":"1.2585400","fclass":"P","fcode":"PPL","country":"GB","cc2":"","admin1":"ENG","admin2":"G5","admin3":"29UE","admin4":"29UE007","population":0,"elevation":0,"gtopo30":84,"timezone":"Europe/London","moddate":"2018-07-03T00:00:00.000Z"},{"geonameid":2649775,"name":"Eynsford","asciiname":"Eynsford","alternatenames":"Eynsford","latitude":"51.3676500","longitude":"0.2113200","fclass":"P","fcode":"PPL","country":"GB","cc2":"","admin1":"ENG","admin2":"G5","admin3":"6945814","admin4":"29UK009","population":2791,"elevation":0,"gtopo30":43,"timezone":"Europe/London","moddate":"2018-07-03T00:00:00.000Z"},{"geonameid":2649770,"name":"Eythorne","asciiname":"Eythorne","alternatenames":"","latitude":"51.1971000","longitude":"1.2662000","fclass":"P","fcode":"PPL","country":"GB","cc2":"","admin1":"ENG","admin2":"G5","admin3":"29UE","admin4":"29UE007","population":1520,"elevation":0,"gtopo30":73,"timezone":"Europe/London","moddate":"2018-07-03T00:00:00.000Z"},{"geonameid":2649656,"name":"Farningham","asciiname":"Farningham","alternatenames":"","latitude":"51.3811300","longitude":"0.2165100","fclass":"P","fcode":"PPL","country":"GB","cc2":"","admin1":"ENG","admin2":"G5","admin3":"6945814","admin4":"29UK010","population":0,"elevation":0,"gtopo30":57,"timezone":"Europe/London","moddate":"2018-07-03T00:00:00.000Z"},{"geonameid":2649622,"name":"Faversham","asciiname":"Faversham","alternatenames":"Faversham,Fejveshem,fawrsham,Фейвешем,فاورشام","latitude":"51.3148000","longitude":"0.8885600","fclass":"P","fcode":"PPL","country":"GB","cc2":"","admin1":"ENG","admin2":"G5","admin3":"29UM","admin4":"29UM012","population":19829,"elevation":0,"gtopo30":11,"timezone":"Europe/London","moddate":"2018-07-03T00:00:00.000Z"},{"geonameid":6693233,"name":"Fawkham","asciiname":"Fawkham","alternatenames":"","latitude":"51.3625600","longitude":"0.2797200","fclass":"P","fcode":"PPL","country":"GB","cc2":"","admin1":"ENG","admin2":"G5","admin3":"6945814","admin4":"29UK011","population":500,"elevation":0,"gtopo30":105,"timezone":"Europe/London","moddate":"2018-07-03T00:00:00.000Z"},{"geonameid":6693234,"name":"Fawkham Green","asciiname":"Fawkham Green","alternatenames":"","latitude":"51.3678200","longitude":"0.2767200","fclass":"P","fcode":"PPL","country":"GB","cc2":"","admin1":"ENG","admin2":"G5","admin3":"6945814","admin4":"29UK011","population":231,"elevation":0,"gtopo30":90,"timezone":"Europe/London","moddate":"2018-07-03T00:00:00.000Z"},{"geonameid":10104871,"name":"Five Oak Green","asciiname":"Five Oak Green","alternatenames":"","latitude":"51.1833800","longitude":"0.3551700","fclass":"P","fcode":"PPL","country":"GB","cc2":"","admin1":"ENG","admin2":"G5","admin3":"29UQ","admin4":"29UQ004","population":1540,"elevation":0,"gtopo30":20,"timezone":"Europe/London","moddate":"2017-06-12T00:00:00.000Z"},{"geonameid":2649258,"name":"Folkestone","asciiname":"Folkestone","alternatenames":"Fokston,Folkestone,Folkston,fu ke si tong,fwkstwn,fwlkstwn,Фокстон,Фолкстон,فولكستون,فوکستون,福克斯通","latitude":"51.0816900","longitude":"1.1673400","fclass":"P","fcode":"PPL","country":"GB","cc2":"","admin1":"ENG","admin2":"G5","admin3":"6945806","admin4":"29UL029","population":66429,"elevation":0,"gtopo30":46,"timezone":"Europe/London","moddate":"2018-07-03T00:00:00.000Z"},{"geonameid":2649238,"name":"Ford","asciiname":"Ford","alternatenames":"","latitude":"51.3333300","longitude":"1.1666700","fclass":"P","fcode":"PPL","country":"GB","cc2":"","admin1":"ENG","admin2":"G5","admin3":"6945807","admin4":"29UC012","population":0,"elevation":0,"gtopo30":32,"timezone":"Europe/London","moddate":"2018-07-03T00:00:00.000Z"},{"geonameid":2649225,"name":"Fordwich","asciiname":"Fordwich","alternatenames":"","latitude":"51.2952600","longitude":"1.1261000","fclass":"P","fcode":"PPL","country":"GB","cc2":"","admin1":"ENG","admin2":"G5","admin3":"6945807","admin4":"29UC009","population":0,"elevation":0,"gtopo30":5,"timezone":"Europe/London","moddate":"2018-07-03T00:00:00.000Z"},{"geonameid":6690819,"name":"Four Elms","asciiname":"Four Elms","alternatenames":"","latitude":"51.2163500","longitude":"0.1060900","fclass":"P","fcode":"PPL","country":"GB","cc2":"","admin1":"ENG","admin2":"G5","admin3":"6945814","admin4":"29UK014","population":0,"elevation":0,"gtopo30":60,"timezone":"Europe/London","moddate":"2018-07-03T00:00:00.000Z"},{"geonameid":7302139,"name":"Fremlin Walk","asciiname":"Fremlin Walk","alternatenames":"Fremlin Walk,Maidstone Fremlin Walk","latitude":"51.2755400","longitude":"0.5212600","fclass":"P","fcode":"PPLX","country":"GB","cc2":"","admin1":"ENG","admin2":"G5","admin3":"29UH","admin4":"","population":0,"elevation":0,"gtopo30":21,"timezone":"Europe/London","moddate":"2010-05-27T00:00:00.000Z"},{"geonameid":2649037,"name":"Frittenden","asciiname":"Frittenden","alternatenames":"","latitude":"51.1415300","longitude":"0.5934800","fclass":"P","fcode":"PPL","country":"GB","cc2":"","admin1":"ENG","admin2":"G5","admin3":"29UQ","admin4":"29UQ006","population":267,"elevation":0,"gtopo30":35,"timezone":"Europe/London","moddate":"2018-07-03T00:00:00.000Z"},{"geonameid":11073400,"name":"Frogholt","asciiname":"Frogholt","alternatenames":"","latitude":"51.0956800","longitude":"1.1072200","fclass":"P","fcode":"PPL","country":"GB","cc2":"","admin1":"ENG","admin2":"G5","admin3":"6945806","admin4":"29UL016","population":0,"elevation":0,"gtopo30":58,"timezone":"Europe/London","moddate":"2017-06-20T00:00:00.000Z"},{"geonameid":10376012,"name":"Gads Hill Farm","asciiname":"Gads Hill Farm","alternatenames":"","latitude":"51.4094100","longitude":"0.4583800","fclass":"P","fcode":"PPL","country":"GB","cc2":"","admin1":"ENG","admin2":"G5","admin3":"29UG","admin4":"29UG002","population":0,"elevation":0,"gtopo30":65,"timezone":"Europe/London","moddate":"2015-07-12T00:00:00.000Z"},{"geonameid":2648870,"name":"Garlinge","asciiname":"Garlinge","alternatenames":"","latitude":"51.3752100","longitude":"1.3550100","fclass":"P","fcode":"PPL","country":"GB","cc2":"","admin1":"ENG","admin2":"G5","admin3":"2636057","admin4":"","population":0,"elevation":0,"gtopo30":28,"timezone":"Europe/London","moddate":"2017-12-01T00:00:00.000Z"},{"geonameid":2648657,"name":"Gillingham","asciiname":"Gillingham","alternatenames":"Dzhillingem,Dzilingam,Dzilingamas,Džilingamas,Gillingham,gylynghʼm,jiringamu,jylyngham  knt,Џилингам,Джиллингем,גילינגהאם,جیلینگهام، کنت,ジリンガム","latitude":"51.3891400","longitude":"0.5486300","fclass":"P","fcode":"PPL","country":"GB","cc2":"","admin1":"ENG","admin2":"G5","admin3":"","admin4":"","population":101187,"elevation":0,"gtopo30":31,"timezone":"Europe/London","moddate":"2010-08-03T00:00:00.000Z"},{"geonameid":2648368,"name":"Godmersham","asciiname":"Godmersham","alternatenames":"","latitude":"51.2177600","longitude":"0.9565500","fclass":"P","fcode":"PPL","country":"GB","cc2":"","admin1":"ENG","admin2":"G5","admin3":"29UB","admin4":"29UB016","population":0,"elevation":0,"gtopo30":31,"timezone":"Europe/London","moddate":"2018-07-03T00:00:00.000Z"},{"geonameid":10345362,"name":"Gold Street","asciiname":"Gold Street","alternatenames":"","latitude":"51.3843100","longitude":"0.3873300","fclass":"P","fcode":"PPL","country":"GB","cc2":"","admin1":"ENG","admin2":"G5","admin3":"29UG","admin4":"29UG001","population":0,"elevation":0,"gtopo30":99,"timezone":"Europe/London","moddate":"2015-06-22T00:00:00.000Z"},{"geonameid":2648328,"name":"Goodnestone","asciiname":"Goodnestone","alternatenames":"","latitude":"51.3155900","longitude":"0.9335800","fclass":"P","fcode":"PPL","country":"GB","cc2":"","admin1":"ENG","admin2":"G5","admin3":"29UM","admin4":"29UM013","population":0,"elevation":0,"gtopo30":3,"timezone":"Europe/London","moddate":"2018-07-03T00:00:00.000Z"},{"geonameid":2648329,"name":"Goodnestone","asciiname":"Goodnestone","alternatenames":"","latitude":"51.2476300","longitude":"1.2320100","fclass":"P","fcode":"PPL","country":"GB","cc2":"","admin1":"ENG","admin2":"G5","admin3":"29UE","admin4":"29UE008","population":0,"elevation":0,"gtopo30":38,"timezone":"Europe/London","moddate":"2018-07-03T00:00:00.000Z"},{"geonameid":2648263,"name":"Goudhurst","asciiname":"Goudhurst","alternatenames":"","latitude":"51.1131400","longitude":"0.4561500","fclass":"P","fcode":"PPL","country":"GB","cc2":"","admin1":"ENG","admin2":"G5","admin3":"29UQ","admin4":"29UQ007","population":1142,"elevation":0,"gtopo30":89,"timezone":"Europe/London","moddate":"2018-07-03T00:00:00.000Z"},{"geonameid":2648193,"name":"Graveney","asciiname":"Graveney","alternatenames":"","latitude":"51.3279600","longitude":"0.9469700","fclass":"P","fcode":"PPL","country":"GB","cc2":"","admin1":"ENG","admin2":"G5","admin3":"29UM","admin4":"29UM013","population":0,"elevation":0,"gtopo30":8,"timezone":"Europe/London","moddate":"2018-07-03T00:00:00.000Z"},{"geonameid":2648187,"name":"Gravesend","asciiname":"Gravesend","alternatenames":"Gravesend,Grejvsend,Grejvzend,ge lei fu sen de,geuleibeujendeu,grywznd,Грейвзенд,Грејвсенд,گریوزند,格雷夫森德,그레이브젠드","latitude":"51.4420600","longitude":"0.3710600","fclass":"P","fcode":"PPLA3","country":"GB","cc2":"","admin1":"ENG","admin2":"G5","admin3":"29UG","admin4":"","population":54263,"elevation":0,"gtopo30":21,"timezone":"Europe/London","moddate":"2018-08-01T00:00:00.000Z"},{"geonameid":2648138,"name":"Great Chart","asciiname":"Great Chart","alternatenames":"","latitude":"51.1454900","longitude":"0.8311400","fclass":"P","fcode":"PPL","country":"GB","cc2":"","admin1":"ENG","admin2":"G5","admin3":"29UB","admin4":"29UB017","population":0,"elevation":0,"gtopo30":46,"timezone":"Europe/London","moddate":"2018-07-03T00:00:00.000Z"},{"geonameid":2648054,"name":"Great Mongeham","asciiname":"Great Mongeham","alternatenames":"Great Mongeham,Mongeham","latitude":"51.2133600","longitude":"1.3577100","fclass":"P","fcode":"PPL","country":"GB","cc2":"","admin1":"ENG","admin2":"G5","admin3":"29UE","admin4":"29UE034","population":0,"elevation":0,"gtopo30":30,"timezone":"Europe/London","moddate":"2018-07-03T00:00:00.000Z"},{"geonameid":8063679,"name":"Great Stonar","asciiname":"Great Stonar","alternatenames":"","latitude":"51.2867500","longitude":"1.3472500","fclass":"P","fcode":"PPL","country":"GB","cc2":"","admin1":"ENG","admin2":"G5","admin3":"29UE","admin4":"29UE020","population":0,"elevation":0,"gtopo30":3,"timezone":"Europe/London","moddate":"2011-12-02T00:00:00.000Z"},{"geonameid":11071709,"name":"Greatstone","asciiname":"Greatstone","alternatenames":"","latitude":"50.9615100","longitude":"0.9619900","fclass":"P","fcode":"PPL","country":"GB","cc2":"","admin1":"ENG","admin2":"G5","admin3":"6945806","admin4":"29UL011","population":0,"elevation":0,"gtopo30":5,"timezone":"Europe/London","moddate":"2016-06-22T00:00:00.000Z"},{"geonameid":3209928,"name":"Greenhill","asciiname":"Greenhill","alternatenames":"Greenhill","latitude":"51.3597200","longitude":"1.1083300","fclass":"P","fcode":"PPL","country":"GB","cc2":"","admin1":"ENG","admin2":"G5","admin3":"6945807","admin4":"","population":0,"elevation":0,"gtopo30":13,"timezone":"Europe/London","moddate":"2013-07-11T00:00:00.000Z"},{"geonameid":2647962,"name":"Greenhithe","asciiname":"Greenhithe","alternatenames":"","latitude":"51.4502600","longitude":"0.2853900","fclass":"P","fcode":"PPL","country":"GB","cc2":"","admin1":"ENG","admin2":"G5","admin3":"29UD","admin4":"29UD007","population":4700,"elevation":0,"gtopo30":27,"timezone":"Europe/London","moddate":"2018-07-03T00:00:00.000Z"},{"geonameid":2647835,"name":"Grove Ferry","asciiname":"Grove Ferry","alternatenames":"","latitude":"51.3166700","longitude":"1.2000000","fclass":"P","fcode":"PPL","country":"GB","cc2":"","admin1":"ENG","admin2":"G5","admin3":"6945807","admin4":"29UC024","population":0,"elevation":0,"gtopo30":1,"timezone":"Europe/London","moddate":"2018-07-03T00:00:00.000Z"},{"geonameid":2647699,"name":"Hackington","asciiname":"Hackington","alternatenames":"","latitude":"51.3050800","longitude":"1.0722800","fclass":"P","fcode":"PPL","country":"GB","cc2":"","admin1":"ENG","admin2":"G5","admin3":"6945807","admin4":"29UC010","population":0,"elevation":0,"gtopo30":57,"timezone":"Europe/London","moddate":"2018-07-03T00:00:00.000Z"},{"geonameid":2647675,"name":"Hadlow","asciiname":"Hadlow","alternatenames":"","latitude":"51.2241700","longitude":"0.3391400","fclass":"P","fcode":"PPL","country":"GB","cc2":"","admin1":"ENG","admin2":"G5","admin3":"29UP","admin4":"29UP009","population":2849,"elevation":0,"gtopo30":30,"timezone":"Europe/London","moddate":"2018-07-03T00:00:00.000Z"},{"geonameid":2647605,"name":"Halstead","asciiname":"Halstead","alternatenames":"Fort Halstead,Halstead,Halsted","latitude":"51.3136100","longitude":"0.1478800","fclass":"P","fcode":"PPL","country":"GB","cc2":"","admin1":"ENG","admin2":"G5","admin3":"6945814","admin4":"29UK007","population":386,"elevation":0,"gtopo30":211,"timezone":"Europe/London","moddate":"2018-07-03T00:00:00.000Z"},{"geonameid":2647541,"name":"Hamstreet","asciiname":"Hamstreet","alternatenames":"","latitude":"51.0653500","longitude":"0.8546200","fclass":"P","fcode":"PPL","country":"GB","cc2":"","admin1":"ENG","admin2":"G5","admin3":"29UB","admin4":"29UB027","population":0,"elevation":0,"gtopo30":4,"timezone":"Europe/London","moddate":"2018-07-03T00:00:00.000Z"},{"geonameid":2647509,"name":"Harbledown","asciiname":"Harbledown","alternatenames":"","latitude":"51.2832800","longitude":"1.0528300","fclass":"P","fcode":"PPL","country":"GB","cc2":"","admin1":"ENG","admin2":"G5","admin3":"6945807","admin4":"29UC011","population":0,"elevation":0,"gtopo30":34,"timezone":"Europe/London","moddate":"2018-07-03T00:00:00.000Z"},{"geonameid":2647504,"name":"Harbrough","asciiname":"Harbrough","alternatenames":"","latitude":"51.2000000","longitude":"0.1166700","fclass":"P","fcode":"PPL","country":"GB","cc2":"","admin1":"ENG","admin2":"G5","admin3":"6945814","admin4":"29UK014","population":0,"elevation":0,"gtopo30":45,"timezone":"Europe/London","moddate":"2018-07-03T00:00:00.000Z"},{"geonameid":2647437,"name":"Harrietsham","asciiname":"Harrietsham","alternatenames":"","latitude":"51.2425200","longitude":"0.6706000","fclass":"P","fcode":"PPL","country":"GB","cc2":"","admin1":"ENG","admin2":"G5","admin3":"29UH","admin4":"29UH016","population":1442,"elevation":0,"gtopo30":85,"timezone":"Europe/London","moddate":"2018-07-03T00:00:00.000Z"},{"geonameid":2647398,"name":"Hartley","asciiname":"Hartley","alternatenames":"","latitude":"51.3867300","longitude":"0.3036700","fclass":"P","fcode":"PPL","country":"GB","cc2":"","admin1":"ENG","admin2":"G5","admin3":"6945814","admin4":"29UK013","population":16302,"elevation":0,"gtopo30":101,"timezone":"Europe/London","moddate":"2018-07-03T00:00:00.000Z"},{"geonameid":11592725,"name":"Hartlip","asciiname":"Hartlip","alternatenames":"","latitude":"51.3471300","longitude":"0.6406800","fclass":"P","fcode":"PPL","country":"GB","cc2":"","admin1":"ENG","admin2":"G5","admin3":"29UM","admin4":"29UM014","population":0,"elevation":0,"gtopo30":51,"timezone":"Europe/London","moddate":"2017-06-19T00:00:00.000Z"},{"geonameid":2647357,"name":"Hastingleigh","asciiname":"Hastingleigh","alternatenames":"","latitude":"51.1652400","longitude":"0.9958100","fclass":"P","fcode":"PPL","country":"GB","cc2":"","admin1":"ENG","admin2":"G5","admin3":"29UB","admin4":"29UB018","population":0,"elevation":0,"gtopo30":178,"timezone":"Europe/London","moddate":"2018-07-03T00:00:00.000Z"},{"geonameid":2647291,"name":"Hawkhurst","asciiname":"Hawkhurst","alternatenames":"","latitude":"51.0479000","longitude":"0.5109500","fclass":"P","fcode":"PPL","country":"GB","cc2":"","admin1":"ENG","admin2":"G5","admin3":"29UQ","admin4":"29UQ008","population":3963,"elevation":0,"gtopo30":77,"timezone":"Europe/London","moddate":"2018-07-03T00:00:00.000Z"},{"geonameid":2647289,"name":"Hawkinge","asciiname":"Hawkinge","alternatenames":"","latitude":"51.1127600","longitude":"1.1617600","fclass":"P","fcode":"PPL","country":"GB","cc2":"","admin1":"ENG","admin2":"G5","admin3":"6945806","admin4":"29UL008","population":8002,"elevation":0,"gtopo30":155,"timezone":"Europe/London","moddate":"2018-07-03T00:00:00.000Z"},{"geonameid":11593294,"name":"Hawley","asciiname":"Hawley","alternatenames":"","latitude":"51.4211600","longitude":"0.2209300","fclass":"P","fcode":"PPL","country":"GB","cc2":"","admin1":"ENG","admin2":"G5","admin3":"29UD","admin4":"29UD006","population":0,"elevation":0,"gtopo30":42,"timezone":"Europe/London","moddate":"2017-06-22T00:00:00.000Z"},{"geonameid":10377851,"name":"Hazel Street","asciiname":"Hazel Street","alternatenames":"","latitude":"51.1301900","longitude":"0.4158900","fclass":"P","fcode":"PPLX","country":"GB","cc2":"","admin1":"ENG","admin2":"G5","admin3":"29UQ","admin4":"29UQ009","population":0,"elevation":0,"gtopo30":89,"timezone":"Europe/London","moddate":"2015-07-20T00:00:00.000Z"},{"geonameid":2647240,"name":"Headcorn","asciiname":"Headcorn","alternatenames":"","latitude":"51.1696600","longitude":"0.6243300","fclass":"P","fcode":"PPL","country":"GB","cc2":"","admin1":"ENG","admin2":"G5","admin3":"29UH","admin4":"29UH017","population":2505,"elevation":0,"gtopo30":23,"timezone":"Europe/London","moddate":"2018-07-03T00:00:00.000Z"},{"geonameid":2647058,"name":"Herne","asciiname":"Herne","alternatenames":"","latitude":"51.3496500","longitude":"1.1333100","fclass":"P","fcode":"PPL","country":"GB","cc2":"","admin1":"ENG","admin2":"G5","admin3":"6945807","admin4":"29UC026","population":0,"elevation":0,"gtopo30":26,"timezone":"Europe/London","moddate":"2018-07-03T00:00:00.000Z"},{"geonameid":2647057,"name":"Herne Bay","asciiname":"Herne Bay","alternatenames":"Herne Bay,Herne Bay i Kent","latitude":"51.3730000","longitude":"1.1285700","fclass":"P","fcode":"PPL","country":"GB","cc2":"","admin1":"ENG","admin2":"G5","admin3":"6945807","admin4":"","population":36642,"elevation":0,"gtopo30":1,"timezone":"Europe/London","moddate":"2013-07-11T00:00:00.000Z"},{"geonameid":2647056,"name":"Hernhill","asciiname":"Hernhill","alternatenames":"","latitude":"51.3082700","longitude":"0.9615600","fclass":"P","fcode":"PPL","country":"GB","cc2":"","admin1":"ENG","admin2":"G5","admin3":"29UM","admin4":"29UM015","population":0,"elevation":0,"gtopo30":36,"timezone":"Europe/London","moddate":"2018-07-03T00:00:00.000Z"},{"geonameid":8604497,"name":"Hersden","asciiname":"Hersden","alternatenames":"","latitude":"51.3149500","longitude":"1.1654100","fclass":"P","fcode":"PPL","country":"GB","cc2":"","admin1":"ENG","admin2":"G5","admin3":"6945807","admin4":"29UC023","population":0,"elevation":0,"gtopo30":31,"timezone":"Europe/London","moddate":"2016-06-22T00:00:00.000Z"},{"geonameid":2647015,"name":"Hever","asciiname":"Hever","alternatenames":"","latitude":"51.1790200","longitude":"0.1063500","fclass":"P","fcode":"PPL","country":"GB","cc2":"","admin1":"ENG","admin2":"G5","admin3":"6945814","admin4":"29UK014","population":0,"elevation":0,"gtopo30":64,"timezone":"Europe/London","moddate":"2018-07-03T00:00:00.000Z"},{"geonameid":2646954,"name":"High Halden","asciiname":"High Halden","alternatenames":"","latitude":"51.1033100","longitude":"0.7139400","fclass":"P","fcode":"PPL","country":"GB","cc2":"","admin1":"ENG","admin2":"G5","admin3":"29UB","admin4":"29UB019","population":1159,"elevation":0,"gtopo30":49,"timezone":"Europe/London","moddate":"2018-07-03T00:00:00.000Z"},{"geonameid":2646988,"name":"Higham","asciiname":"Higham","alternatenames":"","latitude":"51.4141700","longitude":"0.4559800","fclass":"P","fcode":"PPL","country":"GB","cc2":"","admin1":"ENG","admin2":"G5","admin3":"29UG","admin4":"29UG002","population":0,"elevation":0,"gtopo30":73,"timezone":"Europe/London","moddate":"2018-07-03T00:00:00.000Z"},{"geonameid":11551084,"name":"Higham Wood","asciiname":"Higham Wood","alternatenames":"Highnam Woods","latitude":"51.2129600","longitude":"0.2950000","fclass":"P","fcode":"PPL","country":"GB","cc2":"","admin1":"ENG","admin2":"G5","admin3":"29UP","admin4":"","population":0,"elevation":0,"gtopo30":43,"timezone":"Europe/London","moddate":"2017-06-08T00:00:00.000Z"},{"geonameid":2646959,"name":"Highgate","asciiname":"Highgate","alternatenames":"","latitude":"51.0333300","longitude":"0.5166700","fclass":"P","fcode":"PPL","country":"GB","cc2":"","admin1":"ENG","admin2":"G5","admin3":"29UQ","admin4":"29UQ008","population":0,"elevation":0,"gtopo30":39,"timezone":"Europe/London","moddate":"2018-07-03T00:00:00.000Z"},{"geonameid":11593303,"name":"Highsted","asciiname":"Highsted","alternatenames":"","latitude":"51.3185200","longitude":"0.7405500","fclass":"P","fcode":"PPL","country":"GB","cc2":"","admin1":"ENG","admin2":"G5","admin3":"29UM","admin4":"29UM029","population":0,"elevation":0,"gtopo30":56,"timezone":"Europe/London","moddate":"2017-06-22T00:00:00.000Z"},{"geonameid":2646906,"name":"Hildenborough","asciiname":"Hildenborough","alternatenames":"","latitude":"51.2294700","longitude":"0.2435800","fclass":"P","fcode":"PPL","country":"GB","cc2":"","admin1":"ENG","admin2":"G5","admin3":"29UP","admin4":"29UP010","population":575,"elevation":0,"gtopo30":58,"timezone":"Europe/London","moddate":"2018-07-03T00:00:00.000Z"},{"geonameid":2646841,"name":"Hinxhill","asciiname":"Hinxhill","alternatenames":"","latitude":"51.1513000","longitude":"0.9256800","fclass":"P","fcode":"PPL","country":"GB","cc2":"","admin1":"ENG","admin2":"G5","admin3":"29UB","admin4":"29UB042","population":0,"elevation":0,"gtopo30":56,"timezone":"Europe/London","moddate":"2018-07-03T00:00:00.000Z"},{"geonameid":2646822,"name":"Hoath","asciiname":"Hoath","alternatenames":"","latitude":"51.3339400","longitude":"1.1622300","fclass":"P","fcode":"PPL","country":"GB","cc2":"","admin1":"ENG","admin2":"G5","admin3":"6945807","admin4":"29UC012","population":0,"elevation":0,"gtopo30":33,"timezone":"Europe/London","moddate":"2018-07-03T00:00:00.000Z"},{"geonameid":2646779,"name":"Holborough","asciiname":"Holborough","alternatenames":"","latitude":"51.3372500","longitude":"0.4447000","fclass":"P","fcode":"PPL","country":"GB","cc2":"","admin1":"ENG","admin2":"G5","admin3":"29UP","admin4":"29UP019","population":0,"elevation":0,"gtopo30":10,"timezone":"Europe/London","moddate":"2018-07-03T00:00:00.000Z"},{"geonameid":2646748,"name":"Hollingbourne","asciiname":"Hollingbourne","alternatenames":"Hollingbourne","latitude":"51.2677200","longitude":"0.6428700","fclass":"P","fcode":"PPL","country":"GB","cc2":"","admin1":"ENG","admin2":"G5","admin3":"29UH","admin4":"29UH018","population":0,"elevation":0,"gtopo30":89,"timezone":"Europe/London","moddate":"2018-07-03T00:00:00.000Z"},{"geonameid":10375993,"name":"Hook Green","asciiname":"Hook Green","alternatenames":"","latitude":"51.0923900","longitude":"0.3543100","fclass":"P","fcode":"PPL","country":"GB","cc2":"","admin1":"ENG","admin2":"G5","admin3":"29UQ","admin4":"29UQ010","population":0,"elevation":0,"gtopo30":87,"timezone":"Europe/London","moddate":"2015-07-11T00:00:00.000Z"},{"geonameid":10377313,"name":"Hook Green","asciiname":"Hook Green","alternatenames":"","latitude":"51.4265300","longitude":"0.1846200","fclass":"P","fcode":"PPLX","country":"GB","cc2":"","admin1":"ENG","admin2":"G5","admin3":"29UD","admin4":"29UD008","population":0,"elevation":0,"gtopo30":39,"timezone":"Europe/London","moddate":"2015-07-18T00:00:00.000Z"},{"geonameid":2646552,"name":"Horsmonden","asciiname":"Horsmonden","alternatenames":"","latitude":"51.1390800","longitude":"0.4288100","fclass":"P","fcode":"PPL","country":"GB","cc2":"","admin1":"ENG","admin2":"G5","admin3":"29UQ","admin4":"29UQ009","population":1620,"elevation":0,"gtopo30":61,"timezone":"Europe/London","moddate":"2018-07-03T00:00:00.000Z"},{"geonameid":2646543,"name":"Horton Kirby","asciiname":"Horton Kirby","alternatenames":"","latitude":"51.3948100","longitude":"0.2448300","fclass":"P","fcode":"PPL","country":"GB","cc2":"","admin1":"ENG","admin2":"G5","admin3":"6945814","admin4":"29UK015","population":1241,"elevation":0,"gtopo30":32,"timezone":"Europe/London","moddate":"2018-07-03T00:00:00.000Z"},{"geonameid":2646536,"name":"Hothfield","asciiname":"Hothfield","alternatenames":"","latitude":"51.1711600","longitude":"0.8182200","fclass":"P","fcode":"PPL","country":"GB","cc2":"","admin1":"ENG","admin2":"G5","admin3":"29UB","admin4":"29UB020","population":0,"elevation":0,"gtopo30":65,"timezone":"Europe/London","moddate":"2018-07-03T00:00:00.000Z"},{"geonameid":2646534,"name":"Hougham","asciiname":"Hougham","alternatenames":"","latitude":"51.1243200","longitude":"1.2475900","fclass":"P","fcode":"PPL","country":"GB","cc2":"","admin1":"ENG","admin2":"G5","admin3":"29UE","admin4":"29UE010","population":0,"elevation":0,"gtopo30":120,"timezone":"Europe/London","moddate":"2018-07-03T00:00:00.000Z"},{"geonameid":2646381,"name":"Hunton","asciiname":"Hunton","alternatenames":"","latitude":"51.2177400","longitude":"0.4579900","fclass":"P","fcode":"PPL","country":"GB","cc2":"","admin1":"ENG","admin2":"G5","admin3":"29UH","admin4":"29UH020","population":0,"elevation":0,"gtopo30":22,"timezone":"Europe/London","moddate":"2018-07-03T00:00:00.000Z"},{"geonameid":2646316,"name":"Hythe","asciiname":"Hythe","alternatenames":"Hythe,Hythe i Kent,Khajt,Khit,hayt  knt,hiti,Хайт,Хит,هایت، کنت,ჰითი","latitude":"51.0715000","longitude":"1.0842100","fclass":"P","fcode":"PPL","country":"GB","cc2":"","admin1":"ENG","admin2":"G5","admin3":"6945806","admin4":"29UL009","population":14170,"elevation":0,"gtopo30":8,"timezone":"Europe/London","moddate":"2018-07-03T00:00:00.000Z"},{"geonameid":2646295,"name":"Ide Hill","asciiname":"Ide Hill","alternatenames":"Ide Hill","latitude":"51.2463900","longitude":"0.1279300","fclass":"P","fcode":"PPL","country":"GB","cc2":"","admin1":"ENG","admin2":"G5","admin3":"6945814","admin4":"29UK026","population":389,"elevation":0,"gtopo30":205,"timezone":"Europe/London","moddate":"2018-07-03T00:00:00.000Z"},{"geonameid":11593312,"name":"Ightham","asciiname":"Ightham","alternatenames":"","latitude":"51.2871500","longitude":"0.2862900","fclass":"P","fcode":"PPL","country":"GB","cc2":"","admin1":"ENG","admin2":"G5","admin3":"29UP","admin4":"29UP011","population":0,"elevation":0,"gtopo30":84,"timezone":"Europe/London","moddate":"2017-06-22T00:00:00.000Z"},{"geonameid":2645987,"name":"Ivychurch","asciiname":"Ivychurch","alternatenames":"","latitude":"51.0127800","longitude":"0.8888600","fclass":"P","fcode":"PPLA4","country":"GB","cc2":"","admin1":"ENG","admin2":"G5","admin3":"6945806","admin4":"29UL010","population":0,"elevation":0,"gtopo30":2,"timezone":"Europe/London","moddate":"2018-07-09T00:00:00.000Z"},{"geonameid":2645986,"name":"Iwade","asciiname":"Iwade","alternatenames":"","latitude":"51.3775400","longitude":"0.7293500","fclass":"P","fcode":"PPL","country":"GB","cc2":"","admin1":"ENG","admin2":"G5","admin3":"29UM","admin4":"29UM016","population":3087,"elevation":0,"gtopo30":9,"timezone":"Europe/London","moddate":"2018-07-03T00:00:00.000Z"},{"geonameid":2645910,"name":"Kearsney","asciiname":"Kearsney","alternatenames":"","latitude":"51.1495200","longitude":"1.2764700","fclass":"P","fcode":"PPL","country":"GB","cc2":"","admin1":"ENG","admin2":"G5","admin3":"29UE","admin4":"29UE026","population":0,"elevation":0,"gtopo30":57,"timezone":"Europe/London","moddate":"2018-07-03T00:00:00.000Z"},{"geonameid":2645830,"name":"Kemsing","asciiname":"Kemsing","alternatenames":"","latitude":"51.3060400","longitude":"0.2291700","fclass":"P","fcode":"PPL","country":"GB","cc2":"","admin1":"ENG","admin2":"G5","admin3":"6945814","admin4":"29UK016","population":6889,"elevation":0,"gtopo30":98,"timezone":"Europe/London","moddate":"2018-07-03T00:00:00.000Z"},{"geonameid":2645804,"name":"Kennington","asciiname":"Kennington","alternatenames":"","latitude":"51.1674000","longitude":"0.8849100","fclass":"P","fcode":"PPL","country":"GB","cc2":"","admin1":"ENG","admin2":"G5","admin3":"29UB","admin4":"","population":4178,"elevation":0,"gtopo30":48,"timezone":"Europe/London","moddate":"2010-05-24T00:00:00.000Z"},{"geonameid":2645730,"name":"Key Street","asciiname":"Key Street","alternatenames":"","latitude":"51.3454000","longitude":"0.6989300","fclass":"P","fcode":"PPL","country":"GB","cc2":"","admin1":"ENG","admin2":"G5","admin3":"29UM","admin4":"29UM004","population":0,"elevation":0,"gtopo30":30,"timezone":"Europe/London","moddate":"2018-07-03T00:00:00.000Z"},{"geonameid":10104068,"name":"Kilndown","asciiname":"Kilndown","alternatenames":"","latitude":"51.0917700","longitude":"0.4251600","fclass":"P","fcode":"PPL","country":"GB","cc2":"","admin1":"ENG","admin2":"G5","admin3":"29UQ","admin4":"29UQ007","population":0,"elevation":0,"gtopo30":111,"timezone":"Europe/London","moddate":"2015-02-17T00:00:00.000Z"},{"geonameid":6690167,"name":"Kings Hill","asciiname":"Kings Hill","alternatenames":"Kings Hill","latitude":"51.2743700","longitude":"0.4023700","fclass":"P","fcode":"PPL","country":"GB","cc2":"","admin1":"ENG","admin2":"G5","admin3":"29UP","admin4":"29UP027","population":2638,"elevation":0,"gtopo30":89,"timezone":"Europe/London","moddate":"2018-07-03T00:00:00.000Z"},{"geonameid":2645470,"name":"Kingsdown","asciiname":"Kingsdown","alternatenames":"Kingsdown","latitude":"51.3000000","longitude":"0.7666700","fclass":"P","fcode":"PPL","country":"GB","cc2":"","admin1":"ENG","admin2":"G5","admin3":"29UM","admin4":"29UM021","population":0,"elevation":0,"gtopo30":75,"timezone":"Europe/London","moddate":"2018-07-03T00:00:00.000Z"},{"geonameid":2645471,"name":"Kingsdown","asciiname":"Kingsdown","alternatenames":"Kingsdown","latitude":"51.1833300","longitude":"1.4000000","fclass":"P","fcode":"PPL","country":"GB","cc2":"","admin1":"ENG","admin2":"G5","admin3":"29UE","admin4":"29UE016","population":0,"elevation":0,"gtopo30":46,"timezone":"Europe/London","moddate":"2018-07-03T00:00:00.000Z"},{"geonameid":2645467,"name":"Kingsgate","asciiname":"Kingsgate","alternatenames":"","latitude":"51.3782900","longitude":"1.4315300","fclass":"P","fcode":"PPL","country":"GB","cc2":"","admin1":"ENG","admin2":"G5","admin3":"2636057","admin4":"29UN003","population":0,"elevation":0,"gtopo30":41,"timezone":"Europe/London","moddate":"2018-07-03T00:00:00.000Z"},{"geonameid":2645452,"name":"Kingsnorth","asciiname":"Kingsnorth","alternatenames":"","latitude":"51.1186100","longitude":"0.8584800","fclass":"P","fcode":"PPL","country":"GB","cc2":"","admin1":"ENG","admin2":"G5","admin3":"29UB","admin4":"29UB022","population":0,"elevation":0,"gtopo30":40,"timezone":"Europe/London","moddate":"2018-07-03T00:00:00.000Z"},{"geonameid":2645435,"name":"Kingston","asciiname":"Kingston","alternatenames":"","latitude":"51.2189300","longitude":"1.1470400","fclass":"P","fcode":"PPL","country":"GB","cc2":"","admin1":"ENG","admin2":"G5","admin3":"6945807","admin4":"29UC014","population":444,"elevation":0,"gtopo30":49,"timezone":"Europe/London","moddate":"2018-07-03T00:00:00.000Z"},{"geonameid":2645344,"name":"Kippings Cross","asciiname":"Kippings Cross","alternatenames":"","latitude":"51.1356900","longitude":"0.3495000","fclass":"P","fcode":"PPL","country":"GB","cc2":"","admin1":"ENG","admin2":"G5","admin3":"29UQ","admin4":"29UQ003","population":0,"elevation":0,"gtopo30":125,"timezone":"Europe/London","moddate":"2018-07-03T00:00:00.000Z"},{"geonameid":2645118,"name":"Knockholt","asciiname":"Knockholt","alternatenames":"","latitude":"51.3108500","longitude":"0.1056100","fclass":"P","fcode":"PPL","country":"GB","cc2":"","admin1":"ENG","admin2":"G5","admin3":"6945814","admin4":"29UK017","population":305,"elevation":0,"gtopo30":222,"timezone":"Europe/London","moddate":"2018-07-03T00:00:00.000Z"},{"geonameid":2645106,"name":"Knole","asciiname":"Knole","alternatenames":"","latitude":"51.2500000","longitude":"0.2166700","fclass":"P","fcode":"PPL","country":"GB","cc2":"","admin1":"ENG","admin2":"G5","admin3":"6945814","admin4":"29UK022","population":0,"elevation":0,"gtopo30":140,"timezone":"Europe/London","moddate":"2018-07-03T00:00:00.000Z"},{"geonameid":2645098,"name":"Knowlton","asciiname":"Knowlton","alternatenames":"Knowlton","latitude":"51.2333300","longitude":"1.2666700","fclass":"P","fcode":"PPL","country":"GB","cc2":"","admin1":"ENG","admin2":"G5","admin3":"29UE","admin4":"29UE008","population":0,"elevation":0,"gtopo30":57,"timezone":"Europe/London","moddate":"2018-07-03T00:00:00.000Z"},{"geonameid":2645005,"name":"Lamberhurst","asciiname":"Lamberhurst","alternatenames":"","latitude":"51.1005000","longitude":"0.3896700","fclass":"P","fcode":"PPL","country":"GB","cc2":"","admin1":"ENG","admin2":"G5","admin3":"29UQ","admin4":"29UQ010","population":1147,"elevation":0,"gtopo30":41,"timezone":"Europe/London","moddate":"2017-06-12T00:00:00.000Z"},{"geonameid":10103858,"name":"Lamberhurst Quarter","asciiname":"Lamberhurst Quarter","alternatenames":"","latitude":"51.1236700","longitude":"0.3568800","fclass":"P","fcode":"PPL","country":"GB","cc2":"","admin1":"ENG","admin2":"G5","admin3":"29UQ","admin4":"29UQ010","population":0,"elevation":0,"gtopo30":104,"timezone":"Europe/London","moddate":"2015-02-16T00:00:00.000Z"},{"geonameid":2644924,"name":"Langley","asciiname":"Langley","alternatenames":"Langley","latitude":"51.2333300","longitude":"0.5833300","fclass":"P","fcode":"PPL","country":"GB","cc2":"","admin1":"ENG","admin2":"G5","admin3":"29UH","admin4":"29UH021","population":0,"elevation":0,"gtopo30":95,"timezone":"Europe/London","moddate":"2018-07-03T00:00:00.000Z"},{"geonameid":10109472,"name":"Langton Green","asciiname":"Langton Green","alternatenames":"","latitude":"51.1304600","longitude":"0.2002900","fclass":"P","fcode":"PPL","country":"GB","cc2":"","admin1":"ENG","admin2":"G5","admin3":"29UQ","admin4":"29UQ015","population":0,"elevation":0,"gtopo30":134,"timezone":"Europe/London","moddate":"2015-02-21T00:00:00.000Z"},{"geonameid":6693668,"name":"Larkfield","asciiname":"Larkfield","alternatenames":"","latitude":"51.3014300","longitude":"0.4485500","fclass":"P","fcode":"PPL","country":"GB","cc2":"","admin1":"ENG","admin2":"G5","admin3":"29UP","admin4":"29UP006","population":7000,"elevation":0,"gtopo30":14,"timezone":"Europe/London","moddate":"2018-07-03T00:00:00.000Z"},{"geonameid":2644722,"name":"Leaveland","asciiname":"Leaveland","alternatenames":"","latitude":"51.2495100","longitude":"0.8765900","fclass":"P","fcode":"PPL","country":"GB","cc2":"","admin1":"ENG","admin2":"G5","admin3":"29UM","admin4":"29UM017","population":0,"elevation":0,"gtopo30":104,"timezone":"Europe/London","moddate":"2018-07-03T00:00:00.000Z"},{"geonameid":2644689,"name":"Leeds","asciiname":"Leeds","alternatenames":"","latitude":"51.2467700","longitude":"0.6068200","fclass":"P","fcode":"PPL","country":"GB","cc2":"","admin1":"ENG","admin2":"G5","admin3":"29UH","admin4":"29UH022","population":0,"elevation":0,"gtopo30":92,"timezone":"Europe/London","moddate":"2010-08-31T00:00:00.000Z"},{"geonameid":2644665,"name":"Leigh","asciiname":"Leigh","alternatenames":"","latitude":"51.1968000","longitude":"0.2153100","fclass":"P","fcode":"PPL","country":"GB","cc2":"","admin1":"ENG","admin2":"G5","admin3":"6945814","admin4":"29UK018","population":0,"elevation":0,"gtopo30":32,"timezone":"Europe/London","moddate":"2018-07-03T00:00:00.000Z"},{"geonameid":2644624,"name":"Lenham","asciiname":"Lenham","alternatenames":"Lenham","latitude":"51.2370500","longitude":"0.7189200","fclass":"P","fcode":"PPL","country":"GB","cc2":"","admin1":"ENG","admin2":"G5","admin3":"29UH","admin4":"29UH023","population":2197,"elevation":0,"gtopo30":117,"timezone":"Europe/London","moddate":"2018-07-03T00:00:00.000Z"},{"geonameid":2644544,"name":"Leysdown-on-Sea","asciiname":"Leysdown-on-Sea","alternatenames":"Leysdown,Leysdown-on-Sea","latitude":"51.3973000","longitude":"0.9215600","fclass":"P","fcode":"PPL","country":"GB","cc2":"","admin1":"ENG","admin2":"G5","admin3":"29UM","admin4":"29UM018","population":3019,"elevation":0,"gtopo30":12,"timezone":"Europe/London","moddate":"2018-07-03T00:00:00.000Z"},{"geonameid":2644436,"name":"Linton","asciiname":"Linton","alternatenames":"","latitude":"51.2176900","longitude":"0.5112900","fclass":"P","fcode":"PPL","country":"GB","cc2":"","admin1":"ENG","admin2":"G5","admin3":"29UH","admin4":"29UH024","population":0,"elevation":0,"gtopo30":51,"timezone":"Europe/London","moddate":"2018-07-03T00:00:00.000Z"},{"geonameid":2644352,"name":"Little Chart","asciiname":"Little Chart","alternatenames":"","latitude":"51.1792600","longitude":"0.7794300","fclass":"P","fcode":"PPL","country":"GB","cc2":"","admin1":"ENG","admin2":"G5","admin3":"29UB","admin4":"29UB023","population":0,"elevation":0,"gtopo30":62,"timezone":"Europe/London","moddate":"2018-07-03T00:00:00.000Z"},{"geonameid":2644366,"name":"Littlebourne","asciiname":"Littlebourne","alternatenames":"","latitude":"51.2744500","longitude":"1.1668700","fclass":"P","fcode":"PPL","country":"GB","cc2":"","admin1":"ENG","admin2":"G5","admin3":"6945807","admin4":"29UC015","population":1529,"elevation":0,"gtopo30":14,"timezone":"Europe/London","moddate":"2018-07-03T00:00:00.000Z"},{"geonameid":2644244,"name":"Littlestone","asciiname":"Littlestone","alternatenames":"Littlestone,Littlestone-on-Sea","latitude":"50.9843700","longitude":"0.9596700","fclass":"P","fcode":"PPL","country":"GB","cc2":"","admin1":"ENG","admin2":"G5","admin3":"6945806","admin4":"29UL017","population":0,"elevation":0,"gtopo30":3,"timezone":"Europe/London","moddate":"2018-07-03T00:00:00.000Z"},{"geonameid":2643696,"name":"Longfield","asciiname":"Longfield","alternatenames":"","latitude":"51.3969000","longitude":"0.3021200","fclass":"P","fcode":"PPL","country":"GB","cc2":"","admin1":"ENG","admin2":"G5","admin3":"29UD","admin4":"29UD003","population":16808,"elevation":0,"gtopo30":58,"timezone":"Europe/London","moddate":"2018-07-03T00:00:00.000Z"},{"geonameid":2643604,"name":"Loose","asciiname":"Loose","alternatenames":"Loose","latitude":"51.2394800","longitude":"0.5171600","fclass":"P","fcode":"PPL","country":"GB","cc2":"","admin1":"ENG","admin2":"G5","admin3":"29UH","admin4":"29UH025","population":0,"elevation":0,"gtopo30":76,"timezone":"Europe/London","moddate":"2018-07-03T00:00:00.000Z"},{"geonameid":2643519,"name":"Lower Halstow","asciiname":"Lower Halstow","alternatenames":"","latitude":"51.3739500","longitude":"0.6681900","fclass":"P","fcode":"PPL","country":"GB","cc2":"","admin1":"ENG","admin2":"G5","admin3":"29UM","admin4":"29UM019","population":1180,"elevation":0,"gtopo30":8,"timezone":"Europe/London","moddate":"2018-07-03T00:00:00.000Z"},{"geonameid":2643518,"name":"Lower Hardres","asciiname":"Lower Hardres","alternatenames":"","latitude":"51.2363400","longitude":"1.0796600","fclass":"P","fcode":"PPL","country":"GB","cc2":"","admin1":"ENG","admin2":"G5","admin3":"6945807","admin4":"29UC016","population":269,"elevation":0,"gtopo30":70,"timezone":"Europe/London","moddate":"2018-07-03T00:00:00.000Z"},{"geonameid":2643436,"name":"Luddenham","asciiname":"Luddenham","alternatenames":"","latitude":"51.3322200","longitude":"0.8593400","fclass":"P","fcode":"PPL","country":"GB","cc2":"","admin1":"ENG","admin2":"G5","admin3":"29UM","admin4":"29UM020","population":0,"elevation":0,"gtopo30":6,"timezone":"Europe/London","moddate":"2018-07-03T00:00:00.000Z"},{"geonameid":2643435,"name":"Luddesdown","asciiname":"Luddesdown","alternatenames":"","latitude":"51.3707900","longitude":"0.3977400","fclass":"P","fcode":"PPL","country":"GB","cc2":"","admin1":"ENG","admin2":"G5","admin3":"29UG","admin4":"29UG003","population":0,"elevation":0,"gtopo30":66,"timezone":"Europe/London","moddate":"2018-07-03T00:00:00.000Z"},{"geonameid":2643327,"name":"Lydd","asciiname":"Lydd","alternatenames":"LYX,Lydd,lyd  knt,لید، کنت","latitude":"50.9513200","longitude":"0.9065400","fclass":"P","fcode":"PPL","country":"GB","cc2":"","admin1":"ENG","admin2":"G5","admin3":"6945806","admin4":"29UL011","population":3889,"elevation":0,"gtopo30":7,"timezone":"Europe/London","moddate":"2018-07-03T00:00:00.000Z"},{"geonameid":10375979,"name":"Lydd-on-Sea","asciiname":"Lydd-on-Sea","alternatenames":"","latitude":"50.9439600","longitude":"0.9655100","fclass":"P","fcode":"PPL","country":"GB","cc2":"","admin1":"ENG","admin2":"G5","admin3":"6945806","admin4":"29UL011","population":0,"elevation":0,"gtopo30":4,"timezone":"Europe/London","moddate":"2016-06-22T00:00:00.000Z"},{"geonameid":2643326,"name":"Lydden","asciiname":"Lydden","alternatenames":"","latitude":"51.1630400","longitude":"1.2353600","fclass":"P","fcode":"PPL","country":"GB","cc2":"","admin1":"ENG","admin2":"G5","admin3":"29UE","admin4":"29UE012","population":673,"elevation":0,"gtopo30":70,"timezone":"Europe/London","moddate":"2018-07-03T00:00:00.000Z"},{"geonameid":2643313,"name":"Lyminge","asciiname":"Lyminge","alternatenames":"","latitude":"51.1295100","longitude":"1.0889600","fclass":"P","fcode":"PPL","country":"GB","cc2":"","admin1":"ENG","admin2":"G5","admin3":"6945806","admin4":"29UL012","population":1948,"elevation":0,"gtopo30":103,"timezone":"Europe/London","moddate":"2018-07-03T00:00:00.000Z"},{"geonameid":2643308,"name":"Lympne","asciiname":"Lympne","alternatenames":"Limpn,Лимпн","latitude":"51.0777300","longitude":"1.0280800","fclass":"P","fcode":"PPL","country":"GB","cc2":"","admin1":"ENG","admin2":"G5","admin3":"6945806","admin4":"29UL013","population":1704,"elevation":0,"gtopo30":99,"timezone":"Europe/London","moddate":"2018-07-03T00:00:00.000Z"},{"geonameid":2643286,"name":"Lynsted","asciiname":"Lynsted","alternatenames":"Linsted,Lynsted","latitude":"51.3122400","longitude":"0.7863800","fclass":"P","fcode":"PPL","country":"GB","cc2":"","admin1":"ENG","admin2":"G5","admin3":"29UM","admin4":"29UM021","population":619,"elevation":0,"gtopo30":41,"timezone":"Europe/London","moddate":"2018-07-03T00:00:00.000Z"},{"geonameid":2643179,"name":"Maidstone","asciiname":"Maidstone","alternatenames":"Maidstone,Meintstooun,Mejdston,Mejdstoun,medosuton,mei de si tong,meideuseuton,mydnstwn,Μέιντστοουν,Мейдстон,Мейдстоун,Мејдстон,میدنستون,میڈسٹون,メードストン,梅德斯通,메이드스톤","latitude":"51.2666700","longitude":"0.5166700","fclass":"P","fcode":"PPLA2","country":"GB","cc2":"","admin1":"ENG","admin2":"G5","admin3":"29UH","admin4":"","population":107627,"elevation":0,"gtopo30":9,"timezone":"Europe/London","moddate":"2017-06-12T00:00:00.000Z"},{"geonameid":2643094,"name":"Manston","asciiname":"Manston","alternatenames":"MSE","latitude":"51.3508800","longitude":"1.3448800","fclass":"P","fcode":"PPL","country":"GB","cc2":"","admin1":"ENG","admin2":"G5","admin3":"2636057","admin4":"29UN010","population":0,"elevation":0,"gtopo30":42,"timezone":"Europe/London","moddate":"2017-12-01T00:00:00.000Z"},{"geonameid":10246610,"name":"Maplescombe","asciiname":"Maplescombe","alternatenames":"","latitude":"51.3584600","longitude":"0.2353500","fclass":"P","fcode":"PPL","country":"GB","cc2":"","admin1":"ENG","admin2":"G5","admin3":"6945814","admin4":"29UK009","population":0,"elevation":0,"gtopo30":77,"timezone":"Europe/London","moddate":"2016-06-22T00:00:00.000Z"},{"geonameid":2643060,"name":"Marden","asciiname":"Marden","alternatenames":"Marden","latitude":"51.1748200","longitude":"0.4885500","fclass":"P","fcode":"PPL","country":"GB","cc2":"","admin1":"ENG","admin2":"G5","admin3":"29UH","admin4":"29UH026","population":2466,"elevation":0,"gtopo30":22,"timezone":"Europe/London","moddate":"2018-07-03T00:00:00.000Z"},{"geonameid":2643044,"name":"Margate","asciiname":"Margate","alternatenames":"Margate,Margejt,Margit,ma gai te,mageito,margyt,Маргейт,Маргејт,Маргит,مارگیت,マーゲイト,马盖特","latitude":"51.3813200","longitude":"1.3861700","fclass":"P","fcode":"PPL","country":"GB","cc2":"","admin1":"ENG","admin2":"G5","admin3":"2636057","admin4":"","population":60134,"elevation":0,"gtopo30":24,"timezone":"Europe/London","moddate":"2013-07-11T00:00:00.000Z"},{"geonameid":2642957,"name":"Martin","asciiname":"Martin","alternatenames":"","latitude":"51.1745300","longitude":"1.3443700","fclass":"P","fcode":"PPL","country":"GB","cc2":"","admin1":"ENG","admin2":"G5","admin3":"29UE","admin4":"29UE011","population":0,"elevation":0,"gtopo30":87,"timezone":"Europe/London","moddate":"2018-07-03T00:00:00.000Z"},{"geonameid":2642915,"name":"Matfield","asciiname":"Matfield","alternatenames":"","latitude":"51.1522700","longitude":"0.3708900","fclass":"P","fcode":"PPL","country":"GB","cc2":"","admin1":"ENG","admin2":"G5","admin3":"29UQ","admin4":"29UQ003","population":0,"elevation":0,"gtopo30":101,"timezone":"Europe/London","moddate":"2018-07-03T00:00:00.000Z"},{"geonameid":11550761,"name":"Maxton","asciiname":"Maxton","alternatenames":"","latitude":"51.1209300","longitude":"1.2901200","fclass":"P","fcode":"PPL","country":"GB","cc2":"","admin1":"ENG","admin2":"G5","admin3":"29UE","admin4":"29UE033","population":0,"elevation":0,"gtopo30":34,"timezone":"Europe/London","moddate":"2017-06-06T00:00:00.000Z"},{"geonameid":2642733,"name":"Meopham","asciiname":"Meopham","alternatenames":"","latitude":"51.3684400","longitude":"0.3600700","fclass":"P","fcode":"PPL","country":"GB","cc2":"","admin1":"ENG","admin2":"G5","admin3":"29UG","admin4":"29UG004","population":4361,"elevation":0,"gtopo30":137,"timezone":"Europe/London","moddate":"2018-07-03T00:00:00.000Z"},{"geonameid":2642728,"name":"Mereworth","asciiname":"Mereworth","alternatenames":"","latitude":"51.2583400","longitude":"0.3804900","fclass":"P","fcode":"PPL","country":"GB","cc2":"","admin1":"ENG","admin2":"G5","admin3":"29UP","admin4":"29UP013","population":0,"elevation":0,"gtopo30":66,"timezone":"Europe/London","moddate":"2018-07-03T00:00:00.000Z"},{"geonameid":2642712,"name":"Mersham","asciiname":"Mersham","alternatenames":"","latitude":"51.1192000","longitude":"0.9330700","fclass":"P","fcode":"PPL","country":"GB","cc2":"","admin1":"ENG","admin2":"G5","admin3":"29UB","admin4":"29UB024","population":806,"elevation":0,"gtopo30":70,"timezone":"Europe/London","moddate":"2018-07-03T00:00:00.000Z"},{"geonameid":10104875,"name":"Mile Oak","asciiname":"Mile Oak","alternatenames":"","latitude":"51.1644900","longitude":"0.4007400","fclass":"P","fcode":"PPL","country":"GB","cc2":"","admin1":"ENG","admin2":"G5","admin3":"29UQ","admin4":"29UQ003","population":0,"elevation":0,"gtopo30":43,"timezone":"Europe/London","moddate":"2019-09-30T00:00:00.000Z"},{"geonameid":2642458,"name":"Milton Regis","asciiname":"Milton Regis","alternatenames":"Milton,Milton Regis","latitude":"51.3530200","longitude":"0.7299700","fclass":"P","fcode":"PPL","country":"GB","cc2":"","admin1":"ENG","admin2":"G5","admin3":"29UM","admin4":"","population":0,"elevation":0,"gtopo30":11,"timezone":"Europe/London","moddate":"2011-03-03T00:00:00.000Z"},{"geonameid":2642434,"name":"Minster","asciiname":"Minster","alternatenames":"","latitude":"51.4217400","longitude":"0.8118300","fclass":"P","fcode":"PPL","country":"GB","cc2":"","admin1":"ENG","admin2":"G5","admin3":"29UM","admin4":"29UM040","population":0,"elevation":0,"gtopo30":50,"timezone":"Europe/London","moddate":"2018-07-03T00:00:00.000Z"},{"geonameid":2642435,"name":"Minster","asciiname":"Minster","alternatenames":"","latitude":"51.3333500","longitude":"1.3141500","fclass":"P","fcode":"PPL","country":"GB","cc2":"","admin1":"ENG","admin2":"G5","admin3":"2636057","admin4":"29UN005","population":0,"elevation":0,"gtopo30":14,"timezone":"Europe/London","moddate":"2018-07-03T00:00:00.000Z"},{"geonameid":2642373,"name":"Molash","asciiname":"Molash","alternatenames":"","latitude":"51.2302400","longitude":"0.9039300","fclass":"P","fcode":"PPL","country":"GB","cc2":"","admin1":"ENG","admin2":"G5","admin3":"29UB","admin4":"29UB025","population":0,"elevation":0,"gtopo30":125,"timezone":"Europe/London","moddate":"2018-07-03T00:00:00.000Z"},{"geonameid":2642319,"name":"Monkton","asciiname":"Monkton","alternatenames":"","latitude":"51.3382300","longitude":"1.2818000","fclass":"P","fcode":"PPL","country":"GB","cc2":"","admin1":"ENG","admin2":"G5","admin3":"2636057","admin4":"29UN006","population":0,"elevation":0,"gtopo30":7,"timezone":"Europe/London","moddate":"2018-07-03T00:00:00.000Z"},{"geonameid":2641949,"name":"Murston","asciiname":"Murston","alternatenames":"","latitude":"51.3407500","longitude":"0.7525800","fclass":"P","fcode":"PPL","country":"GB","cc2":"","admin1":"ENG","admin2":"G5","admin3":"29UM","admin4":"","population":0,"elevation":0,"gtopo30":18,"timezone":"Europe/London","moddate":"2011-02-12T00:00:00.000Z"},{"geonameid":2641582,"name":"New Romney","asciiname":"New Romney","alternatenames":"nyw ramny,نیو رامنی","latitude":"50.9859900","longitude":"0.9412200","fclass":"P","fcode":"PPL","country":"GB","cc2":"","admin1":"ENG","admin2":"G5","admin3":"6945806","admin4":"29UL017","population":9674,"elevation":0,"gtopo30":6,"timezone":"Europe/London","moddate":"2018-07-03T00:00:00.000Z"},{"geonameid":2641668,"name":"Newchurch","asciiname":"Newchurch","alternatenames":"","latitude":"51.0451400","longitude":"0.9268000","fclass":"P","fcode":"PPL","country":"GB","cc2":"","admin1":"ENG","admin2":"G5","admin3":"6945806","admin4":"29UL015","population":0,"elevation":0,"gtopo30":3,"timezone":"Europe/London","moddate":"2018-07-03T00:00:00.000Z"},{"geonameid":2641652,"name":"Newenden","asciiname":"Newenden","alternatenames":"","latitude":"51.0157500","longitude":"0.6128300","fclass":"P","fcode":"PPL","country":"GB","cc2":"","admin1":"ENG","admin2":"G5","admin3":"29UB","admin4":"29UB026","population":0,"elevation":0,"gtopo30":7,"timezone":"Europe/London","moddate":"2018-07-03T00:00:00.000Z"},{"geonameid":11073399,"name":"Newington","asciiname":"Newington","alternatenames":"","latitude":"51.0969200","longitude":"1.1172600","fclass":"P","fcode":"PPL","country":"GB","cc2":"","admin1":"ENG","admin2":"G5","admin3":"6945806","admin4":"29UL016","population":0,"elevation":0,"gtopo30":67,"timezone":"Europe/London","moddate":"2016-06-22T00:00:00.000Z"},{"geonameid":2641629,"name":"Newington","asciiname":"Newington","alternatenames":"","latitude":"51.3521700","longitude":"0.6676800","fclass":"P","fcode":"PPL","country":"GB","cc2":"","admin1":"ENG","admin2":"G5","admin3":"29UM","admin4":"29UM023","population":2164,"elevation":0,"gtopo30":37,"timezone":"Europe/London","moddate":"2018-07-03T00:00:00.000Z"},{"geonameid":2641606,"name":"Newnham","asciiname":"Newnham","alternatenames":"","latitude":"51.2844700","longitude":"0.8012300","fclass":"P","fcode":"PPL","country":"GB","cc2":"","admin1":"ENG","admin2":"G5","admin3":"29UM","admin4":"29UM024","population":0,"elevation":0,"gtopo30":58,"timezone":"Europe/London","moddate":"2018-07-03T00:00:00.000Z"},{"geonameid":11593347,"name":"Nonington","asciiname":"Nonington","alternatenames":"","latitude":"51.2256700","longitude":"1.2250200","fclass":"P","fcode":"PPL","country":"GB","cc2":"","admin1":"ENG","admin2":"G5","admin3":"29UE","admin4":"29UE013","population":0,"elevation":0,"gtopo30":47,"timezone":"Europe/London","moddate":"2017-06-22T00:00:00.000Z"},{"geonameid":2641415,"name":"Northbourne","asciiname":"Northbourne","alternatenames":"","latitude":"51.2204300","longitude":"1.3387900","fclass":"P","fcode":"PPL","country":"GB","cc2":"","admin1":"ENG","admin2":"G5","admin3":"29UE","admin4":"29UE014","population":0,"elevation":0,"gtopo30":36,"timezone":"Europe/London","moddate":"2018-07-03T00:00:00.000Z"},{"geonameid":2641354,"name":"Northfleet","asciiname":"Northfleet","alternatenames":"Northfleet,Northflit,nwrthflyt,Νόρθφλιτ,نورثفلیت","latitude":"51.4463300","longitude":"0.3255100","fclass":"P","fcode":"PPL","country":"GB","cc2":"","admin1":"ENG","admin2":"G5","admin3":"29UG","admin4":"","population":0,"elevation":0,"gtopo30":22,"timezone":"Europe/London","moddate":"2011-02-05T00:00:00.000Z"},{"geonameid":2641208,"name":"Norton","asciiname":"Norton","alternatenames":"","latitude":"51.3099300","longitude":"0.8253900","fclass":"P","fcode":"PPL","country":"GB","cc2":"","admin1":"ENG","admin2":"G5","admin3":"29UM","admin4":"29UM025","population":0,"elevation":0,"gtopo30":46,"timezone":"Europe/London","moddate":"2018-07-03T00:00:00.000Z"},{"geonameid":2641114,"name":"Oare","asciiname":"Oare","alternatenames":"","latitude":"51.3304200","longitude":"0.8778800","fclass":"P","fcode":"PPL","country":"GB","cc2":"","admin1":"ENG","admin2":"G5","admin3":"29UM","admin4":"29UM026","population":0,"elevation":0,"gtopo30":12,"timezone":"Europe/London","moddate":"2018-07-03T00:00:00.000Z"},{"geonameid":2641069,"name":"Offham","asciiname":"Offham","alternatenames":"","latitude":"51.2906100","longitude":"0.3753800","fclass":"P","fcode":"PPL","country":"GB","cc2":"","admin1":"ENG","admin2":"G5","admin3":"29UP","admin4":"29UP014","population":483,"elevation":0,"gtopo30":90,"timezone":"Europe/London","moddate":"2018-07-03T00:00:00.000Z"},{"geonameid":2640996,"name":"Old Romney","asciiname":"Old Romney","alternatenames":"","latitude":"50.9901200","longitude":"0.8948700","fclass":"P","fcode":"PPL","country":"GB","cc2":"","admin1":"ENG","admin2":"G5","admin3":"6945806","admin4":"29UL018","population":0,"elevation":0,"gtopo30":3,"timezone":"Europe/London","moddate":"2018-07-03T00:00:00.000Z"},{"geonameid":2640921,"name":"Orlestone","asciiname":"Orlestone","alternatenames":"","latitude":"51.0766200","longitude":"0.8474100","fclass":"P","fcode":"PPL","country":"GB","cc2":"","admin1":"ENG","admin2":"G5","admin3":"29UB","admin4":"29UB027","population":0,"elevation":0,"gtopo30":50,"timezone":"Europe/London","moddate":"2018-07-03T00:00:00.000Z"},{"geonameid":2640871,"name":"Ospringe","asciiname":"Ospringe","alternatenames":"","latitude":"51.3083000","longitude":"0.8703200","fclass":"P","fcode":"PPL","country":"GB","cc2":"","admin1":"ENG","admin2":"G5","admin3":"29UM","admin4":"29UM012","population":0,"elevation":0,"gtopo30":16,"timezone":"Europe/London","moddate":"2018-07-03T00:00:00.000Z"},{"geonameid":2640860,"name":"Otford","asciiname":"Otford","alternatenames":"","latitude":"51.3128300","longitude":"0.1904600","fclass":"P","fcode":"PPL","country":"GB","cc2":"","admin1":"ENG","admin2":"G5","admin3":"6945814","admin4":"29UK019","population":7155,"elevation":0,"gtopo30":70,"timezone":"Europe/London","moddate":"2018-07-03T00:00:00.000Z"},{"geonameid":2640849,"name":"Otterden","asciiname":"Otterden","alternatenames":"","latitude":"51.2424100","longitude":"0.7886100","fclass":"P","fcode":"PPL","country":"GB","cc2":"","admin1":"ENG","admin2":"G5","admin3":"29UH","admin4":"29UH029","population":0,"elevation":0,"gtopo30":172,"timezone":"Europe/London","moddate":"2018-07-03T00:00:00.000Z"},{"geonameid":2640691,"name":"Paddlesworth","asciiname":"Paddlesworth","alternatenames":"","latitude":"51.1157000","longitude":"1.1353700","fclass":"P","fcode":"PPL","country":"GB","cc2":"","admin1":"ENG","admin2":"G5","admin3":"6945806","admin4":"29UL019","population":0,"elevation":0,"gtopo30":184,"timezone":"Europe/London","moddate":"2018-07-03T00:00:00.000Z"},{"geonameid":2640690,"name":"Paddock Wood","asciiname":"Paddock Wood","alternatenames":"padwk wwd,پادوک وود","latitude":"51.1818700","longitude":"0.3822900","fclass":"P","fcode":"PPLA4","country":"GB","cc2":"","admin1":"ENG","admin2":"G5","admin3":"29UQ","admin4":"29UQ011","population":7840,"elevation":0,"gtopo30":16,"timezone":"Europe/London","moddate":"2018-07-03T00:00:00.000Z"},{"geonameid":10376296,"name":"Park Farm Industrial Estate","asciiname":"Park Farm Industrial Estate","alternatenames":"","latitude":"51.0959800","longitude":"1.1658000","fclass":"P","fcode":"PPLX","country":"GB","cc2":"","admin1":"ENG","admin2":"G5","admin3":"6945806","admin4":"29UL029","population":0,"elevation":0,"gtopo30":50,"timezone":"Europe/London","moddate":"2016-06-22T00:00:00.000Z"},{"geonameid":10104877,"name":"Pearson's Green","asciiname":"Pearson's Green","alternatenames":"","latitude":"51.1612600","longitude":"0.4228000","fclass":"P","fcode":"PPL","country":"GB","cc2":"","admin1":"ENG","admin2":"G5","admin3":"29UQ","admin4":"29UQ011","population":0,"elevation":0,"gtopo30":37,"timezone":"Europe/London","moddate":"2015-02-18T00:00:00.000Z"},{"geonameid":10377809,"name":"Pedlinge","asciiname":"Pedlinge","alternatenames":"","latitude":"51.0787800","longitude":"1.0530100","fclass":"P","fcode":"PPL","country":"GB","cc2":"","admin1":"ENG","admin2":"G5","admin3":"6945806","admin4":"29UL022","population":0,"elevation":0,"gtopo30":82,"timezone":"Europe/London","moddate":"2016-06-22T00:00:00.000Z"},{"geonameid":11073398,"name":"Peene","asciiname":"Peene","alternatenames":"","latitude":"51.0995100","longitude":"1.1208600","fclass":"P","fcode":"PPL","country":"GB","cc2":"","admin1":"ENG","admin2":"G5","admin3":"6945806","admin4":"29UL016","population":0,"elevation":0,"gtopo30":71,"timezone":"Europe/London","moddate":"2016-06-22T00:00:00.000Z"},{"geonameid":2640498,"name":"Pembury","asciiname":"Pembury","alternatenames":"","latitude":"51.1429600","longitude":"0.3218700","fclass":"P","fcode":"PPL","country":"GB","cc2":"","admin1":"ENG","admin2":"G5","admin3":"29UQ","admin4":"29UQ012","population":6128,"elevation":0,"gtopo30":132,"timezone":"Europe/London","moddate":"2018-07-03T00:00:00.000Z"},{"geonameid":2640409,"name":"Penshurst","asciiname":"Penshurst","alternatenames":"Penskhurst,Пенсхърст","latitude":"51.1726700","longitude":"0.1828200","fclass":"P","fcode":"PPL","country":"GB","cc2":"","admin1":"ENG","admin2":"G5","admin3":"6945814","admin4":"29UK020","population":708,"elevation":0,"gtopo30":35,"timezone":"Europe/London","moddate":"2018-07-03T00:00:00.000Z"},{"geonameid":2640340,"name":"Petham","asciiname":"Petham","alternatenames":"","latitude":"51.2229900","longitude":"1.0459100","fclass":"P","fcode":"PPL","country":"GB","cc2":"","admin1":"ENG","admin2":"G5","admin3":"6945807","admin4":"29UC017","population":0,"elevation":0,"gtopo30":64,"timezone":"Europe/London","moddate":"2018-07-03T00:00:00.000Z"},{"geonameid":2640223,"name":"Plaxtol","asciiname":"Plaxtol","alternatenames":"","latitude":"51.2583200","longitude":"0.2956900","fclass":"P","fcode":"PPL","country":"GB","cc2":"","admin1":"ENG","admin2":"G5","admin3":"29UP","admin4":"29UP016","population":606,"elevation":0,"gtopo30":97,"timezone":"Europe/London","moddate":"2018-07-03T00:00:00.000Z"},{"geonameid":2640211,"name":"Pluckley","asciiname":"Pluckley","alternatenames":"","latitude":"51.1757400","longitude":"0.7535100","fclass":"P","fcode":"PPL","country":"GB","cc2":"","admin1":"ENG","admin2":"G5","admin3":"29UB","admin4":"29UB028","population":0,"elevation":0,"gtopo30":96,"timezone":"Europe/London","moddate":"2018-07-03T00:00:00.000Z"},{"geonameid":2639980,"name":"Postling","asciiname":"Postling","alternatenames":"","latitude":"51.1101000","longitude":"1.0641300","fclass":"P","fcode":"PPL","country":"GB","cc2":"","admin1":"ENG","admin2":"G5","admin3":"6945806","admin4":"29UL020","population":0,"elevation":0,"gtopo30":96,"timezone":"Europe/London","moddate":"2018-07-03T00:00:00.000Z"},{"geonameid":2639920,"name":"Preston","asciiname":"Preston","alternatenames":"","latitude":"51.3021800","longitude":"1.2272100","fclass":"P","fcode":"PPL","country":"GB","cc2":"","admin1":"ENG","admin2":"G5","admin3":"29UE","admin4":"29UE015","population":0,"elevation":0,"gtopo30":15,"timezone":"Europe/London","moddate":"2018-07-03T00:00:00.000Z"},