{"pageProps":{"locale":"ro","admin2":{"geonameid":681004,"name":"Oraş Comarnic","country":"RO","admin1":"30","admin2":"131336","admin3":"","latitude":"45.2496200","longitude":"25.6385900"},"admin1":{"geonameid":669737,"name":"Prahova","admin1":"30"},"locations":[{"geonameid":681005,"name":"Comarnic","asciiname":"Comarnic","alternatenames":"Comarnic","latitude":"45.2500000","longitude":"25.6333300","fclass":"P","fcode":"PPLA2","country":"RO","cc2":"","admin1":"30","admin2":"131336","admin3":"","admin4":"","population":13254,"elevation":0,"gtopo30":641,"timezone":"Europe/Bucharest","moddate":"2012-06-12T00:00:00.000Z"},{"geonameid":677327,"name":"Ghioșești","asciiname":"Ghiosesti","alternatenames":"Chiosesti,Ghiosesti,Ghioşeşti","latitude":"45.2423500","longitude":"25.6267100","fclass":"P","fcode":"PPL","country":"RO","cc2":"RO","admin1":"30","admin2":"131336","admin3":"","admin4":"","population":3484,"elevation":0,"gtopo30":630,"timezone":"Europe/Bucharest","moddate":"2013-04-21T00:00:00.000Z"},{"geonameid":670290,"name":"Podu lui Neag","asciiname":"Podu lui Neag","alternatenames":"Podu lui Neag,Podul Neagul","latitude":"45.2666700","longitude":"25.6166700","fclass":"P","fcode":"PPLX","country":"RO","cc2":"","admin1":"30","admin2":"131336","admin3":"","admin4":"","population":0,"elevation":0,"gtopo30":706,"timezone":"Europe/Bucharest","moddate":"2016-02-07T00:00:00.000Z"},{"geonameid":670287,"name":"Podu Lung","asciiname":"Podu Lung","alternatenames":"","latitude":"45.2349000","longitude":"25.6470100","fclass":"P","fcode":"PPL","country":"RO","cc2":"","admin1":"30","admin2":"131336","admin3":"","admin4":"","population":694,"elevation":0,"gtopo30":625,"timezone":"Europe/Bucharest","moddate":"2013-04-21T00:00:00.000Z"},{"geonameid":670251,"name":"Podu Vârtos","asciiname":"Podu Vartos","alternatenames":"Podu Vartos,Podu Virtos,Podu Vârtos,Podu Vîrtos,Podul Vartos,Podul Vârtos","latitude":"45.2666700","longitude":"25.6333300","fclass":"P","fcode":"PPLX","country":"RO","cc2":"RO","admin1":"30","admin2":"131336","admin3":"","admin4":"","population":0,"elevation":0,"gtopo30":771,"timezone":"Europe/Bucharest","moddate":"2020-03-08T00:00:00.000Z"},{"geonameid":670151,"name":"Poiana","asciiname":"Poiana","alternatenames":"Poiana,Poiana Comarnic","latitude":"45.2453600","longitude":"25.6630200","fclass":"P","fcode":"PPL","country":"RO","cc2":"RO","admin1":"30","admin2":"131336","admin3":"","admin4":"","population":3750,"elevation":0,"gtopo30":746,"timezone":"Europe/Bucharest","moddate":"2013-04-21T00:00:00.000Z"},{"geonameid":669807,"name":"Posada","asciiname":"Posada","alternatenames":"","latitude":"45.2871400","longitude":"25.6188200","fclass":"P","fcode":"PPL","country":"RO","cc2":"","admin1":"30","admin2":"131336","admin3":"","admin4":"","population":1478,"elevation":0,"gtopo30":749,"timezone":"Europe/Bucharest","moddate":"2013-04-21T00:00:00.000Z"}],"admin3":[],"alternateNames":[{"alternatenameId":8326236,"geonameid":669737,"isoLanguage":"en","alternateName":"Prahova","isPreferredName":true,"isShortName":true,"isColloquial":false,"isHistoric":false}]},"__N_SSG":true}