{"pageProps":{"locale":"ro","admin2":{"geonameid":685013,"name":"Comuna Berghin","country":"RO","admin1":"01","admin2":"2988","admin3":"","latitude":"46.0748400","longitude":"23.7376800"},"admin1":{"geonameid":686581,"name":"Alba","admin1":"01"},"locations":[{"geonameid":685014,"name":"Berghin","asciiname":"Berghin","alternatenames":"Berghin,Berghiu","latitude":"46.0778200","longitude":"23.7374200","fclass":"P","fcode":"PPLA2","country":"RO","cc2":"","admin1":"01","admin2":"2988","admin3":"","admin4":"","population":2125,"elevation":0,"gtopo30":293,"timezone":"Europe/Bucharest","moddate":"2012-06-12T00:00:00.000Z"},{"geonameid":677324,"name":"Ghirbom","asciiname":"Ghirbom","alternatenames":"","latitude":"46.0347600","longitude":"23.7232900","fclass":"P","fcode":"PPL","country":"RO","cc2":"","admin1":"01","admin2":"2988","admin3":"","admin4":"","population":696,"elevation":0,"gtopo30":340,"timezone":"Europe/Bucharest","moddate":"2013-04-21T00:00:00.000Z"},{"geonameid":676248,"name":"Henig","asciiname":"Henig","alternatenames":"","latitude":"46.1057600","longitude":"23.7308900","fclass":"P","fcode":"PPL","country":"RO","cc2":"","admin1":"01","admin2":"2988","admin3":"","admin4":"","population":503,"elevation":0,"gtopo30":287,"timezone":"Europe/Bucharest","moddate":"2013-04-21T00:00:00.000Z"},{"geonameid":666017,"name":"Straja","asciiname":"Straja","alternatenames":"","latitude":"46.0672300","longitude":"23.6863000","fclass":"P","fcode":"PPL","country":"RO","cc2":"","admin1":"01","admin2":"2988","admin3":"","admin4":"","population":409,"elevation":0,"gtopo30":404,"timezone":"Europe/Bucharest","moddate":"2013-04-21T00:00:00.000Z"}],"admin3":[],"alternateNames":[]},"__N_SSG":true}