{"pageProps":{"locale":"ro","admin2":{"geonameid":679227,"name":"Comuna Dobrin","country":"RO","admin1":"31","admin2":"140958","admin3":"","latitude":"47.3081200","longitude":"23.1136700"},"admin1":{"geonameid":668248,"name":"Sălaj","admin1":"31"},"locations":[{"geonameid":679519,"name":"Deleni","asciiname":"Deleni","alternatenames":"Cioara,Ciora,Deleni","latitude":"47.3211100","longitude":"23.0908300","fclass":"P","fcode":"PPL","country":"RO","cc2":"RO","admin1":"31","admin2":"140958","admin3":"","admin4":"","population":88,"elevation":0,"gtopo30":220,"timezone":"Europe/Bucharest","moddate":"2013-04-21T00:00:00.000Z"},{"geonameid":679295,"name":"Doba","asciiname":"Doba","alternatenames":"Doba,Doba Mare","latitude":"47.2908700","longitude":"23.0961000","fclass":"P","fcode":"PPL","country":"RO","cc2":"RO","admin1":"31","admin2":"140958","admin3":"","admin4":"","population":713,"elevation":0,"gtopo30":213,"timezone":"Europe/Bucharest","moddate":"2013-04-21T00:00:00.000Z"},{"geonameid":679288,"name":"Doba Mică","asciiname":"Doba Mica","alternatenames":"","latitude":"47.3000000","longitude":"23.0833300","fclass":"P","fcode":"PPL","country":"RO","cc2":"","admin1":"31","admin2":"140958","admin3":"","admin4":"","population":0,"elevation":0,"gtopo30":272,"timezone":"Europe/Bucharest","moddate":"2016-02-07T00:00:00.000Z"},{"geonameid":679228,"name":"Dobrin","asciiname":"Dobrin","alternatenames":"Dobrin","latitude":"47.2833300","longitude":"23.1333300","fclass":"P","fcode":"PPLA2","country":"RO","cc2":"","admin1":"31","admin2":"140958","admin3":"","admin4":"","population":1736,"elevation":0,"gtopo30":289,"timezone":"Europe/Bucharest","moddate":"2012-06-12T00:00:00.000Z"},{"geonameid":672536,"name":"Naimon","asciiname":"Naimon","alternatenames":"","latitude":"47.3274400","longitude":"23.1176500","fclass":"P","fcode":"PPL","country":"RO","cc2":"","admin1":"31","admin2":"140958","admin3":"","admin4":"","population":95,"elevation":0,"gtopo30":205,"timezone":"Europe/Bucharest","moddate":"2013-04-21T00:00:00.000Z"},{"geonameid":667057,"name":"Sâncraiu Silvaniei","asciiname":"Sancraiu Silvaniei","alternatenames":"Sancraiul,Silvaniei,Sincraiu Silvaniei,Sâncraiul,Sîncraiu Silvaniei","latitude":"47.3003600","longitude":"23.1352400","fclass":"P","fcode":"PPL","country":"RO","cc2":"RO","admin1":"31","admin2":"140958","admin3":"","admin4":"","population":184,"elevation":0,"gtopo30":221,"timezone":"Europe/Bucharest","moddate":"2013-04-21T00:00:00.000Z"},{"geonameid":663028,"name":"Verveghiu","asciiname":"Verveghiu","alternatenames":"Verveghiu,Vervoghiu","latitude":"47.3135600","longitude":"23.1102700","fclass":"P","fcode":"PPL","country":"RO","cc2":"RO","admin1":"31","admin2":"140958","admin3":"","admin4":"","population":454,"elevation":0,"gtopo30":228,"timezone":"Europe/Bucharest","moddate":"2013-04-20T00:00:00.000Z"}],"admin3":[],"alternateNames":[]},"__N_SSG":true}