{"pageProps":{"locale":"ro","admin2":{"geonameid":665686,"name":"Comuna Suseni","country":"RO","admin1":"03","admin2":"19007","admin3":"","latitude":"44.7086100","longitude":"24.9643700"},"admin1":{"geonameid":686192,"name":"Argeş","admin1":"03"},"locations":[{"geonameid":684440,"name":"Boereşti","asciiname":"Boeresti","alternatenames":"","latitude":"44.7000000","longitude":"24.9333300","fclass":"P","fcode":"PPL","country":"RO","cc2":"","admin1":"03","admin2":"19007","admin3":"","admin4":"","population":0,"elevation":0,"gtopo30":259,"timezone":"Europe/Bucharest","moddate":"2016-02-07T00:00:00.000Z"},{"geonameid":683241,"name":"Burdeşti","asciiname":"Burdesti","alternatenames":"Burdesiti,Burdesti,Burdeşiti,Burdeşti","latitude":"44.7215500","longitude":"24.9496900","fclass":"P","fcode":"PPL","country":"RO","cc2":"RO","admin1":"03","admin2":"19007","admin3":"","admin4":"","population":0,"elevation":0,"gtopo30":261,"timezone":"Europe/Bucharest","moddate":"2016-02-07T00:00:00.000Z"},{"geonameid":682290,"name":"Cerşani","asciiname":"Cersani","alternatenames":"","latitude":"44.7211900","longitude":"24.9235200","fclass":"P","fcode":"PPL","country":"RO","cc2":"","admin1":"03","admin2":"19007","admin3":"","admin4":"","population":0,"elevation":0,"gtopo30":265,"timezone":"Europe/Bucharest","moddate":"2016-02-07T00:00:00.000Z"},{"geonameid":682042,"name":"Chirițești","asciiname":"Chiritesti","alternatenames":"","latitude":"44.7150300","longitude":"24.9745000","fclass":"P","fcode":"PPL","country":"RO","cc2":"","admin1":"03","admin2":"19007","admin3":"","admin4":"","population":76,"elevation":0,"gtopo30":250,"timezone":"Europe/Bucharest","moddate":"2015-11-14T00:00:00.000Z"},{"geonameid":677659,"name":"Găleșești","asciiname":"Galesesti","alternatenames":"","latitude":"44.7091000","longitude":"24.9687900","fclass":"P","fcode":"PPL","country":"RO","cc2":"","admin1":"03","admin2":"19007","admin3":"","admin4":"","population":360,"elevation":0,"gtopo30":248,"timezone":"Europe/Bucharest","moddate":"2013-04-21T00:00:00.000Z"},{"geonameid":671999,"name":"Odăeni","asciiname":"Odaeni","alternatenames":"","latitude":"44.6819100","longitude":"24.9737400","fclass":"P","fcode":"PPLX","country":"RO","cc2":"","admin1":"03","admin2":"19007","admin3":"","admin4":"","population":486,"elevation":0,"gtopo30":242,"timezone":"Europe/Bucharest","moddate":"2013-04-21T00:00:00.000Z"},{"geonameid":671539,"name":"Pădureni","asciiname":"Padureni","alternatenames":"","latitude":"44.7073700","longitude":"24.9863800","fclass":"P","fcode":"PPL","country":"RO","cc2":"","admin1":"03","admin2":"19007","admin3":"","admin4":"","population":219,"elevation":0,"gtopo30":252,"timezone":"Europe/Bucharest","moddate":"2013-04-21T00:00:00.000Z"},{"geonameid":666237,"name":"Ştefăneşti","asciiname":"Stefanesti","alternatenames":"","latitude":"44.7249700","longitude":"24.9680600","fclass":"P","fcode":"PPL","country":"RO","cc2":"","admin1":"03","admin2":"19007","admin3":"","admin4":"","population":0,"elevation":0,"gtopo30":259,"timezone":"Europe/Bucharest","moddate":"2016-02-07T00:00:00.000Z"},{"geonameid":665961,"name":"Strâmbeni","asciiname":"Strambeni","alternatenames":"Strambeni,Strimbeni,Strâmbeni,Strîmbeni","latitude":"44.6989600","longitude":"24.9420400","fclass":"P","fcode":"PPL","country":"RO","cc2":"RO","admin1":"03","admin2":"19007","admin3":"","admin4":"","population":373,"elevation":0,"gtopo30":255,"timezone":"Europe/Bucharest","moddate":"2013-04-21T00:00:00.000Z"},{"geonameid":665700,"name":"Suseni","asciiname":"Suseni","alternatenames":"","latitude":"44.7166700","longitude":"24.9500000","fclass":"P","fcode":"PPLA2","country":"RO","cc2":"","admin1":"03","admin2":"19007","admin3":"","admin4":"","population":3492,"elevation":0,"gtopo30":257,"timezone":"Europe/Bucharest","moddate":"2012-06-12T00:00:00.000Z"},{"geonameid":664401,"name":"Țuțulești","asciiname":"Tutulesti","alternatenames":"","latitude":"44.6965000","longitude":"24.9736300","fclass":"P","fcode":"PPL","country":"RO","cc2":"","admin1":"03","admin2":"19007","admin3":"","admin4":"","population":478,"elevation":0,"gtopo30":250,"timezone":"Europe/Bucharest","moddate":"2013-04-21T00:00:00.000Z"},{"geonameid":663960,"name":"Văjeşti","asciiname":"Vajesti","alternatenames":"","latitude":"44.7166700","longitude":"24.9333300","fclass":"P","fcode":"PPLX","country":"RO","cc2":"","admin1":"03","admin2":"19007","admin3":"","admin4":"","population":0,"elevation":0,"gtopo30":261,"timezone":"Europe/Bucharest","moddate":"2016-02-07T00:00:00.000Z"}],"admin3":[],"alternateNames":[]},"__N_SSG":true}