{"pageProps":{"locale":"ro","admin2":{"geonameid":662880,"name":"Comuna Vâlcele","country":"RO","admin1":"15","admin2":"64942","admin3":"","latitude":"45.8173600","longitude":"25.6792500"},"admin1":{"geonameid":680428,"name":"Covasna","admin1":"15"},"locations":[{"geonameid":686256,"name":"Araci","asciiname":"Araci","alternatenames":"","latitude":"45.8118700","longitude":"25.6548200","fclass":"P","fcode":"PPL","country":"RO","cc2":"","admin1":"15","admin2":"64942","admin3":"","admin4":"","population":1373,"elevation":0,"gtopo30":500,"timezone":"Europe/Bucharest","moddate":"2013-04-21T00:00:00.000Z"},{"geonameid":686153,"name":"Ariușd","asciiname":"Ariusd","alternatenames":"","latitude":"45.7780100","longitude":"25.6784300","fclass":"P","fcode":"PPL","country":"RO","cc2":"","admin1":"15","admin2":"64942","admin3":"","admin4":"","population":498,"elevation":0,"gtopo30":507,"timezone":"Europe/Bucharest","moddate":"2013-04-21T00:00:00.000Z"},{"geonameid":676218,"name":"Hetea","asciiname":"Hetea","alternatenames":"Hetea,Hitea","latitude":"45.8248700","longitude":"25.6953600","fclass":"P","fcode":"PPL","country":"RO","cc2":"RO","admin1":"15","admin2":"64942","admin3":"","admin4":"","population":168,"elevation":0,"gtopo30":626,"timezone":"Europe/Bucharest","moddate":"2013-04-21T00:00:00.000Z"},{"geonameid":662884,"name":"Vâlcele","asciiname":"Valcele","alternatenames":"Elopatak,Elöpatak,Valcele,Vâlcele","latitude":"45.8500000","longitude":"25.6833300","fclass":"P","fcode":"PPLA2","country":"RO","cc2":"","admin1":"15","admin2":"64942","admin3":"","admin4":"","population":3646,"elevation":0,"gtopo30":640,"timezone":"Europe/Bucharest","moddate":"2012-06-12T00:00:00.000Z"}],"admin3":[],"alternateNames":[]},"__N_SSG":true}