{"pageProps":{"locale":"ro","admin2":{"geonameid":670256,"name":"Comuna Podu Turcului","country":"RO","admin1":"04","admin2":"24524","admin3":"","latitude":"46.1970300","longitude":"27.3879600"},"admin1":{"geonameid":685947,"name":"Bacău","admin1":"04"},"locations":[{"geonameid":685691,"name":"Bălănești","asciiname":"Balanesti","alternatenames":"","latitude":"46.1977100","longitude":"27.3622400","fclass":"P","fcode":"PPL","country":"RO","cc2":"","admin1":"04","admin2":"24524","admin3":"","admin4":"","population":172,"elevation":0,"gtopo30":175,"timezone":"Europe/Bucharest","moddate":"2013-04-21T00:00:00.000Z"},{"geonameid":683093,"name":"Căbești","asciiname":"Cabesti","alternatenames":"","latitude":"46.2118400","longitude":"27.4406300","fclass":"P","fcode":"PPL","country":"RO","cc2":"","admin1":"04","admin2":"24524","admin3":"","admin4":"","population":829,"elevation":0,"gtopo30":192,"timezone":"Europe/Bucharest","moddate":"2013-04-21T00:00:00.000Z"},{"geonameid":679795,"name":"Dămăcuşa","asciiname":"Damacusa","alternatenames":"","latitude":"46.2166700","longitude":"27.3833300","fclass":"P","fcode":"PPLX","country":"RO","cc2":"","admin1":"04","admin2":"24524","admin3":"","admin4":"","population":0,"elevation":0,"gtopo30":112,"timezone":"Europe/Bucharest","moddate":"2016-02-07T00:00:00.000Z"},{"geonameid":679364,"name":"Dânceni","asciiname":"Danceni","alternatenames":"Danceni,Dinceni,Dânceni,Dînceni","latitude":"46.2166700","longitude":"27.3666700","fclass":"P","fcode":"PPL","country":"RO","cc2":"RO","admin1":"04","admin2":"24524","admin3":"","admin4":"","population":0,"elevation":0,"gtopo30":166,"timezone":"Europe/Bucharest","moddate":"2020-03-08T00:00:00.000Z"},{"geonameid":678291,"name":"Fichitești","asciiname":"Fichitesti","alternatenames":"Fichitesti,Fichitestii,Fichiteşti,Fichiteştii","latitude":"46.1978700","longitude":"27.4789300","fclass":"P","fcode":"PPL","country":"RO","cc2":"RO","admin1":"04","admin2":"24524","admin3":"","admin4":"","population":106,"elevation":0,"gtopo30":97,"timezone":"Europe/Bucharest","moddate":"2013-04-21T00:00:00.000Z"},{"geonameid":677111,"name":"Giurgioana","asciiname":"Giurgioana","alternatenames":"Giorgieana,Giurgioaia,Giurgioana,Giurgiuoana","latitude":"46.1723900","longitude":"27.3576800","fclass":"P","fcode":"PPL","country":"RO","cc2":"RO","admin1":"04","admin2":"24524","admin3":"","admin4":"","population":105,"elevation":0,"gtopo30":215,"timezone":"Europe/Bucharest","moddate":"2013-04-21T00:00:00.000Z"},{"geonameid":676329,"name":"Hanța","asciiname":"Hanta","alternatenames":"","latitude":"46.1854000","longitude":"27.3703100","fclass":"P","fcode":"PPL","country":"RO","cc2":"","admin1":"04","admin2":"24524","admin3":"","admin4":"","population":44,"elevation":0,"gtopo30":106,"timezone":"Europe/Bucharest","moddate":"2013-04-21T00:00:00.000Z"},{"geonameid":676328,"name":"Hanţa de pe Deal","asciiname":"Hanta de pe Deal","alternatenames":"","latitude":"46.1833300","longitude":"27.3333300","fclass":"P","fcode":"PPLX","country":"RO","cc2":"","admin1":"04","admin2":"24524","admin3":"","admin4":"","population":0,"elevation":0,"gtopo30":240,"timezone":"Europe/Bucharest","moddate":"2016-02-07T00:00:00.000Z"},{"geonameid":676327,"name":"Hanţa de pe Vale","asciiname":"Hanta de pe Vale","alternatenames":"","latitude":"46.1833300","longitude":"27.3333300","fclass":"P","fcode":"PPLX","country":"RO","cc2":"","admin1":"04","admin2":"24524","admin3":"","admin4":"","population":0,"elevation":0,"gtopo30":240,"timezone":"Europe/Bucharest","moddate":"2016-02-07T00:00:00.000Z"},{"geonameid":674922,"name":"Lehancea","asciiname":"Lehancea","alternatenames":"Lehacca,Lehancea","latitude":"46.1970600","longitude":"27.3455600","fclass":"P","fcode":"PPL","country":"RO","cc2":"RO","admin1":"04","admin2":"24524","admin3":"","admin4":"","population":359,"elevation":0,"gtopo30":232,"timezone":"Europe/Bucharest","moddate":"2013-04-21T00:00:00.000Z"},{"geonameid":670421,"name":"Plopu","asciiname":"Plopu","alternatenames":"Plopii,Plopu","latitude":"46.1956400","longitude":"27.4361800","fclass":"P","fcode":"PPL","country":"RO","cc2":"RO","admin1":"04","admin2":"24524","admin3":"","admin4":"","population":246,"elevation":0,"gtopo30":158,"timezone":"Europe/Bucharest","moddate":"2013-04-21T00:00:00.000Z"},{"geonameid":670257,"name":"Podu Turcului","asciiname":"Podu Turcului","alternatenames":"Podu Turcului,Podul-Turcului","latitude":"46.2000000","longitude":"27.3833300","fclass":"P","fcode":"PPLA2","country":"RO","cc2":"","admin1":"04","admin2":"24524","admin3":"","admin4":"","population":5081,"elevation":0,"gtopo30":114,"timezone":"Europe/Bucharest","moddate":"2012-06-12T00:00:00.000Z"},{"geonameid":669299,"name":"Răcușana","asciiname":"Racusana","alternatenames":"","latitude":"46.1773200","longitude":"27.3624700","fclass":"P","fcode":"PPL","country":"RO","cc2":"","admin1":"04","admin2":"24524","admin3":"","admin4":"","population":59,"elevation":0,"gtopo30":149,"timezone":"Europe/Bucharest","moddate":"2013-04-21T00:00:00.000Z"},{"geonameid":666851,"name":"Sârbi","asciiname":"Sarbi","alternatenames":"Sarbi,Sirbi,Sîrbi,Sărbi","latitude":"46.2304900","longitude":"27.3380500","fclass":"P","fcode":"PPL","country":"RO","cc2":"RO","admin1":"04","admin2":"24524","admin3":"","admin4":"","population":531,"elevation":0,"gtopo30":198,"timezone":"Europe/Bucharest","moddate":"2013-04-21T00:00:00.000Z"},{"geonameid":667225,"name":"Sighica","asciiname":"Sighica","alternatenames":"Seghica,Sighica","latitude":"46.2166700","longitude":"27.4333300","fclass":"P","fcode":"PPL","country":"RO","cc2":"","admin1":"04","admin2":"24524","admin3":"","admin4":"","population":0,"elevation":0,"gtopo30":198,"timezone":"Europe/Bucharest","moddate":"2016-02-07T00:00:00.000Z"},{"geonameid":662226,"name":"Zeletinu de Jos","asciiname":"Zeletinu de Jos","alternatenames":"","latitude":"46.2000000","longitude":"27.3833300","fclass":"P","fcode":"PPL","country":"RO","cc2":"","admin1":"04","admin2":"24524","admin3":"","admin4":"","population":0,"elevation":0,"gtopo30":114,"timezone":"Europe/Bucharest","moddate":"2016-02-07T00:00:00.000Z"}],"admin3":[],"alternateNames":[]},"__N_SSG":true}