{"pageProps":{"locale":"ro","admin2":{"geonameid":664316,"name":"Comuna Ulma","country":"RO","admin1":"34","admin2":"150702","admin3":"","latitude":"47.8632200","longitude":"25.2646700"},"admin1":{"geonameid":665849,"name":"Suceava","admin1":"34"},"locations":[{"geonameid":680550,"name":"Costileva","asciiname":"Costileva","alternatenames":"Costeleva,Costileva","latitude":"47.8809200","longitude":"25.2353400","fclass":"P","fcode":"PPL","country":"RO","cc2":"RO","admin1":"34","admin2":"150702","admin3":"","admin4":"","population":375,"elevation":0,"gtopo30":840,"timezone":"Europe/Bucharest","moddate":"2013-04-21T00:00:00.000Z"},{"geonameid":678540,"name":"Erişte","asciiname":"Eriste","alternatenames":"","latitude":"47.8833300","longitude":"25.3333300","fclass":"P","fcode":"PPLX","country":"RO","cc2":"","admin1":"34","admin2":"150702","admin3":"","admin4":"","population":0,"elevation":0,"gtopo30":900,"timezone":"Europe/Bucharest","moddate":"2016-02-07T00:00:00.000Z"},{"geonameid":674264,"name":"Lupcina","asciiname":"Lupcina","alternatenames":"","latitude":"47.8333300","longitude":"25.2500000","fclass":"P","fcode":"PPL","country":"RO","cc2":"","admin1":"34","admin2":"150702","admin3":"","admin4":"","population":654,"elevation":0,"gtopo30":1031,"timezone":"Europe/Bucharest","moddate":"2016-01-02T00:00:00.000Z"},{"geonameid":674144,"name":"Măgura","asciiname":"Magura","alternatenames":"","latitude":"47.8218700","longitude":"25.2356500","fclass":"P","fcode":"PPL","country":"RO","cc2":"","admin1":"34","admin2":"150702","admin3":"","admin4":"","population":387,"elevation":0,"gtopo30":1051,"timezone":"Europe/Bucharest","moddate":"2013-04-21T00:00:00.000Z"},{"geonameid":672203,"name":"Nisipitu","asciiname":"Nisipitu","alternatenames":"Nisipitu,Nisipitul,Sipitul","latitude":"47.8724100","longitude":"25.3304700","fclass":"P","fcode":"PPL","country":"RO","cc2":"RO","admin1":"34","admin2":"150702","admin3":"","admin4":"","population":442,"elevation":0,"gtopo30":672,"timezone":"Europe/Bucharest","moddate":"2013-04-21T00:00:00.000Z"},{"geonameid":670404,"name":"Plosci","asciiname":"Plosci","alternatenames":"","latitude":"47.8833300","longitude":"25.3333300","fclass":"P","fcode":"PPLX","country":"RO","cc2":"","admin1":"34","admin2":"150702","admin3":"","admin4":"","population":0,"elevation":0,"gtopo30":900,"timezone":"Europe/Bucharest","moddate":"2016-02-07T00:00:00.000Z"},{"geonameid":668241,"name":"Sălaş","asciiname":"Salas","alternatenames":"","latitude":"47.8833300","longitude":"25.3000000","fclass":"P","fcode":"PPL","country":"RO","cc2":"","admin1":"34","admin2":"150702","admin3":"","admin4":"","population":0,"elevation":0,"gtopo30":685,"timezone":"Europe/Bucharest","moddate":"2016-02-07T00:00:00.000Z"},{"geonameid":664317,"name":"Ulma","asciiname":"Ulma","alternatenames":"","latitude":"47.8833300","longitude":"25.3000000","fclass":"P","fcode":"PPLA2","country":"RO","cc2":"","admin1":"34","admin2":"150702","admin3":"","admin4":"","population":2285,"elevation":0,"gtopo30":685,"timezone":"Europe/Bucharest","moddate":"2012-06-12T00:00:00.000Z"}],"admin3":[],"alternateNames":[{"alternatenameId":393492,"geonameid":665849,"isoLanguage":"en","alternateName":"Suceava","isPreferredName":true,"isShortName":true,"isColloquial":false,"isHistoric":false}]},"__N_SSG":true}