{"pageProps":{"locale":"ro","admin2":{"geonameid":685671,"name":"Comuna Bălăşeşti","country":"RO","admin1":"18","admin2":"75613","admin3":"","latitude":"46.0900300","longitude":"27.6584400"},"admin1":{"geonameid":677692,"name":"Galaţi","admin1":"18"},"locations":[{"geonameid":685672,"name":"Bălăşeşti","asciiname":"Balasesti","alternatenames":"","latitude":"46.1000000","longitude":"27.6666700","fclass":"P","fcode":"PPLA2","country":"RO","cc2":"","admin1":"18","admin2":"75613","admin3":"","admin4":"","population":2534,"elevation":0,"gtopo30":137,"timezone":"Europe/Bucharest","moddate":"2012-06-12T00:00:00.000Z"},{"geonameid":681376,"name":"Ciurești","asciiname":"Ciuresti","alternatenames":"","latitude":"46.0785600","longitude":"27.6356400","fclass":"P","fcode":"PPL","country":"RO","cc2":"","admin1":"18","admin2":"75613","admin3":"","admin4":"","population":508,"elevation":0,"gtopo30":145,"timezone":"Europe/Bucharest","moddate":"2013-04-21T00:00:00.000Z"},{"geonameid":681375,"name":"Ciureștii Noi","asciiname":"Ciurestii Noi","alternatenames":"Ciurestii Noi,Ciureştii Noi,Satu Nou Ciuresti,Satu Nou Ciureşti","latitude":"46.1008700","longitude":"27.6394100","fclass":"P","fcode":"PPL","country":"RO","cc2":"RO","admin1":"18","admin2":"75613","admin3":"","admin4":"","population":582,"elevation":0,"gtopo30":103,"timezone":"Europe/Bucharest","moddate":"2013-04-21T00:00:00.000Z"},{"geonameid":669486,"name":"Pupezeni","asciiname":"Pupezeni","alternatenames":"","latitude":"46.0793500","longitude":"27.6848300","fclass":"P","fcode":"PPL","country":"RO","cc2":"","admin1":"18","admin2":"75613","admin3":"","admin4":"","population":240,"elevation":0,"gtopo30":127,"timezone":"Europe/Bucharest","moddate":"2013-04-21T00:00:00.000Z"}],"admin3":[],"alternateNames":[]},"__N_SSG":true}