{"pageProps":{"locale":"ro","admin2":{"geonameid":664815,"name":"Comuna Tomeşti","country":"RO","admin1":"23","admin2":"95293","admin3":"","latitude":"47.1170400","longitude":"27.7047600"},"admin1":{"geonameid":675809,"name":"Iaşi","admin1":"23"},"locations":[{"geonameid":682150,"name":"Chicerea","asciiname":"Chicerea","alternatenames":"","latitude":"47.1055400","longitude":"27.7474700","fclass":"P","fcode":"PPL","country":"RO","cc2":"","admin1":"23","admin2":"95293","admin3":"","admin4":"","population":879,"elevation":0,"gtopo30":99,"timezone":"Europe/Bucharest","moddate":"2013-04-21T00:00:00.000Z"},{"geonameid":676873,"name":"Goruni","asciiname":"Goruni","alternatenames":"","latitude":"47.1038900","longitude":"27.7185400","fclass":"P","fcode":"PPL","country":"RO","cc2":"","admin1":"23","admin2":"95293","admin3":"","admin4":"","population":1142,"elevation":0,"gtopo30":113,"timezone":"Europe/Bucharest","moddate":"2013-04-21T00:00:00.000Z"},{"geonameid":664819,"name":"Tomeşti","asciiname":"Tomesti","alternatenames":"","latitude":"47.1166700","longitude":"27.6833300","fclass":"P","fcode":"PPLA2","country":"RO","cc2":"","admin1":"23","admin2":"95293","admin3":"","admin4":"","population":11828,"elevation":0,"gtopo30":152,"timezone":"Europe/Bucharest","moddate":"2012-06-12T00:00:00.000Z"},{"geonameid":662606,"name":"Vlădiceni","asciiname":"Vladiceni","alternatenames":"","latitude":"47.1336800","longitude":"27.6555300","fclass":"P","fcode":"PPL","country":"RO","cc2":"","admin1":"23","admin2":"95293","admin3":"","admin4":"","population":338,"elevation":0,"gtopo30":60,"timezone":"Europe/Bucharest","moddate":"2013-04-20T00:00:00.000Z"}],"admin3":[],"alternateNames":[]},"__N_SSG":true}