{"pageProps":{"locale":"ro","admin2":{"geonameid":678382,"name":"Comuna Făureşti","country":"RO","admin1":"39","admin2":"169583","admin3":"","latitude":"44.5735100","longitude":"24.0087100"},"admin1":{"geonameid":662892,"name":"Vâlcea","admin1":"39"},"locations":[{"geonameid":683265,"name":"Bungețani","asciiname":"Bungetani","alternatenames":"","latitude":"44.5725500","longitude":"24.0079800","fclass":"P","fcode":"PPL","country":"RO","cc2":"","admin1":"39","admin2":"169583","admin3":"","admin4":"","population":267,"elevation":0,"gtopo30":203,"timezone":"Europe/Bucharest","moddate":"2013-04-21T00:00:00.000Z"},{"geonameid":683263,"name":"Bungeţoaia","asciiname":"Bungetoaia","alternatenames":"","latitude":"44.5666700","longitude":"24.0166700","fclass":"P","fcode":"PPLX","country":"RO","cc2":"","admin1":"39","admin2":"169583","admin3":"","admin4":"","population":0,"elevation":0,"gtopo30":213,"timezone":"Europe/Bucharest","moddate":"2016-02-07T00:00:00.000Z"},{"geonameid":678385,"name":"Făureşti","asciiname":"Fauresti","alternatenames":"Fauresti,Făureşti","latitude":"44.5666700","longitude":"24.0166700","fclass":"P","fcode":"PPLA2","country":"RO","cc2":"","admin1":"39","admin2":"169583","admin3":"","admin4":"","population":3623,"elevation":0,"gtopo30":213,"timezone":"Europe/Bucharest","moddate":"2012-06-12T00:00:00.000Z"},{"geonameid":677718,"name":"Găinești","asciiname":"Gainesti","alternatenames":"","latitude":"44.5765900","longitude":"24.0035600","fclass":"P","fcode":"PPL","country":"RO","cc2":"","admin1":"39","admin2":"169583","admin3":"","admin4":"","population":363,"elevation":0,"gtopo30":205,"timezone":"Europe/Bucharest","moddate":"2013-04-21T00:00:00.000Z"},{"geonameid":673848,"name":"Mărcușu","asciiname":"Marcusu","alternatenames":"Marcusu,Marcusul,Mărcuşu,Mărcuşul","latitude":"44.5648100","longitude":"24.0182300","fclass":"P","fcode":"PPL","country":"RO","cc2":"RO","admin1":"39","admin2":"169583","admin3":"","admin4":"","population":193,"elevation":0,"gtopo30":210,"timezone":"Europe/Bucharest","moddate":"2013-04-21T00:00:00.000Z"},{"geonameid":673311,"name":"Milești","asciiname":"Milesti","alternatenames":"Mierlesti,Mierleşti,Milesti,Mileşti","latitude":"44.5808700","longitude":"23.9944100","fclass":"P","fcode":"PPL","country":"RO","cc2":"RO","admin1":"39","admin2":"169583","admin3":"","admin4":"","population":422,"elevation":0,"gtopo30":191,"timezone":"Europe/Bucharest","moddate":"2013-04-21T00:00:00.000Z"}],"admin3":[],"alternateNames":[]},"__N_SSG":true}