{"pageProps":{"locale":"ro","admin2":{"geonameid":672982,"name":"Comuna Mociu","country":"RO","admin1":"13","admin2":"58623","admin3":"","latitude":"46.7923200","longitude":"24.0285300"},"admin1":{"geonameid":681291,"name":"Cluj","admin1":"13"},"locations":[{"geonameid":684081,"name":"Boteni","asciiname":"Boteni","alternatenames":"Boteni,Bothaza","latitude":"46.7662400","longitude":"24.0263100","fclass":"P","fcode":"PPL","country":"RO","cc2":"RO","admin1":"13","admin2":"58623","admin3":"","admin4":"","population":326,"elevation":0,"gtopo30":369,"timezone":"Europe/Bucharest","moddate":"2013-04-21T00:00:00.000Z"},{"geonameid":682180,"name":"Chesău","asciiname":"Chesau","alternatenames":"Chesau,Chesaul,Chesău,Chesăul","latitude":"46.8187200","longitude":"24.0101900","fclass":"P","fcode":"PPL","country":"RO","cc2":"RO","admin1":"13","admin2":"58623","admin3":"","admin4":"","population":419,"elevation":0,"gtopo30":333,"timezone":"Europe/Bucharest","moddate":"2013-04-21T00:00:00.000Z"},{"geonameid":680193,"name":"Crișeni","asciiname":"Criseni","alternatenames":"Criseni,Crişeni,Tothaza","latitude":"46.7521900","longitude":"24.0480700","fclass":"P","fcode":"PPL","country":"RO","cc2":"RO","admin1":"13","admin2":"58623","admin3":"","admin4":"","population":328,"elevation":0,"gtopo30":349,"timezone":"Europe/Bucharest","moddate":"2013-04-21T00:00:00.000Z"},{"geonameid":678445,"name":"Falca","asciiname":"Falca","alternatenames":"Falka","latitude":"46.7876800","longitude":"24.0084600","fclass":"P","fcode":"PPL","country":"RO","cc2":"","admin1":"13","admin2":"58623","admin3":"","admin4":"","population":12,"elevation":0,"gtopo30":370,"timezone":"Europe/Bucharest","moddate":"2015-11-23T00:00:00.000Z"},{"geonameid":677762,"name":"Furduică","asciiname":"Furduica","alternatenames":"","latitude":"46.8000000","longitude":"24.0333300","fclass":"P","fcode":"PPL","country":"RO","cc2":"","admin1":"13","admin2":"58623","admin3":"","admin4":"","population":0,"elevation":0,"gtopo30":350,"timezone":"Europe/Bucharest","moddate":"2016-02-07T00:00:00.000Z"},{"geonameid":677314,"name":"Ghirișu Român","asciiname":"Ghirisu Roman","alternatenames":"Ghiris,Ghirisu,Ghiriş,Ghirişu,Mezogyeres,Mezőgyéres","latitude":"46.8000000","longitude":"23.9666700","fclass":"P","fcode":"PPL","country":"RO","cc2":"","admin1":"13","admin2":"58623","admin3":"","admin4":"","population":333,"elevation":0,"gtopo30":423,"timezone":"Europe/Bucharest","moddate":"2015-11-23T00:00:00.000Z"},{"geonameid":676260,"name":"Heler","asciiname":"Heler","alternatenames":"","latitude":"46.8000000","longitude":"24.0333300","fclass":"P","fcode":"PPLX","country":"RO","cc2":"","admin1":"13","admin2":"58623","admin3":"","admin4":"","population":0,"elevation":0,"gtopo30":350,"timezone":"Europe/Bucharest","moddate":"2016-02-07T00:00:00.000Z"},{"geonameid":672983,"name":"Mociu","asciiname":"Mociu","alternatenames":"Mociu,Mociul","latitude":"46.8000000","longitude":"24.0333300","fclass":"P","fcode":"PPLA2","country":"RO","cc2":"","admin1":"13","admin2":"58623","admin3":"","admin4":"","population":3454,"elevation":0,"gtopo30":350,"timezone":"Europe/Bucharest","moddate":"2012-06-12T00:00:00.000Z"},{"geonameid":672792,"name":"Moştercut","asciiname":"Mostercut","alternatenames":"","latitude":"46.8000000","longitude":"24.0333300","fclass":"P","fcode":"PPLX","country":"RO","cc2":"","admin1":"13","admin2":"58623","admin3":"","admin4":"","population":0,"elevation":0,"gtopo30":350,"timezone":"Europe/Bucharest","moddate":"2016-02-07T00:00:00.000Z"},{"geonameid":672007,"name":"Ocoliş","asciiname":"Ocolis","alternatenames":"","latitude":"46.8000000","longitude":"24.0333300","fclass":"P","fcode":"PPLX","country":"RO","cc2":"","admin1":"13","admin2":"58623","admin3":"","admin4":"","population":0,"elevation":0,"gtopo30":350,"timezone":"Europe/Bucharest","moddate":"2016-02-07T00:00:00.000Z"},{"geonameid":668634,"name":"Roșieni","asciiname":"Rosieni","alternatenames":"","latitude":"46.8157100","longitude":"24.0691000","fclass":"P","fcode":"PPL","country":"RO","cc2":"","admin1":"13","admin2":"58623","admin3":"","admin4":"","population":230,"elevation":0,"gtopo30":325,"timezone":"Europe/Bucharest","moddate":"2013-04-21T00:00:00.000Z"},{"geonameid":666415,"name":"Soşba","asciiname":"Sosba","alternatenames":"","latitude":"46.8000000","longitude":"24.0333300","fclass":"P","fcode":"PPLX","country":"RO","cc2":"","admin1":"13","admin2":"58623","admin3":"","admin4":"","population":0,"elevation":0,"gtopo30":350,"timezone":"Europe/Bucharest","moddate":"2016-02-07T00:00:00.000Z"},{"geonameid":666409,"name":"Soşpatac","asciiname":"Sospatac","alternatenames":"","latitude":"46.8000000","longitude":"24.0333300","fclass":"P","fcode":"PPLX","country":"RO","cc2":"","admin1":"13","admin2":"58623","admin3":"","admin4":"","population":0,"elevation":0,"gtopo30":350,"timezone":"Europe/Bucharest","moddate":"2016-02-07T00:00:00.000Z"},{"geonameid":10942370,"name":"Turmași","asciiname":"Turmasi","alternatenames":"Tormasdulo,Tormásdűlő","latitude":"46.8014800","longitude":"24.0076900","fclass":"P","fcode":"PPL","country":"RO","cc2":"","admin1":"13","admin2":"58623","admin3":"","admin4":"","population":56,"elevation":0,"gtopo30":395,"timezone":"Europe/Bucharest","moddate":"2015-11-23T00:00:00.000Z"},{"geonameid":662139,"name":"Zorenii de Vale","asciiname":"Zorenii de Vale","alternatenames":"","latitude":"46.7880500","longitude":"24.0755600","fclass":"P","fcode":"PPL","country":"RO","cc2":"","admin1":"13","admin2":"58623","admin3":"","admin4":"","population":295,"elevation":0,"gtopo30":381,"timezone":"Europe/Bucharest","moddate":"2013-04-20T00:00:00.000Z"}],"admin3":[],"alternateNames":[]},"__N_SSG":true}