{"pageProps":{"locale":"ro","admin2":{"geonameid":681369,"name":"Comuna Ciurila","country":"RO","admin1":"13","admin2":"57225","admin3":"","latitude":"46.6337200","longitude":"23.5397900"},"admin1":{"geonameid":681291,"name":"Cluj","admin1":"13"},"locations":[{"geonameid":681371,"name":"Ciurila","asciiname":"Ciurila","alternatenames":"Ciurila,Csueruelye,Csürülye","latitude":"46.6500000","longitude":"23.5500000","fclass":"P","fcode":"PPLA2","country":"RO","cc2":"","admin1":"13","admin2":"57225","admin3":"","admin4":"","population":1506,"elevation":0,"gtopo30":652,"timezone":"Europe/Bucharest","moddate":"2012-06-12T00:00:00.000Z"},{"geonameid":678269,"name":"Filea de Jos","asciiname":"Filea de Jos","alternatenames":"Filea de Jos,Filia de Jos","latitude":"46.6204800","longitude":"23.5083500","fclass":"P","fcode":"PPL","country":"RO","cc2":"RO","admin1":"13","admin2":"57225","admin3":"","admin4":"","population":301,"elevation":0,"gtopo30":544,"timezone":"Europe/Bucharest","moddate":"2013-04-21T00:00:00.000Z"},{"geonameid":678268,"name":"Filea de Sus","asciiname":"Filea de Sus","alternatenames":"Filea de Sus,Filia de Sus","latitude":"46.6103200","longitude":"23.4828500","fclass":"P","fcode":"PPL","country":"RO","cc2":"RO","admin1":"13","admin2":"57225","admin3":"","admin4":"","population":237,"elevation":0,"gtopo30":589,"timezone":"Europe/Bucharest","moddate":"2013-04-21T00:00:00.000Z"},{"geonameid":671528,"name":"Pădureni","asciiname":"Padureni","alternatenames":"Muerau,Muerău,Padureni,Pădureni","latitude":"46.6075600","longitude":"23.5605900","fclass":"P","fcode":"PPL","country":"RO","cc2":"RO","admin1":"13","admin2":"57225","admin3":"","admin4":"","population":186,"elevation":0,"gtopo30":589,"timezone":"Europe/Bucharest","moddate":"2013-04-21T00:00:00.000Z"},{"geonameid":669529,"name":"Pruniș","asciiname":"Prunis","alternatenames":"Prunis,Silvasu Unguresc,Silvaşu Unguresc","latitude":"46.6392400","longitude":"23.5658800","fclass":"P","fcode":"PPL","country":"RO","cc2":"RO","admin1":"13","admin2":"57225","admin3":"","admin4":"","population":147,"elevation":0,"gtopo30":578,"timezone":"Europe/Bucharest","moddate":"2013-04-21T00:00:00.000Z"},{"geonameid":668158,"name":"Sălicea","asciiname":"Salicea","alternatenames":"Sahste,Salicea,Sähşte,Sălicea","latitude":"46.6757000","longitude":"23.5250300","fclass":"P","fcode":"PPL","country":"RO","cc2":"RO","admin1":"13","admin2":"57225","admin3":"","admin4":"","population":326,"elevation":0,"gtopo30":647,"timezone":"Europe/Bucharest","moddate":"2013-04-21T00:00:00.000Z"},{"geonameid":668151,"name":"Săliște","asciiname":"Saliste","alternatenames":"","latitude":"46.6511300","longitude":"23.5843200","fclass":"P","fcode":"PPL","country":"RO","cc2":"","admin1":"13","admin2":"57225","admin3":"","admin4":"","population":150,"elevation":0,"gtopo30":648,"timezone":"Europe/Bucharest","moddate":"2013-04-21T00:00:00.000Z"},{"geonameid":665658,"name":"Șutu","asciiname":"Sutu","alternatenames":"","latitude":"46.6164000","longitude":"23.5444800","fclass":"P","fcode":"PPL","country":"RO","cc2":"","admin1":"13","admin2":"57225","admin3":"","admin4":"","population":145,"elevation":0,"gtopo30":555,"timezone":"Europe/Bucharest","moddate":"2013-04-21T00:00:00.000Z"}],"admin3":[],"alternateNames":[]},"__N_SSG":true}