{"pageProps":{"locale":"ro","admin2":{"geonameid":8334928,"name":"Municipiul Drãgãşani","country":"RO","admin1":"39","admin2":"167981","admin3":"","latitude":"44.6441400","longitude":"24.2463200"},"admin1":{"geonameid":662892,"name":"Vâlcea","admin1":"39"},"locations":[{"geonameid":684763,"name":"Bârsanu","asciiname":"Barsanu","alternatenames":"Barsanu,Barsanul,Birsanu,Bârsanu,Bârsanul,Bîrsanu","latitude":"44.6833300","longitude":"24.2500000","fclass":"P","fcode":"PPLX","country":"RO","cc2":"RO","admin1":"39","admin2":"167981","admin3":"","admin4":"","population":0,"elevation":0,"gtopo30":209,"timezone":"Europe/Bucharest","moddate":"2020-03-08T00:00:00.000Z"},{"geonameid":682764,"name":"Capu Dealului","asciiname":"Capu Dealului","alternatenames":"Capu Dealului,Capul Dealului","latitude":"44.6666700","longitude":"24.2333300","fclass":"P","fcode":"PPLX","country":"RO","cc2":"","admin1":"39","admin2":"167981","admin3":"","admin4":"","population":0,"elevation":0,"gtopo30":275,"timezone":"Europe/Bucharest","moddate":"2016-02-07T00:00:00.000Z"},{"geonameid":679946,"name":"Curăreşti","asciiname":"Curaresti","alternatenames":"","latitude":"44.6500000","longitude":"24.2666700","fclass":"P","fcode":"PPLX","country":"RO","cc2":"","admin1":"39","admin2":"167981","admin3":"","admin4":"","population":0,"elevation":0,"gtopo30":155,"timezone":"Europe/Bucharest","moddate":"2016-02-07T00:00:00.000Z"},{"geonameid":678978,"name":"Drăgăşani","asciiname":"Dragasani","alternatenames":"Dragasani,Drehgehshani,Drăgăşani,Дрэгэшани","latitude":"44.6500000","longitude":"24.2666700","fclass":"P","fcode":"PPLA2","country":"RO","cc2":"","admin1":"39","admin2":"167981","admin3":"","admin4":"","population":20630,"elevation":0,"gtopo30":155,"timezone":"Europe/Bucharest","moddate":"2012-06-12T00:00:00.000Z"},{"geonameid":676836,"name":"Grădeşti","asciiname":"Gradesti","alternatenames":"Gardesti,Gradesti,Grădeşti,Gărdeşti","latitude":"44.6500000","longitude":"24.2500000","fclass":"P","fcode":"PPLX","country":"RO","cc2":"","admin1":"39","admin2":"167981","admin3":"","admin4":"","population":0,"elevation":0,"gtopo30":161,"timezone":"Europe/Bucharest","moddate":"2016-02-07T00:00:00.000Z"},{"geonameid":674369,"name":"Lunca Oltului","asciiname":"Lunca Oltului","alternatenames":"","latitude":"44.6500000","longitude":"24.2666700","fclass":"P","fcode":"PPLX","country":"RO","cc2":"","admin1":"39","admin2":"167981","admin3":"","admin4":"","population":0,"elevation":0,"gtopo30":155,"timezone":"Europe/Bucharest","moddate":"2016-02-07T00:00:00.000Z"},{"geonameid":672891,"name":"Momoteşti","asciiname":"Momotesti","alternatenames":"Momolesti,Momoleşti,Momotesti,Momoteşti","latitude":"44.6500000","longitude":"24.2666700","fclass":"P","fcode":"PPLX","country":"RO","cc2":"","admin1":"39","admin2":"167981","admin3":"","admin4":"","population":0,"elevation":0,"gtopo30":155,"timezone":"Europe/Bucharest","moddate":"2016-02-07T00:00:00.000Z"},{"geonameid":670281,"name":"Podu Pescenii","asciiname":"Podu Pescenii","alternatenames":"Podu Pescenii,Podul Pesceanei","latitude":"44.6333300","longitude":"24.2666700","fclass":"P","fcode":"PPLX","country":"RO","cc2":"","admin1":"39","admin2":"167981","admin3":"","admin4":"","population":0,"elevation":0,"gtopo30":147,"timezone":"Europe/Bucharest","moddate":"2016-02-07T00:00:00.000Z"},{"geonameid":667641,"name":"Schitu-Manu","asciiname":"Schitu-Manu","alternatenames":"","latitude":"44.6500000","longitude":"24.2666700","fclass":"P","fcode":"PPLX","country":"RO","cc2":"","admin1":"39","admin2":"167981","admin3":"","admin4":"","population":0,"elevation":0,"gtopo30":155,"timezone":"Europe/Bucharest","moddate":"2016-02-07T00:00:00.000Z"},{"geonameid":663855,"name":"Valea Caselor","asciiname":"Valea Caselor","alternatenames":"","latitude":"44.6559700","longitude":"24.2360100","fclass":"P","fcode":"PPL","country":"RO","cc2":"","admin1":"39","admin2":"167981","admin3":"","admin4":"","population":149,"elevation":0,"gtopo30":165,"timezone":"Europe/Bucharest","moddate":"2013-04-20T00:00:00.000Z"},{"geonameid":662288,"name":"Zărneni","asciiname":"Zarneni","alternatenames":"","latitude":"44.6294900","longitude":"24.2313000","fclass":"P","fcode":"PPL","country":"RO","cc2":"","admin1":"39","admin2":"167981","admin3":"","admin4":"","population":93,"elevation":0,"gtopo30":169,"timezone":"Europe/Bucharest","moddate":"2013-04-20T00:00:00.000Z"},{"geonameid":662167,"name":"Zlătărei","asciiname":"Zlatarei","alternatenames":"","latitude":"44.6305700","longitude":"24.2578800","fclass":"P","fcode":"PPL","country":"RO","cc2":"","admin1":"39","admin2":"167981","admin3":"","admin4":"","population":1387,"elevation":0,"gtopo30":156,"timezone":"Europe/Bucharest","moddate":"2013-04-20T00:00:00.000Z"}],"admin3":[],"alternateNames":[]},"__N_SSG":true}