{"pageProps":{"locale":"ro","admin2":{"geonameid":681032,"name":"Comuna Comana","country":"RO","admin1":"09","admin2":"40857","admin3":"","latitude":"45.9135700","longitude":"25.2208000"},"admin1":{"geonameid":683843,"name":"Braşov","admin1":"09"},"locations":[{"geonameid":681030,"name":"Comana de Jos","asciiname":"Comana de Jos","alternatenames":"","latitude":"45.9137500","longitude":"25.2312900","fclass":"P","fcode":"PPL","country":"RO","cc2":"","admin1":"09","admin2":"40857","admin3":"","admin4":"","population":1020,"elevation":0,"gtopo30":452,"timezone":"Europe/Bucharest","moddate":"2013-04-21T00:00:00.000Z"},{"geonameid":681029,"name":"Comana de Sus","asciiname":"Comana de Sus","alternatenames":"Comana de Sus","latitude":"45.9000000","longitude":"25.2666700","fclass":"P","fcode":"PPL","country":"RO","cc2":"","admin1":"09","admin2":"40857","admin3":"","admin4":"","population":2556,"elevation":0,"gtopo30":508,"timezone":"Europe/Bucharest","moddate":"2018-12-05T00:00:00.000Z"},{"geonameid":680239,"name":"Crihalma","asciiname":"Crihalma","alternatenames":"","latitude":"45.9260500","longitude":"25.2019900","fclass":"P","fcode":"PPL","country":"RO","cc2":"","admin1":"09","admin2":"40857","admin3":"","admin4":"","population":670,"elevation":0,"gtopo30":450,"timezone":"Europe/Bucharest","moddate":"2013-04-21T00:00:00.000Z"},{"geonameid":665158,"name":"Ticușu Nou","asciiname":"Ticusu Nou","alternatenames":"Ticusu Nou,Ticusul-Nou,Ticuşu Nou,Ticuşul-Nou","latitude":"45.9187900","longitude":"25.1812400","fclass":"P","fcode":"PPL","country":"RO","cc2":"RO","admin1":"09","admin2":"40857","admin3":"","admin4":"","population":557,"elevation":0,"gtopo30":453,"timezone":"Europe/Bucharest","moddate":"2013-04-21T00:00:00.000Z"}],"admin3":[],"alternateNames":[]},"__N_SSG":true}