{"pageProps":{"locale":"ro","admin2":{"geonameid":675762,"name":"Comuna Iclod","country":"RO","admin1":"13","admin2":"58142","admin3":"","latitude":"46.9917400","longitude":"23.8161800"},"admin1":{"geonameid":681291,"name":"Cluj","admin1":"13"},"locations":[{"geonameid":677822,"name":"Fundătura","asciiname":"Fundatura","alternatenames":"","latitude":"46.9564700","longitude":"23.7807400","fclass":"P","fcode":"PPL","country":"RO","cc2":"","admin1":"13","admin2":"58142","admin3":"","admin4":"","population":716,"elevation":0,"gtopo30":276,"timezone":"Europe/Bucharest","moddate":"2013-04-21T00:00:00.000Z"},{"geonameid":675763,"name":"Iclod","asciiname":"Iclod","alternatenames":"Iclod,Nagyiklod,Nagyiklód","latitude":"46.9833300","longitude":"23.8000000","fclass":"P","fcode":"PPLA2","country":"RO","cc2":"","admin1":"13","admin2":"58142","admin3":"","admin4":"","population":4351,"elevation":0,"gtopo30":306,"timezone":"Europe/Bucharest","moddate":"2012-06-12T00:00:00.000Z"},{"geonameid":675760,"name":"Iclozel","asciiname":"Iclozel","alternatenames":"","latitude":"46.9707300","longitude":"23.8249000","fclass":"P","fcode":"PPL","country":"RO","cc2":"","admin1":"13","admin2":"58142","admin3":"","admin4":"","population":205,"elevation":0,"gtopo30":281,"timezone":"Europe/Bucharest","moddate":"2013-04-21T00:00:00.000Z"},{"geonameid":674681,"name":"Livada","asciiname":"Livada","alternatenames":"","latitude":"47.0020900","longitude":"23.8456800","fclass":"P","fcode":"PPL","country":"RO","cc2":"","admin1":"13","admin2":"58142","admin3":"","admin4":"","population":890,"elevation":0,"gtopo30":264,"timezone":"Europe/Bucharest","moddate":"2013-04-21T00:00:00.000Z"},{"geonameid":671702,"name":"Orman","asciiname":"Orman","alternatenames":"","latitude":"47.0474800","longitude":"23.8209900","fclass":"P","fcode":"PPL","country":"RO","cc2":"","admin1":"13","admin2":"58142","admin3":"","admin4":"","population":798,"elevation":0,"gtopo30":328,"timezone":"Europe/Bucharest","moddate":"2013-04-21T00:00:00.000Z"}],"admin3":[],"alternateNames":[]},"__N_SSG":true}