{"pageProps":{"locale":"ro","admin2":{"geonameid":669510,"name":"Comuna Puieşti","country":"RO","admin1":"11","admin2":"48842","admin3":"","latitude":"45.3933800","longitude":"27.2085000"},"admin1":{"geonameid":683121,"name":"Buzău","admin1":"11"},"locations":[{"geonameid":679710,"name":"Dăscălești","asciiname":"Dascalesti","alternatenames":"","latitude":"45.4062600","longitude":"27.2503900","fclass":"P","fcode":"PPL","country":"RO","cc2":"","admin1":"11","admin2":"48842","admin3":"","admin4":"","population":1059,"elevation":0,"gtopo30":52,"timezone":"Europe/Bucharest","moddate":"2013-04-21T00:00:00.000Z"},{"geonameid":674483,"name":"Lunca","asciiname":"Lunca","alternatenames":"Hoinari,Lunca","latitude":"45.3751400","longitude":"27.1814200","fclass":"P","fcode":"PPL","country":"RO","cc2":"RO","admin1":"11","admin2":"48842","admin3":"","admin4":"","population":131,"elevation":0,"gtopo30":64,"timezone":"Europe/Bucharest","moddate":"2013-04-21T00:00:00.000Z"},{"geonameid":674220,"name":"Măcrina","asciiname":"Macrina","alternatenames":"","latitude":"45.3865700","longitude":"27.1989400","fclass":"P","fcode":"PPL","country":"RO","cc2":"","admin1":"11","admin2":"48842","admin3":"","admin4":"","population":588,"elevation":0,"gtopo30":61,"timezone":"Europe/Bucharest","moddate":"2013-04-21T00:00:00.000Z"},{"geonameid":672257,"name":"Nicolești","asciiname":"Nicolesti","alternatenames":"Nicolesti,Nicoleşti,Niculesti,Niculeşti","latitude":"45.3983700","longitude":"27.2309700","fclass":"P","fcode":"PPL","country":"RO","cc2":"RO","admin1":"11","admin2":"48842","admin3":"","admin4":"","population":951,"elevation":0,"gtopo30":56,"timezone":"Europe/Bucharest","moddate":"2013-04-21T00:00:00.000Z"},{"geonameid":670456,"name":"Plopi","asciiname":"Plopi","alternatenames":"","latitude":"45.3880800","longitude":"27.1840300","fclass":"P","fcode":"PPL","country":"RO","cc2":"","admin1":"11","admin2":"48842","admin3":"","admin4":"","population":98,"elevation":0,"gtopo30":64,"timezone":"Europe/Bucharest","moddate":"2013-04-21T00:00:00.000Z"},{"geonameid":669507,"name":"Puieștii de Jos","asciiname":"Puiestii de Jos","alternatenames":"Poestii-de-Jos,Poeştii-de-Jos,Puesti-de-Jos,Puestii de Jos,Pueşti-de-Jos,Pueştii de Jos","latitude":"45.4026700","longitude":"27.2201300","fclass":"P","fcode":"PPL","country":"RO","cc2":"RO","admin1":"11","admin2":"48842","admin3":"","admin4":"","population":1515,"elevation":0,"gtopo30":60,"timezone":"Europe/Bucharest","moddate":"2013-04-21T00:00:00.000Z"},{"geonameid":669506,"name":"Puieștii de Sus","asciiname":"Puiestii de Sus","alternatenames":"Puesti-de Sus,Puestii de Sus,Pueşti-de Sus,Pueştii de Sus","latitude":"45.3965800","longitude":"27.1936200","fclass":"P","fcode":"PPL","country":"RO","cc2":"RO","admin1":"11","admin2":"48842","admin3":"","admin4":"","population":522,"elevation":0,"gtopo30":63,"timezone":"Europe/Bucharest","moddate":"2013-04-21T00:00:00.000Z"}],"admin3":[],"alternateNames":[]},"__N_SSG":true}