{"pageProps":{"locale":"ro","admin2":{"geonameid":8334647,"name":"Oraş Recaş","country":"RO","admin1":"36","admin2":"158314","admin3":"","latitude":"45.8264600","longitude":"21.5262900"},"admin1":{"geonameid":665091,"name":"Timiş","admin1":"36"},"locations":[{"geonameid":686344,"name":"Andrica","asciiname":"Andrica","alternatenames":"Andreica,Andrica","latitude":"45.8666700","longitude":"21.5666700","fclass":"P","fcode":"PPL","country":"RO","cc2":"","admin1":"36","admin2":"158314","admin3":"","admin4":"","population":0,"elevation":0,"gtopo30":141,"timezone":"Europe/Bucharest","moddate":"2016-02-07T00:00:00.000Z"},{"geonameid":685347,"name":"Barcaş","asciiname":"Barcas","alternatenames":"","latitude":"45.8666700","longitude":"21.5666700","fclass":"P","fcode":"PPL","country":"RO","cc2":"","admin1":"36","admin2":"158314","admin3":"","admin4":"","population":0,"elevation":0,"gtopo30":141,"timezone":"Europe/Bucharest","moddate":"2016-02-07T00:00:00.000Z"},{"geonameid":685231,"name":"Bazoș","asciiname":"Bazos","alternatenames":"Bazos,Bazosch,Bazosh,Bazoş,Bázos","latitude":"45.7369300","longitude":"21.4964200","fclass":"P","fcode":"PPL","country":"RO","cc2":"RO","admin1":"36","admin2":"158314","admin3":"","admin4":"","population":912,"elevation":0,"gtopo30":96,"timezone":"Europe/Bucharest","moddate":"2013-04-21T00:00:00.000Z"},{"geonameid":684904,"name":"Bichigiu Nou","asciiname":"Bichigiu Nou","alternatenames":"","latitude":"45.8666700","longitude":"21.5666700","fclass":"P","fcode":"PPL","country":"RO","cc2":"","admin1":"36","admin2":"158314","admin3":"","admin4":"","population":0,"elevation":0,"gtopo30":141,"timezone":"Europe/Bucharest","moddate":"2016-02-07T00:00:00.000Z"},{"geonameid":681854,"name":"Câmpu Lat","asciiname":"Campu Lat","alternatenames":"","latitude":"45.8666700","longitude":"21.5666700","fclass":"P","fcode":"PPL","country":"RO","cc2":"","admin1":"36","admin2":"158314","admin3":"","admin4":"","population":0,"elevation":0,"gtopo30":141,"timezone":"Europe/Bucharest","moddate":"2016-02-07T00:00:00.000Z"},{"geonameid":681069,"name":"Colonia Recaş","asciiname":"Colonia Recas","alternatenames":"","latitude":"45.8000000","longitude":"21.5000000","fclass":"P","fcode":"PPLX","country":"RO","cc2":"","admin1":"36","admin2":"158314","admin3":"","admin4":"","population":0,"elevation":0,"gtopo30":105,"timezone":"Europe/Bucharest","moddate":"2016-02-07T00:00:00.000Z"},{"geonameid":678316,"name":"Ferma Izvin","asciiname":"Ferma Izvin","alternatenames":"","latitude":"45.8000000","longitude":"21.5000000","fclass":"P","fcode":"PPLX","country":"RO","cc2":"","admin1":"36","admin2":"158314","admin3":"","admin4":"","population":0,"elevation":0,"gtopo30":105,"timezone":"Europe/Bucharest","moddate":"2016-02-07T00:00:00.000Z"},{"geonameid":676224,"name":"Herneacova","asciiname":"Herneacova","alternatenames":"Aranyag,Aranyág,Goldast,Herneacova,Hernjakova,Hernyakova","latitude":"45.8500000","longitude":"21.5166700","fclass":"P","fcode":"PPL","country":"RO","cc2":"","admin1":"36","admin2":"158314","admin3":"","admin4":"","population":0,"elevation":0,"gtopo30":152,"timezone":"Europe/Bucharest","moddate":"2016-02-07T00:00:00.000Z"},{"geonameid":675399,"name":"Izvin","asciiname":"Izvin","alternatenames":"Izvin,Jeszvin,Jezvin,Oszeny,Őszény","latitude":"45.8003400","longitude":"21.4606600","fclass":"P","fcode":"PPL","country":"RO","cc2":"RO","admin1":"36","admin2":"158314","admin3":"","admin4":"","population":1396,"elevation":0,"gtopo30":97,"timezone":"Europe/Bucharest","moddate":"2014-06-04T00:00:00.000Z"},{"geonameid":674978,"name":"Laz","asciiname":"Laz","alternatenames":"","latitude":"45.8666700","longitude":"21.6166700","fclass":"P","fcode":"PPLX","country":"RO","cc2":"","admin1":"36","admin2":"158314","admin3":"","admin4":"","population":0,"elevation":0,"gtopo30":196,"timezone":"Europe/Bucharest","moddate":"2016-02-07T00:00:00.000Z"},{"geonameid":674792,"name":"Lighet","asciiname":"Lighet","alternatenames":"","latitude":"45.8666700","longitude":"21.5666700","fclass":"P","fcode":"PPL","country":"RO","cc2":"","admin1":"36","admin2":"158314","admin3":"","admin4":"","population":0,"elevation":0,"gtopo30":141,"timezone":"Europe/Bucharest","moddate":"2016-02-07T00:00:00.000Z"},{"geonameid":672566,"name":"Nadăș","asciiname":"Nadas","alternatenames":"Duboki-Nadas,Duboki-Nádas,Melynadas,Mélynádas,Nadas,Nadăş","latitude":"45.9032100","longitude":"21.5430900","fclass":"P","fcode":"PPL","country":"RO","cc2":"RO","admin1":"36","admin2":"158314","admin3":"","admin4":"","population":0,"elevation":0,"gtopo30":152,"timezone":"Europe/Bucharest","moddate":"2013-04-21T00:00:00.000Z"},{"geonameid":670932,"name":"Petrovaselo","asciiname":"Petrovaselo","alternatenames":"Petrovaselo,Petrovaszella,Petrovaszello,Petrovaszelló,Temespeterfalva,Temespeteri,Temespéterfalva,Temespéteri","latitude":"45.8158800","longitude":"21.5831100","fclass":"P","fcode":"PPL","country":"RO","cc2":"RO","admin1":"36","admin2":"158314","admin3":"","admin4":"","population":347,"elevation":0,"gtopo30":116,"timezone":"Europe/Bucharest","moddate":"2013-04-21T00:00:00.000Z"},{"geonameid":669058,"name":"Recaş","asciiname":"Recas","alternatenames":"Armag,Recas,Recaş,Rekas,Rekasch,Rékas,Temesrekas,Temesrékas","latitude":"45.7988900","longitude":"21.5008300","fclass":"P","fcode":"PPLA2","country":"RO","cc2":"","admin1":"36","admin2":"158314","admin3":"","admin4":"","population":8508,"elevation":0,"gtopo30":104,"timezone":"Europe/Bucharest","moddate":"2012-06-12T00:00:00.000Z"},{"geonameid":666312,"name":"Stanciova","asciiname":"Stanciova","alternatenames":"Stanciova,Stancsofalva,Stancsova,Stancsófalva,Sztancsafalva","latitude":"45.8665700","longitude":"21.5712000","fclass":"P","fcode":"PPL","country":"RO","cc2":"RO","admin1":"36","admin2":"158314","admin3":"","admin4":"","population":453,"elevation":0,"gtopo30":138,"timezone":"Europe/Bucharest","moddate":"2013-04-21T00:00:00.000Z"},{"geonameid":663383,"name":"Valea Stejarului","asciiname":"Valea Stejarului","alternatenames":"Stejaru,Valea Stejarului","latitude":"45.8666700","longitude":"21.5666700","fclass":"P","fcode":"PPL","country":"RO","cc2":"","admin1":"36","admin2":"158314","admin3":"","admin4":"","population":0,"elevation":0,"gtopo30":141,"timezone":"Europe/Bucharest","moddate":"2016-02-07T00:00:00.000Z"}],"admin3":[],"alternateNames":[]},"__N_SSG":true}