{"pageProps":{"locale":"ro","admin2":{"geonameid":676891,"name":"Comuna Gorneşti","country":"RO","admin1":"27","admin2":"117177","admin3":"","latitude":"46.6653500","longitude":"24.7338100"},"admin1":{"geonameid":672628,"name":"Mureş","admin1":"27"},"locations":[{"geonameid":678227,"name":"Fânaţe","asciiname":"Fanate","alternatenames":"Fanate,Finate,Fânaţe,Fînaţe,Szenasag,Szènàsàg","latitude":"46.6833300","longitude":"24.7500000","fclass":"P","fcode":"PPL","country":"RO","cc2":"RO","admin1":"27","admin2":"117177","admin3":"","admin4":"","population":0,"elevation":0,"gtopo30":438,"timezone":"Europe/Bucharest","moddate":"2020-03-08T00:00:00.000Z"},{"geonameid":676892,"name":"Gorneşti","asciiname":"Gornesti","alternatenames":"Gernyeszeg","latitude":"46.6712900","longitude":"24.6475700","fclass":"P","fcode":"PPLA2","country":"RO","cc2":"","admin1":"27","admin2":"117177","admin3":"","admin4":"","population":5787,"elevation":0,"gtopo30":338,"timezone":"Europe/Bucharest","moddate":"2012-06-12T00:00:00.000Z"},{"geonameid":675814,"name":"Iara de Mureș","asciiname":"Iara de Mures","alternatenames":"Iara de Mures,Iara de Mureş,Marosjara,Marosjàra","latitude":"46.6626800","longitude":"24.7292100","fclass":"P","fcode":"PPL","country":"RO","cc2":"RO","admin1":"27","admin2":"117177","admin3":"","admin4":"","population":362,"elevation":0,"gtopo30":417,"timezone":"Europe/Bucharest","moddate":"2013-04-21T00:00:00.000Z"},{"geonameid":675654,"name":"Ilioara","asciiname":"Ilioara","alternatenames":"Ilioara,Kisilye","latitude":"46.6458500","longitude":"24.7475900","fclass":"P","fcode":"PPL","country":"RO","cc2":"RO","admin1":"27","admin2":"117177","admin3":"","admin4":"","population":147,"elevation":0,"gtopo30":437,"timezone":"Europe/Bucharest","moddate":"2013-04-21T00:00:00.000Z"},{"geonameid":672644,"name":"Mura Mare","asciiname":"Mura Mare","alternatenames":"Mura Mare,Nagyszederjes","latitude":"46.6569700","longitude":"24.7801700","fclass":"P","fcode":"PPL","country":"RO","cc2":"RO","admin1":"27","admin2":"117177","admin3":"","admin4":"","population":80,"elevation":0,"gtopo30":406,"timezone":"Europe/Bucharest","moddate":"2013-04-21T00:00:00.000Z"},{"geonameid":672643,"name":"Mura Mică","asciiname":"Mura Mica","alternatenames":"Kisszederjes,Mura Mica,Mura Mică","latitude":"46.6490900","longitude":"24.7652400","fclass":"P","fcode":"PPL","country":"RO","cc2":"RO","admin1":"27","admin2":"117177","admin3":"","admin4":"","population":58,"elevation":0,"gtopo30":425,"timezone":"Europe/Bucharest","moddate":"2013-04-21T00:00:00.000Z"},{"geonameid":671527,"name":"Pădureni","asciiname":"Padureni","alternatenames":"Erdocsinad,Erdöcsinàd,Padureni,Pădureni","latitude":"46.6405300","longitude":"24.7162500","fclass":"P","fcode":"PPL","country":"RO","cc2":"RO","admin1":"27","admin2":"117177","admin3":"","admin4":"","population":466,"elevation":0,"gtopo30":402,"timezone":"Europe/Bucharest","moddate":"2013-04-21T00:00:00.000Z"},{"geonameid":671117,"name":"Periş","asciiname":"Peris","alternatenames":"Kortefaja,Körtefàja","latitude":"46.6925500","longitude":"24.6622500","fclass":"P","fcode":"PPL","country":"RO","cc2":"RO","admin1":"27","admin2":"117177","admin3":"","admin4":"","population":0,"elevation":0,"gtopo30":344,"timezone":"Europe/Bucharest","moddate":"2016-02-07T00:00:00.000Z"},{"geonameid":670966,"name":"Petrilaca de Mureș","asciiname":"Petrilaca de Mures","alternatenames":"Peterlaka,Petrilaca de Mures,Petrilaca de Mureş,Pèterlaka","latitude":"46.6899100","longitude":"24.7533700","fclass":"P","fcode":"PPL","country":"RO","cc2":"RO","admin1":"27","admin2":"117177","admin3":"","admin4":"","population":679,"elevation":0,"gtopo30":393,"timezone":"Europe/Bucharest","moddate":"2013-04-21T00:00:00.000Z"},{"geonameid":666167,"name":"Stejeriş","asciiname":"Stejeris","alternatenames":"Balaszcsere,Bàlàszcsere,Stejeris,Stejeriş","latitude":"46.6833300","longitude":"24.7500000","fclass":"P","fcode":"PPL","country":"RO","cc2":"","admin1":"27","admin2":"117177","admin3":"","admin4":"","population":0,"elevation":0,"gtopo30":438,"timezone":"Europe/Bucharest","moddate":"2016-02-07T00:00:00.000Z"},{"geonameid":665299,"name":"Teleac","asciiname":"Teleac","alternatenames":"Marostelek,Teleac,Teleacul","latitude":"46.6736700","longitude":"24.7969200","fclass":"P","fcode":"PPL","country":"RO","cc2":"RO","admin1":"27","admin2":"117177","admin3":"","admin4":"","population":426,"elevation":0,"gtopo30":415,"timezone":"Europe/Bucharest","moddate":"2013-04-21T00:00:00.000Z"}],"admin3":[],"alternateNames":[]},"__N_SSG":true}