{"pageProps":{"locale":"en","admin2":{"geonameid":3333216,"name":"Warrington","country":"GB","admin1":"ENG","admin2":"P2","admin3":"","latitude":"53.4166700","longitude":"-2.5833300","localeAltName":"Warrington"},"admin1":{"geonameid":6269131,"name":"England","admin1":"ENG","localeAltName":"England"},"locations":[{"geonameid":2657227,"name":"Appleton","asciiname":"Appleton","alternatenames":"","latitude":"53.3524000","longitude":"-2.5718300","fclass":"P","fcode":"PPLA3","country":"GB","cc2":"","admin1":"ENG","admin2":"P2","admin3":"00EU001","admin4":"","population":0,"elevation":0,"gtopo30":72,"timezone":"Europe/London","moddate":"2011-07-31T00:00:00.000Z"},{"geonameid":6698329,"name":"Appleton Thorn","asciiname":"Appleton Thorn","alternatenames":"","latitude":"53.3504500","longitude":"-2.5448800","fclass":"P","fcode":"PPL","country":"GB","cc2":"","admin1":"ENG","admin2":"P2","admin3":"00EU001","admin4":"","population":1324,"elevation":0,"gtopo30":76,"timezone":"Europe/London","moddate":"2017-06-12T00:00:00.000Z"},{"geonameid":2654199,"name":"Burtonwood","asciiname":"Burtonwood","alternatenames":"Bertonvud,Burtonwood,Бертонвуд","latitude":"53.4294800","longitude":"-2.6585200","fclass":"P","fcode":"PPL","country":"GB","cc2":"","admin1":"ENG","admin2":"P2","admin3":"00EU003","admin4":"","population":3361,"elevation":0,"gtopo30":29,"timezone":"Europe/London","moddate":"2018-01-13T00:00:00.000Z"},{"geonameid":2652555,"name":"Collins Green","asciiname":"Collins Green","alternatenames":"","latitude":"53.4333300","longitude":"-2.6666700","fclass":"P","fcode":"PPL","country":"GB","cc2":"","admin1":"ENG","admin2":"P2","admin3":"00EU003","admin4":"","population":0,"elevation":0,"gtopo30":32,"timezone":"Europe/London","moddate":"2016-06-22T00:00:00.000Z"},{"geonameid":2651952,"name":"Croft","asciiname":"Croft","alternatenames":"Croft","latitude":"53.4333300","longitude":"-2.5500000","fclass":"P","fcode":"PPLA3","country":"GB","cc2":"","admin1":"ENG","admin2":"P2","admin3":"00EU004","admin4":"","population":1492,"elevation":0,"gtopo30":20,"timezone":"Europe/London","moddate":"2017-06-12T00:00:00.000Z"},{"geonameid":2651763,"name":"Culcheth","asciiname":"Culcheth","alternatenames":"kwltshth,كولتشث","latitude":"53.4511000","longitude":"-2.5210400","fclass":"P","fcode":"PPL","country":"GB","cc2":"","admin1":"ENG","admin2":"P2","admin3":"00EU006","admin4":"","population":6708,"elevation":0,"gtopo30":32,"timezone":"Europe/London","moddate":"2017-06-12T00:00:00.000Z"},{"geonameid":2648555,"name":"Glazebrook","asciiname":"Glazebrook","alternatenames":"","latitude":"53.4284000","longitude":"-2.4604900","fclass":"P","fcode":"PPL","country":"GB","cc2":"","admin1":"ENG","admin2":"P2","admin3":"00EU013","admin4":"","population":0,"elevation":0,"gtopo30":23,"timezone":"Europe/London","moddate":"2014-05-30T00:00:00.000Z"},{"geonameid":2648554,"name":"Glazebury","asciiname":"Glazebury","alternatenames":"","latitude":"53.4707800","longitude":"-2.4982300","fclass":"P","fcode":"PPL","country":"GB","cc2":"","admin1":"ENG","admin2":"P2","admin3":"00EU006","admin4":"","population":1068,"elevation":0,"gtopo30":17,"timezone":"Europe/London","moddate":"2017-06-12T00:00:00.000Z"},{"geonameid":6693989,"name":"Grappenhall","asciiname":"Grappenhall","alternatenames":"","latitude":"53.3720400","longitude":"-2.5467500","fclass":"P","fcode":"PPL","country":"GB","cc2":"","admin1":"ENG","admin2":"P2","admin3":"00EU007","admin4":"","population":9377,"elevation":0,"gtopo30":36,"timezone":"Europe/London","moddate":"2011-03-03T00:00:00.000Z"},{"geonameid":2648026,"name":"Great Sankey","asciiname":"Great Sankey","alternatenames":"Great Sankey,Sankey","latitude":"53.3923400","longitude":"-2.6399400","fclass":"P","fcode":"PPL","country":"GB","cc2":"","admin1":"ENG","admin2":"P2","admin3":"00EU008","admin4":"","population":43793,"elevation":0,"gtopo30":17,"timezone":"Europe/London","moddate":"2011-03-03T00:00:00.000Z"},{"geonameid":2645782,"name":"Kenyon","asciiname":"Kenyon","alternatenames":"","latitude":"53.4558600","longitude":"-2.5593600","fclass":"P","fcode":"PPL","country":"GB","cc2":"","admin1":"ENG","admin2":"P2","admin3":"00EU004","admin4":"","population":0,"elevation":0,"gtopo30":39,"timezone":"Europe/London","moddate":"2011-03-03T00:00:00.000Z"},{"geonameid":2644830,"name":"Latchford","asciiname":"Latchford","alternatenames":"Latchford","latitude":"53.3833300","longitude":"-2.5666700","fclass":"P","fcode":"PPL","country":"GB","cc2":"","admin1":"ENG","admin2":"P2","admin3":"","admin4":"","population":0,"elevation":0,"gtopo30":12,"timezone":"Europe/London","moddate":"2013-08-05T00:00:00.000Z"},{"geonameid":10377174,"name":"Lately Common","asciiname":"Lately Common","alternatenames":"","latitude":"53.4792400","longitude":"-2.5037700","fclass":"P","fcode":"PPLX","country":"GB","cc2":"","admin1":"ENG","admin2":"P2","admin3":"00EU006","admin4":"","population":0,"elevation":0,"gtopo30":17,"timezone":"Europe/London","moddate":"2015-07-17T00:00:00.000Z"},{"geonameid":2643309,"name":"Lymm","asciiname":"Lymm","alternatenames":"Lim,lymm,Лим,ليمم","latitude":"53.3810500","longitude":"-2.4776300","fclass":"P","fcode":"PPLA3","country":"GB","cc2":"","admin1":"ENG","admin2":"P2","admin3":"00EU010","admin4":"","population":11608,"elevation":0,"gtopo30":29,"timezone":"Europe/London","moddate":"2017-06-12T00:00:00.000Z"},{"geonameid":2641665,"name":"Newchurch","asciiname":"Newchurch","alternatenames":"","latitude":"53.4500000","longitude":"-2.5666700","fclass":"P","fcode":"PPL","country":"GB","cc2":"","admin1":"ENG","admin2":"P2","admin3":"00EU004","admin4":"","population":0,"elevation":0,"gtopo30":30,"timezone":"Europe/London","moddate":"2016-06-22T00:00:00.000Z"},{"geonameid":2640688,"name":"Padgate","asciiname":"Padgate","alternatenames":"Padgate","latitude":"53.4043600","longitude":"-2.5617300","fclass":"P","fcode":"PPL","country":"GB","cc2":"","admin1":"ENG","admin2":"P2","admin3":"00EU012","admin4":"","population":0,"elevation":0,"gtopo30":13,"timezone":"Europe/London","moddate":"2011-03-03T00:00:00.000Z"},{"geonameid":2639307,"name":"Risley","asciiname":"Risley","alternatenames":"Risley","latitude":"53.4166700","longitude":"-2.5166700","fclass":"P","fcode":"PPL","country":"GB","cc2":"","admin1":"ENG","admin2":"P2","admin3":"00EU002","admin4":"","population":0,"elevation":0,"gtopo30":16,"timezone":"Europe/London","moddate":"2016-06-22T00:00:00.000Z"},{"geonameid":8224784,"name":"Stockton Heath","asciiname":"Stockton Heath","alternatenames":"","latitude":"53.3708400","longitude":"-2.5740600","fclass":"P","fcode":"PPLA3","country":"GB","cc2":"","admin1":"ENG","admin2":"P2","admin3":"00EU014","admin4":"","population":6396,"elevation":0,"gtopo30":21,"timezone":"Europe/London","moddate":"2012-03-29T00:00:00.000Z"},{"geonameid":2636658,"name":"Stretton","asciiname":"Stretton","alternatenames":"","latitude":"53.3333300","longitude":"-2.5666700","fclass":"P","fcode":"PPLA3","country":"GB","cc2":"","admin1":"ENG","admin2":"P2","admin3":"00EU015","admin4":"","population":0,"elevation":0,"gtopo30":80,"timezone":"Europe/London","moddate":"2011-07-31T00:00:00.000Z"},{"geonameid":2636036,"name":"Thelwall","asciiname":"Thelwall","alternatenames":"","latitude":"53.3825500","longitude":"-2.5273400","fclass":"P","fcode":"PPL","country":"GB","cc2":"","admin1":"ENG","admin2":"P2","admin3":"00EU007","admin4":"","population":0,"elevation":0,"gtopo30":15,"timezone":"Europe/London","moddate":"2011-03-03T00:00:00.000Z"},{"geonameid":2634739,"name":"Warrington","asciiname":"Warrington","alternatenames":"Uorrington,Vorington,Warrington,waryngtwn,wo ling dun,wolingteon,Ворингтон,Уоррингтон,وارینگتون,沃灵顿,워링턴","latitude":"53.3925400","longitude":"-2.5802400","fclass":"P","fcode":"PPLA2","country":"GB","cc2":"","admin1":"ENG","admin2":"P2","admin3":"","admin4":"","population":165456,"elevation":0,"gtopo30":15,"timezone":"Europe/London","moddate":"2017-06-12T00:00:00.000Z"},{"geonameid":2633775,"name":"Winwick","asciiname":"Winwick","alternatenames":"Winwick","latitude":"53.4333300","longitude":"-2.6000000","fclass":"P","fcode":"PPLA3","country":"GB","cc2":"","admin1":"ENG","admin2":"P2","admin3":"00EU017","admin4":"","population":2435,"elevation":0,"gtopo30":31,"timezone":"Europe/London","moddate":"2017-06-12T00:00:00.000Z"},{"geonameid":11776733,"name":"Woolston","asciiname":"Woolston","alternatenames":"","latitude":"53.3990900","longitude":"-2.5411900","fclass":"P","fcode":"PPLX","country":"GB","cc2":"","admin1":"ENG","admin2":"P2","admin3":"00EU018","admin4":"","population":0,"elevation":0,"gtopo30":16,"timezone":"Europe/London","moddate":"2017-11-20T00:00:00.000Z"}],"admin3":[{"geonameid":7301471,"name":"Appleton","admin3":"00EU001"},{"geonameid":7292668,"name":"Birchwood","admin3":"00EU002"},{"geonameid":7297392,"name":"Burtonwood and Westbrook","admin3":"00EU003"},{"geonameid":7291989,"name":"Croft","admin3":"00EU004"},{"geonameid":7291990,"name":"Cuerdley","admin3":"00EU005"},{"geonameid":7291991,"name":"Culcheth and Glazebury","admin3":"00EU006"},{"geonameid":7291992,"name":"Grappenhall and Thelwall","admin3":"00EU007"},{"geonameid":7292669,"name":"Great Sankey","admin3":"00EU008"},{"geonameid":7299625,"name":"Hatton","admin3":"00EU009"},{"geonameid":7290766,"name":"Lymm","admin3":"00EU010"},{"geonameid":7292670,"name":"Penketh","admin3":"00EU011"},{"geonameid":7299608,"name":"Poulton-with-Fearnhead","admin3":"00EU012"},{"geonameid":7297393,"name":"Rixton-with-Glazebrook","admin3":"00EU013"},{"geonameid":7301472,"name":"Stockton Heath","admin3":"00EU014"},{"geonameid":7297394,"name":"Stretton","admin3":"00EU015"},{"geonameid":7295555,"name":"Walton","admin3":"00EU016"},{"geonameid":7297395,"name":"Winwick","admin3":"00EU017"},{"geonameid":7293958,"name":"Woolston","admin3":"00EU018"}],"alternateNames":[{"alternatenameId":8666537,"geonameid":3333216,"isoLanguage":"en","alternateName":"Warrington","isPreferredName":true,"isShortName":true,"isColloquial":false,"isHistoric":false},{"alternatenameId":1626647,"geonameid":6269131,"isoLanguage":"en","alternateName":"England","isPreferredName":true,"isShortName":true,"isColloquial":false,"isHistoric":false}]},"__N_SSG":true}