{"pageProps":{"locale":"ro","admin2":{"geonameid":683271,"name":"Comuna Bunești Averești","country":"RO","admin1":"38","admin2":"162924","admin3":"","latitude":"46.7981000","longitude":"27.9772200"},"admin1":{"geonameid":663116,"name":"Vaslui","admin1":"38"},"locations":[{"geonameid":686149,"name":"Armășeni","asciiname":"Armaseni","alternatenames":"","latitude":"46.8063800","longitude":"27.9812200","fclass":"P","fcode":"PPL","country":"RO","cc2":"","admin1":"38","admin2":"162924","admin3":"","admin4":"","population":234,"elevation":0,"gtopo30":222,"timezone":"Europe/Bucharest","moddate":"2013-04-21T00:00:00.000Z"},{"geonameid":686034,"name":"Averești","asciiname":"Averesti","alternatenames":"","latitude":"46.7878600","longitude":"27.9922000","fclass":"P","fcode":"PPL","country":"RO","cc2":"","admin1":"38","admin2":"162924","admin3":"","admin4":"","population":327,"elevation":0,"gtopo30":262,"timezone":"Europe/Bucharest","moddate":"2013-04-21T00:00:00.000Z"},{"geonameid":683278,"name":"Buneşti","asciiname":"Bunesti","alternatenames":"","latitude":"46.8333300","longitude":"27.9666700","fclass":"P","fcode":"PPL","country":"RO","cc2":"","admin1":"38","admin2":"162924","admin3":"","admin4":"","population":3070,"elevation":0,"gtopo30":172,"timezone":"Europe/Bucharest","moddate":"2016-02-07T00:00:00.000Z"},{"geonameid":670453,"name":"Plopi","asciiname":"Plopi","alternatenames":"","latitude":"46.7701400","longitude":"27.9912100","fclass":"P","fcode":"PPL","country":"RO","cc2":"","admin1":"38","admin2":"162924","admin3":"","admin4":"","population":379,"elevation":0,"gtopo30":183,"timezone":"Europe/Bucharest","moddate":"2013-04-21T00:00:00.000Z"},{"geonameid":670282,"name":"Podu Oprii","asciiname":"Podu Oprii","alternatenames":"Podu Oprei,Podul Oprei","latitude":"46.8324900","longitude":"27.9467400","fclass":"P","fcode":"PPL","country":"RO","cc2":"RO","admin1":"38","admin2":"162924","admin3":"","admin4":"","population":260,"elevation":0,"gtopo30":185,"timezone":"Europe/Bucharest","moddate":"2013-04-21T00:00:00.000Z"},{"geonameid":668617,"name":"Roșiori","asciiname":"Rosiori","alternatenames":"","latitude":"46.7955200","longitude":"27.9767400","fclass":"P","fcode":"PPL","country":"RO","cc2":"","admin1":"38","admin2":"162924","admin3":"","admin4":"","population":224,"elevation":0,"gtopo30":167,"timezone":"Europe/Bucharest","moddate":"2013-04-21T00:00:00.000Z"},{"geonameid":665645,"name":"Tăbălăiești","asciiname":"Tabalaiesti","alternatenames":"Tabalaesti,Tăbălăești","latitude":"46.7631700","longitude":"27.9819000","fclass":"P","fcode":"PPL","country":"RO","cc2":"","admin1":"38","admin2":"162924","admin3":"","admin4":"","population":191,"elevation":0,"gtopo30":170,"timezone":"Europe/Bucharest","moddate":"2016-01-06T00:00:00.000Z"}],"admin3":[],"alternateNames":[]},"__N_SSG":true}