{"pageProps":{"locale":"ro","admin2":{"geonameid":669629,"name":"Comuna Priponeşti","country":"RO","admin1":"18","admin2":"77028","admin3":"","latitude":"46.1015000","longitude":"27.4393900"},"admin1":{"geonameid":677692,"name":"Galaţi","admin1":"18"},"locations":[{"geonameid":684373,"name":"Boghi","asciiname":"Boghi","alternatenames":"Boaghea,Boghi","latitude":"46.1166700","longitude":"27.4333300","fclass":"P","fcode":"PPLX","country":"RO","cc2":"","admin1":"18","admin2":"77028","admin3":"","admin4":"","population":0,"elevation":0,"gtopo30":191,"timezone":"Europe/Bucharest","moddate":"2016-02-07T00:00:00.000Z"},{"geonameid":681663,"name":"Ciorăști","asciiname":"Ciorasti","alternatenames":"Ciorascii,Ciorasti,Ciorăşcii,Ciorăşti","latitude":"46.1138000","longitude":"27.4531100","fclass":"P","fcode":"PPL","country":"RO","cc2":"RO","admin1":"18","admin2":"77028","admin3":"","admin4":"","population":1186,"elevation":0,"gtopo30":109,"timezone":"Europe/Bucharest","moddate":"2013-04-21T00:00:00.000Z"},{"geonameid":677597,"name":"Gara Iacomi","asciiname":"Gara Iacomi","alternatenames":"Gara Iacomi,Gara Nichiseni,Gara Nichişeni","latitude":"46.0500000","longitude":"27.4500000","fclass":"P","fcode":"PPL","country":"RO","cc2":"","admin1":"18","admin2":"77028","admin3":"","admin4":"","population":0,"elevation":0,"gtopo30":85,"timezone":"Europe/Bucharest","moddate":"2016-02-07T00:00:00.000Z"},{"geonameid":675886,"name":"Huștiu","asciiname":"Hustiu","alternatenames":"Hustiu,Hustiul,Huştiu,Huştiul","latitude":"46.1307000","longitude":"27.4225800","fclass":"P","fcode":"PPL","country":"RO","cc2":"RO","admin1":"18","admin2":"77028","admin3":"","admin4":"","population":0,"elevation":0,"gtopo30":237,"timezone":"Europe/Bucharest","moddate":"2013-04-21T00:00:00.000Z"},{"geonameid":674795,"name":"Liești","asciiname":"Liesti","alternatenames":"Liescii,Liesti,Lieşti","latitude":"46.1054500","longitude":"27.4330300","fclass":"P","fcode":"PPL","country":"RO","cc2":"RO","admin1":"18","admin2":"77028","admin3":"","admin4":"","population":252,"elevation":0,"gtopo30":152,"timezone":"Europe/Bucharest","moddate":"2013-04-21T00:00:00.000Z"},{"geonameid":669630,"name":"Priponeşti","asciiname":"Priponesti","alternatenames":"Priponescii-de Sus,Priponesti,Priponestii de Sus,Priponeşti,Priponeştii de Sus","latitude":"46.0833300","longitude":"27.4333300","fclass":"P","fcode":"PPLA2","country":"RO","cc2":"","admin1":"18","admin2":"77028","admin3":"","admin4":"","population":2574,"elevation":0,"gtopo30":165,"timezone":"Europe/Bucharest","moddate":"2012-06-12T00:00:00.000Z"},{"geonameid":669628,"name":"Priponeștii de Jos","asciiname":"Priponestii de Jos","alternatenames":"Priponescii-de Jos,Priponestii de Jos,Priponeştii de Jos","latitude":"46.0715000","longitude":"27.4489700","fclass":"P","fcode":"PPL","country":"RO","cc2":"RO","admin1":"18","admin2":"77028","admin3":"","admin4":"","population":499,"elevation":0,"gtopo30":110,"timezone":"Europe/Bucharest","moddate":"2013-04-21T00:00:00.000Z"}],"admin3":[],"alternateNames":[]},"__N_SSG":true}