{"pageProps":{"locale":"ro","admin2":{"geonameid":683918,"name":"Comuna Brăeşti","country":"RO","admin1":"11","admin2":"45539","admin3":"","latitude":"45.4425300","longitude":"26.4948700"},"admin1":{"geonameid":683121,"name":"Buzău","admin1":"11"},"locations":[{"geonameid":683922,"name":"Brăeşti","asciiname":"Braesti","alternatenames":"Braesti,Braestii,Brăestii,Brăeşti","latitude":"45.4333300","longitude":"26.5000000","fclass":"P","fcode":"PPLA2","country":"RO","cc2":"","admin1":"11","admin2":"45539","admin3":"","admin4":"","population":2502,"elevation":0,"gtopo30":552,"timezone":"Europe/Bucharest","moddate":"2012-06-12T00:00:00.000Z"},{"geonameid":683798,"name":"Brătilești","asciiname":"Bratilesti","alternatenames":"Bratilesti,Bratilestii,Bratileştii,Brătileşti","latitude":"45.4687100","longitude":"26.4826600","fclass":"P","fcode":"PPL","country":"RO","cc2":"RO","admin1":"11","admin2":"45539","admin3":"","admin4":"","population":540,"elevation":0,"gtopo30":757,"timezone":"Europe/Bucharest","moddate":"2013-04-21T00:00:00.000Z"},{"geonameid":676965,"name":"Goidești","asciiname":"Goidesti","alternatenames":"Goidesti,Goidestii,Goideşti,Goideştii","latitude":"45.4674900","longitude":"26.5047400","fclass":"P","fcode":"PPL","country":"RO","cc2":"RO","admin1":"11","admin2":"45539","admin3":"","admin4":"","population":356,"elevation":0,"gtopo30":799,"timezone":"Europe/Bucharest","moddate":"2013-04-21T00:00:00.000Z"},{"geonameid":675420,"name":"Ivănețu","asciiname":"Ivanetu","alternatenames":"Ivanetu,Ivanetul,Ivănetul,Ivăneţu","latitude":"45.4590600","longitude":"26.4923600","fclass":"P","fcode":"PPL","country":"RO","cc2":"RO","admin1":"11","admin2":"45539","admin3":"","admin4":"","population":703,"elevation":0,"gtopo30":681,"timezone":"Europe/Bucharest","moddate":"2013-04-21T00:00:00.000Z"},{"geonameid":670682,"name":"Pârscovelu","asciiname":"Parscovelu","alternatenames":"Dosu,Dosul,Pirscovelu,Pîrscovelu","latitude":"45.4239300","longitude":"26.4928400","fclass":"P","fcode":"PPL","country":"RO","cc2":"RO","admin1":"11","admin2":"45539","admin3":"","admin4":"","population":71,"elevation":0,"gtopo30":591,"timezone":"Europe/Bucharest","moddate":"2013-04-21T00:00:00.000Z"},{"geonameid":670913,"name":"Piatra","asciiname":"Piatra","alternatenames":"","latitude":"45.4333300","longitude":"26.4666700","fclass":"P","fcode":"PPL","country":"RO","cc2":"","admin1":"11","admin2":"45539","admin3":"","admin4":"","population":0,"elevation":0,"gtopo30":676,"timezone":"Europe/Bucharest","moddate":"2016-02-07T00:00:00.000Z"},{"geonameid":670782,"name":"Pinu","asciiname":"Pinu","alternatenames":"Pinu,Pinul","latitude":"45.4195900","longitude":"26.4944900","fclass":"P","fcode":"PPL","country":"RO","cc2":"RO","admin1":"11","admin2":"45539","admin3":"","admin4":"","population":346,"elevation":0,"gtopo30":528,"timezone":"Europe/Bucharest","moddate":"2013-04-21T00:00:00.000Z"},{"geonameid":669141,"name":"Rasti","asciiname":"Rasti","alternatenames":"","latitude":"45.4000000","longitude":"26.5000000","fclass":"P","fcode":"PPLX","country":"RO","cc2":"","admin1":"11","admin2":"45539","admin3":"","admin4":"","population":0,"elevation":0,"gtopo30":467,"timezone":"Europe/Bucharest","moddate":"2016-02-07T00:00:00.000Z"},{"geonameid":668824,"name":"Râu","asciiname":"Rau","alternatenames":"Rau,Riu,Râu,Rîu","latitude":"45.4000000","longitude":"26.5000000","fclass":"P","fcode":"PPL","country":"RO","cc2":"RO","admin1":"11","admin2":"45539","admin3":"","admin4":"","population":0,"elevation":0,"gtopo30":467,"timezone":"Europe/Bucharest","moddate":"2020-03-08T00:00:00.000Z"},{"geonameid":668491,"name":"Ruginoasa","asciiname":"Ruginoasa","alternatenames":"","latitude":"45.4281400","longitude":"26.4869500","fclass":"P","fcode":"PPL","country":"RO","cc2":"","admin1":"11","admin2":"45539","admin3":"","admin4":"","population":129,"elevation":0,"gtopo30":537,"timezone":"Europe/Bucharest","moddate":"2013-04-21T00:00:00.000Z"}],"admin3":[],"alternateNames":[]},"__N_SSG":true}