{"pageProps":{"locale":"ro","admin2":{"geonameid":662436,"name":"Comuna Vrâncioaia","country":"RO","admin1":"40","admin2":"178750","admin3":"","latitude":"45.8716900","longitude":"26.7097100"},"admin1":{"geonameid":662447,"name":"Vrancea","admin1":"40","localeAltName":"Vrancea"},"locations":[{"geonameid":684466,"name":"Bodești","asciiname":"Bodesti","alternatenames":"Bodesti,Bodestii,Bodeşti,Bodeştii","latitude":"45.8913500","longitude":"26.7248700","fclass":"P","fcode":"PPL","country":"RO","cc2":"RO","admin1":"40","admin2":"178750","admin3":"","admin4":"","population":189,"elevation":0,"gtopo30":519,"timezone":"Europe/Bucharest","moddate":"2013-04-21T00:00:00.000Z"},{"geonameid":672693,"name":"Muncei","asciiname":"Muncei","alternatenames":"Muncei,Muncel","latitude":"45.8500000","longitude":"26.6833300","fclass":"P","fcode":"PPL","country":"RO","cc2":"","admin1":"40","admin2":"178750","admin3":"","admin4":"","population":0,"elevation":0,"gtopo30":568,"timezone":"Europe/Bucharest","moddate":"2016-02-07T00:00:00.000Z"},{"geonameid":670395,"name":"Ploştina","asciiname":"Plostina","alternatenames":"Plostina,Plostinu,Ploştina,Ploştinu","latitude":"45.8500000","longitude":"26.6666700","fclass":"P","fcode":"PPL","country":"RO","cc2":"","admin1":"40","admin2":"178750","admin3":"","admin4":"","population":0,"elevation":0,"gtopo30":496,"timezone":"Europe/Bucharest","moddate":"2016-02-07T00:00:00.000Z"},{"geonameid":670147,"name":"Poiana","asciiname":"Poiana","alternatenames":"","latitude":"45.8756300","longitude":"26.7592300","fclass":"P","fcode":"PPL","country":"RO","cc2":"","admin1":"40","admin2":"178750","admin3":"","admin4":"","population":779,"elevation":0,"gtopo30":345,"timezone":"Europe/Bucharest","moddate":"2013-04-21T00:00:00.000Z"},{"geonameid":666355,"name":"Spinești","asciiname":"Spinesti","alternatenames":"Spinesti,Spinestii,Spineşti,Spineştii","latitude":"45.8922900","longitude":"26.7056100","fclass":"P","fcode":"PPL","country":"RO","cc2":"RO","admin1":"40","admin2":"178750","admin3":"","admin4":"","population":693,"elevation":0,"gtopo30":439,"timezone":"Europe/Bucharest","moddate":"2013-04-21T00:00:00.000Z"},{"geonameid":663115,"name":"Văsui","asciiname":"Vasui","alternatenames":"Vasui,Vasuiu,Vasuiul,Văsui,Văsuiu,Văsuiul","latitude":"45.8666700","longitude":"26.7166700","fclass":"P","fcode":"PPLX","country":"RO","cc2":"","admin1":"40","admin2":"178750","admin3":"","admin4":"","population":0,"elevation":0,"gtopo30":477,"timezone":"Europe/Bucharest","moddate":"2016-02-07T00:00:00.000Z"},{"geonameid":662437,"name":"Vrâncioaia","asciiname":"Vrancioaia","alternatenames":"Vrancioaia,Vrâncioaia","latitude":"45.8500000","longitude":"26.7333300","fclass":"P","fcode":"PPLA2","country":"RO","cc2":"","admin1":"40","admin2":"178750","admin3":"","admin4":"","population":3018,"elevation":0,"gtopo30":488,"timezone":"Europe/Bucharest","moddate":"2012-06-12T00:00:00.000Z"}],"admin3":[],"alternateNames":[{"alternatenameId":391637,"geonameid":662447,"isoLanguage":"ro","alternateName":"Vrancea","isPreferredName":true,"isShortName":true,"isColloquial":false,"isHistoric":false}]},"__N_SSG":true}