{"pageProps":{"locale":"ro","admin2":{"geonameid":679350,"name":"Comuna Dângeni","country":"RO","admin1":"07","admin2":"37057","admin3":"","latitude":"47.8476200","longitude":"26.9481700"},"admin1":{"geonameid":684038,"name":"Botoşani","admin1":"07"},"locations":[{"geonameid":683285,"name":"Buneni","asciiname":"Buneni","alternatenames":"Buneni,Bunenii,Florea","latitude":"47.8666700","longitude":"26.9166700","fclass":"P","fcode":"PPL","country":"RO","cc2":"","admin1":"07","admin2":"37057","admin3":"","admin4":"","population":0,"elevation":0,"gtopo30":80,"timezone":"Europe/Bucharest","moddate":"2016-02-07T00:00:00.000Z"},{"geonameid":680582,"name":"Costeni","asciiname":"Costeni","alternatenames":"","latitude":"47.8666700","longitude":"26.8833300","fclass":"P","fcode":"PPLX","country":"RO","cc2":"","admin1":"07","admin2":"37057","admin3":"","admin4":"","population":0,"elevation":0,"gtopo30":87,"timezone":"Europe/Bucharest","moddate":"2016-02-07T00:00:00.000Z"},{"geonameid":679351,"name":"Dângeni","asciiname":"Dangeni","alternatenames":"Dangeni,Dingeni,Dângeni,Dîngeni","latitude":"47.8500000","longitude":"26.9666700","fclass":"P","fcode":"PPLA2","country":"RO","cc2":"","admin1":"07","admin2":"37057","admin3":"","admin4":"","population":3094,"elevation":0,"gtopo30":85,"timezone":"Europe/Bucharest","moddate":"2012-06-12T00:00:00.000Z"},{"geonameid":675932,"name":"Hulub","asciiname":"Hulub","alternatenames":"","latitude":"47.8258000","longitude":"26.9648800","fclass":"P","fcode":"PPL","country":"RO","cc2":"","admin1":"07","admin2":"37057","admin3":"","admin4":"","population":662,"elevation":0,"gtopo30":120,"timezone":"Europe/Bucharest","moddate":"2013-04-21T00:00:00.000Z"},{"geonameid":675863,"name":"Iacobeni","asciiname":"Iacobeni","alternatenames":"Iacobeni,Iacobeni-Mari,Iacobeni-Vechi","latitude":"47.8611500","longitude":"26.9130400","fclass":"P","fcode":"PPL","country":"RO","cc2":"RO","admin1":"07","admin2":"37057","admin3":"","admin4":"","population":1073,"elevation":0,"gtopo30":94,"timezone":"Europe/Bucharest","moddate":"2013-04-21T00:00:00.000Z"},{"geonameid":673804,"name":"Marginea","asciiname":"Marginea","alternatenames":"","latitude":"47.8500000","longitude":"26.8833300","fclass":"P","fcode":"PPLX","country":"RO","cc2":"","admin1":"07","admin2":"37057","admin3":"","admin4":"","population":0,"elevation":0,"gtopo30":158,"timezone":"Europe/Bucharest","moddate":"2016-02-07T00:00:00.000Z"},{"geonameid":666020,"name":"Strahotin","asciiname":"Strahotin","alternatenames":"","latitude":"47.8515200","longitude":"26.9458200","fclass":"P","fcode":"PPL","country":"RO","cc2":"","admin1":"07","admin2":"37057","admin3":"","admin4":"","population":461,"elevation":0,"gtopo30":82,"timezone":"Europe/Bucharest","moddate":"2013-04-21T00:00:00.000Z"}],"admin3":[],"alternateNames":[]},"__N_SSG":true}