{"pageProps":{"locale":"ro","admin2":{"geonameid":8334681,"name":"Comuna Auşeu","country":"RO","admin1":"05","admin2":"27212","admin3":"","latitude":"47.0439800","longitude":"22.5083500"},"admin1":{"geonameid":684878,"name":"Bihor","admin1":"05"},"locations":[{"geonameid":686035,"name":"Auşeu","asciiname":"Auseu","alternatenames":"Auseu,Auşeu","latitude":"47.0333300","longitude":"22.5000000","fclass":"P","fcode":"PPLA2","country":"RO","cc2":"","admin1":"05","admin2":"27212","admin3":"","admin4":"","population":2978,"elevation":0,"gtopo30":252,"timezone":"Europe/Bucharest","moddate":"2012-06-12T00:00:00.000Z"},{"geonameid":683065,"name":"Cacuciu Vechi","asciiname":"Cacuciu Vechi","alternatenames":"Cacuciu Vechi,Cacuciu Vechiu,Căcuciu Vechiu","latitude":"47.0234000","longitude":"22.4921600","fclass":"P","fcode":"PPL","country":"RO","cc2":"RO","admin1":"05","admin2":"27212","admin3":"","admin4":"","population":190,"elevation":0,"gtopo30":254,"timezone":"Europe/Bucharest","moddate":"2013-04-21T00:00:00.000Z"},{"geonameid":681170,"name":"Codrișoru","asciiname":"Codrisoru","alternatenames":"Codrisoru,Codrişoru,Secatura,Secătura","latitude":"47.1035500","longitude":"22.5223500","fclass":"P","fcode":"PPL","country":"RO","cc2":"RO","admin1":"05","admin2":"27212","admin3":"","admin4":"","population":63,"elevation":0,"gtopo30":705,"timezone":"Europe/Bucharest","moddate":"2013-04-21T00:00:00.000Z"},{"geonameid":677484,"name":"Gheghie","asciiname":"Gheghie","alternatenames":"","latitude":"47.0181900","longitude":"22.5174200","fclass":"P","fcode":"PPL","country":"RO","cc2":"","admin1":"05","admin2":"27212","admin3":"","admin4":"","population":272,"elevation":0,"gtopo30":269,"timezone":"Europe/Bucharest","moddate":"2013-04-21T00:00:00.000Z"},{"geonameid":676655,"name":"Groși","asciiname":"Grosi","alternatenames":"","latitude":"47.0452500","longitude":"22.4796500","fclass":"P","fcode":"PPL","country":"RO","cc2":"","admin1":"05","admin2":"27212","admin3":"","admin4":"","population":1002,"elevation":0,"gtopo30":248,"timezone":"Europe/Bucharest","moddate":"2013-04-21T00:00:00.000Z"},{"geonameid":675685,"name":"Ilancu","asciiname":"Ilancu","alternatenames":"","latitude":"47.0333300","longitude":"22.5500000","fclass":"P","fcode":"PPLX","country":"RO","cc2":"","admin1":"05","admin2":"27212","admin3":"","admin4":"","population":0,"elevation":0,"gtopo30":313,"timezone":"Europe/Bucharest","moddate":"2016-02-07T00:00:00.000Z"},{"geonameid":674334,"name":"Luncșoara","asciiname":"Luncsoara","alternatenames":"","latitude":"47.0366300","longitude":"22.5421300","fclass":"P","fcode":"PPL","country":"RO","cc2":"","admin1":"05","admin2":"27212","admin3":"","admin4":"","population":1134,"elevation":0,"gtopo30":303,"timezone":"Europe/Bucharest","moddate":"2013-04-21T00:00:00.000Z"}],"admin3":[],"alternateNames":[]},"__N_SSG":true}