{"pageProps":{"locale":"ro","admin2":{"geonameid":8334739,"name":"Comuna Nuci","country":"RO","admin1":"43","admin2":"104421","admin3":"","latitude":"44.7091000","longitude":"26.3177000"},"admin1":{"geonameid":865518,"name":"Ilfov","admin1":"43"},"locations":[{"geonameid":685566,"name":"Balta Neagră","asciiname":"Balta Neagra","alternatenames":"","latitude":"44.6974800","longitude":"26.3049700","fclass":"P","fcode":"PPL","country":"RO","cc2":"","admin1":"43","admin2":"104421","admin3":"","admin4":"","population":244,"elevation":0,"gtopo30":74,"timezone":"Europe/Bucharest","moddate":"2013-04-21T00:00:00.000Z"},{"geonameid":673558,"name":"Merii Petchii","asciiname":"Merii Petchii","alternatenames":"Merii Petchii,Merii-Petchi","latitude":"44.7353200","longitude":"26.3005400","fclass":"P","fcode":"PPL","country":"RO","cc2":"RO","admin1":"43","admin2":"104421","admin3":"","admin4":"","population":1171,"elevation":0,"gtopo30":81,"timezone":"Europe/Bucharest","moddate":"2013-04-21T00:00:00.000Z"},{"geonameid":673456,"name":"Micșunești-Moară","asciiname":"Micsunesti-Moara","alternatenames":"","latitude":"44.7007600","longitude":"26.3287900","fclass":"P","fcode":"PPL","country":"RO","cc2":"","admin1":"43","admin2":"104421","admin3":"","admin4":"","population":451,"elevation":0,"gtopo30":75,"timezone":"Europe/Bucharest","moddate":"2015-12-07T00:00:00.000Z"},{"geonameid":673457,"name":"Micșuneștii Mari","asciiname":"Micsunestii Mari","alternatenames":"","latitude":"44.6909500","longitude":"26.3553600","fclass":"P","fcode":"PPL","country":"RO","cc2":"","admin1":"43","admin2":"104421","admin3":"","admin4":"","population":778,"elevation":0,"gtopo30":74,"timezone":"Europe/Bucharest","moddate":"2013-04-21T00:00:00.000Z"},{"geonameid":672294,"name":"Netezeşti","asciiname":"Netezesti","alternatenames":"","latitude":"44.7166700","longitude":"26.3166700","fclass":"P","fcode":"PPL","country":"RO","cc2":"","admin1":"43","admin2":"104421","admin3":"","admin4":"","population":0,"elevation":0,"gtopo30":77,"timezone":"Europe/Bucharest","moddate":"2016-02-07T00:00:00.000Z"},{"geonameid":672135,"name":"Nuci","asciiname":"Nuci","alternatenames":"Nuci","latitude":"44.7166700","longitude":"26.3000000","fclass":"P","fcode":"PPLA2","country":"RO","cc2":"","admin1":"43","admin2":"104421","admin3":"","admin4":"","population":3174,"elevation":0,"gtopo30":76,"timezone":"Europe/Bucharest","moddate":"2012-06-12T00:00:00.000Z"},{"geonameid":665834,"name":"Sudiţi","asciiname":"Suditi","alternatenames":"","latitude":"44.7333300","longitude":"26.3000000","fclass":"P","fcode":"PPL","country":"RO","cc2":"","admin1":"43","admin2":"104421","admin3":"","admin4":"","population":0,"elevation":0,"gtopo30":83,"timezone":"Europe/Bucharest","moddate":"2016-02-07T00:00:00.000Z"}],"admin3":[],"alternateNames":[{"alternatenameId":8321538,"geonameid":865518,"isoLanguage":"en","alternateName":"Ilfov","isPreferredName":true,"isShortName":true,"isColloquial":false,"isHistoric":false}]},"__N_SSG":true}