{"pageProps":{"locale":"en","admin2":{"geonameid":2652975,"name":"Clackmannanshire","country":"GB","admin1":"SCT","admin2":"U1","admin3":"","latitude":"56.1666700","longitude":"-3.7500000"},"admin1":{"geonameid":2638360,"name":"Scotland","admin1":"SCT"},"locations":[{"geonameid":2657471,"name":"Alloa","asciiname":"Alloa","alternatenames":"Alamhagh,Allmhagh Mor,Allmhagh Mòr,Alloa,Aloa,alwa,Аллоа,Алоа,الوآ","latitude":"56.1158600","longitude":"-3.7899700","fclass":"P","fcode":"PPLA2","country":"GB","cc2":"","admin1":"SCT","admin2":"U1","admin3":"","admin4":"","population":20390,"elevation":0,"gtopo30":22,"timezone":"Europe/London","moddate":"2017-06-12T00:00:00.000Z"},{"geonameid":2657397,"name":"Alva","asciiname":"Alva","alternatenames":"Alva","latitude":"56.1528400","longitude":"-3.8050500","fclass":"P","fcode":"PPL","country":"GB","cc2":"","admin1":"SCT","admin2":"U1","admin3":"","admin4":"","population":4720,"elevation":0,"gtopo30":22,"timezone":"Europe/London","moddate":"2017-06-12T00:00:00.000Z"},{"geonameid":2653939,"name":"Cambus","asciiname":"Cambus","alternatenames":"","latitude":"56.1244000","longitude":"-3.8442600","fclass":"P","fcode":"PPL","country":"GB","cc2":"","admin1":"SCT","admin2":"U1","admin3":"","admin4":"","population":0,"elevation":0,"gtopo30":7,"timezone":"Europe/London","moddate":"2011-03-03T00:00:00.000Z"},{"geonameid":2652976,"name":"Clackmannan","asciiname":"Clackmannan","alternatenames":"Clackmannan","latitude":"56.1074300","longitude":"-3.7509800","fclass":"P","fcode":"PPL","country":"GB","cc2":"","admin1":"SCT","admin2":"U1","admin3":"","admin4":"","population":3450,"elevation":0,"gtopo30":39,"timezone":"Europe/London","moddate":"2017-06-12T00:00:00.000Z"},{"geonameid":11592114,"name":"Coalsnaughton","asciiname":"Coalsnaughton","alternatenames":"","latitude":"56.1405300","longitude":"-3.7360400","fclass":"P","fcode":"PPL","country":"GB","cc2":"","admin1":"SCT","admin2":"U1","admin3":"","admin4":"","population":850,"elevation":0,"gtopo30":71,"timezone":"Europe/London","moddate":"2017-06-14T00:00:00.000Z"},{"geonameid":12195582,"name":"Devonside","asciiname":"Devonside","alternatenames":"","latitude":"56.1477400","longitude":"-3.7391800","fclass":"P","fcode":"PPL","country":"GB","cc2":"","admin1":"SCT","admin2":"U1","admin3":"","admin4":"","population":0,"elevation":0,"gtopo30":50,"timezone":"Europe/London","moddate":"2020-10-24T00:00:00.000Z"},{"geonameid":2651151,"name":"Dollar","asciiname":"Dollar","alternatenames":"","latitude":"56.1624500","longitude":"-3.6713500","fclass":"P","fcode":"PPL","country":"GB","cc2":"","admin1":"SCT","admin2":"U1","admin3":"","admin4":"","population":2740,"elevation":0,"gtopo30":45,"timezone":"Europe/London","moddate":"2017-06-12T00:00:00.000Z"},{"geonameid":2649213,"name":"Forest Mill","asciiname":"Forest Mill","alternatenames":"","latitude":"56.1257400","longitude":"-3.6881000","fclass":"P","fcode":"PPL","country":"GB","cc2":"","admin1":"SCT","admin2":"U1","admin3":"","admin4":"","population":0,"elevation":0,"gtopo30":66,"timezone":"Europe/London","moddate":"2011-03-03T00:00:00.000Z"},{"geonameid":11592281,"name":"Glenochil Village","asciiname":"Glenochil Village","alternatenames":"","latitude":"56.1407700","longitude":"-3.8143200","fclass":"P","fcode":"PPL","country":"GB","cc2":"","admin1":"SCT","admin2":"U1","admin3":"","admin4":"","population":820,"elevation":0,"gtopo30":41,"timezone":"Europe/London","moddate":"2017-06-14T00:00:00.000Z"},{"geonameid":2645807,"name":"Kennet","asciiname":"Kennet","alternatenames":"Kennet,Kennetpans","latitude":"56.0995700","longitude":"-3.7287400","fclass":"P","fcode":"PPL","country":"GB","cc2":"","admin1":"SCT","admin2":"U1","admin3":"","admin4":"","population":0,"elevation":0,"gtopo30":34,"timezone":"Europe/London","moddate":"2015-07-12T00:00:00.000Z"},{"geonameid":10376289,"name":"Kilbagie","asciiname":"Kilbagie","alternatenames":"","latitude":"56.0893300","longitude":"-3.7221300","fclass":"P","fcode":"PPLX","country":"GB","cc2":"","admin1":"SCT","admin2":"U1","admin3":"","admin4":"","population":0,"elevation":0,"gtopo30":12,"timezone":"Europe/London","moddate":"2015-07-12T00:00:00.000Z"},{"geonameid":8299851,"name":"Menstrie","asciiname":"Menstrie","alternatenames":"Meanstraidh,Menstrie","latitude":"56.1513800","longitude":"-3.8546600","fclass":"P","fcode":"PPL","country":"GB","cc2":"","admin1":"SCT","admin2":"U1","admin3":"","admin4":"","population":2770,"elevation":0,"gtopo30":22,"timezone":"Europe/London","moddate":"2017-06-12T00:00:00.000Z"},{"geonameid":2638496,"name":"Sauchie","asciiname":"Sauchie","alternatenames":"Sauchie","latitude":"56.1286900","longitude":"-3.7661100","fclass":"P","fcode":"PPL","country":"GB","cc2":"","admin1":"SCT","admin2":"U1","admin3":"","admin4":"","population":0,"elevation":0,"gtopo30":40,"timezone":"Europe/London","moddate":"2011-03-03T00:00:00.000Z"},{"geonameid":2635829,"name":"Tillicoultry","asciiname":"Tillicoultry","alternatenames":"","latitude":"56.1525100","longitude":"-3.7401500","fclass":"P","fcode":"PPL","country":"GB","cc2":"","admin1":"SCT","admin2":"U1","admin3":"","admin4":"","population":5160,"elevation":0,"gtopo30":21,"timezone":"Europe/London","moddate":"2017-06-15T00:00:00.000Z"},{"geonameid":11592219,"name":"Tullibody","asciiname":"Tullibody","alternatenames":"","latitude":"56.1336400","longitude":"-3.8383500","fclass":"P","fcode":"PPL","country":"GB","cc2":"","admin1":"SCT","admin2":"U1","admin3":"","admin4":"","population":8710,"elevation":0,"gtopo30":33,"timezone":"Europe/London","moddate":"2017-06-15T00:00:00.000Z"}],"admin3":[],"alternateNames":[]},"__N_SSG":true}