{"pageProps":{"locale":"ro","admin2":{"geonameid":663452,"name":"Comuna Valea Sălciei","country":"RO","admin1":"11","admin2":"50068","admin3":"","latitude":"45.4881800","longitude":"26.8291200"},"admin1":{"geonameid":683121,"name":"Buzău","admin1":"11"},"locations":[{"geonameid":676179,"name":"Hârja","asciiname":"Harja","alternatenames":"Harja,Hirja,Hârja,Hîrja","latitude":"45.5000000","longitude":"26.8166700","fclass":"P","fcode":"PPLX","country":"RO","cc2":"","admin1":"11","admin2":"50068","admin3":"","admin4":"","population":862,"elevation":0,"gtopo30":460,"timezone":"Europe/Bucharest","moddate":"2020-03-08T00:00:00.000Z"},{"geonameid":672972,"name":"Modreni","asciiname":"Modreni","alternatenames":"","latitude":"45.4969500","longitude":"26.8376300","fclass":"P","fcode":"PPL","country":"RO","cc2":"","admin1":"11","admin2":"50068","admin3":"","admin4":"","population":416,"elevation":0,"gtopo30":389,"timezone":"Europe/Bucharest","moddate":"2013-04-21T00:00:00.000Z"},{"geonameid":666647,"name":"Sloveanu","asciiname":"Sloveanu","alternatenames":"","latitude":"45.5000000","longitude":"26.8166700","fclass":"P","fcode":"PPLX","country":"RO","cc2":"","admin1":"11","admin2":"50068","admin3":"","admin4":"","population":0,"elevation":0,"gtopo30":460,"timezone":"Europe/Bucharest","moddate":"2016-02-07T00:00:00.000Z"},{"geonameid":663454,"name":"Valea Salciei","asciiname":"Valea Salciei","alternatenames":"Valea Salciei,Valea Sălciei","latitude":"45.4962200","longitude":"26.8236100","fclass":"P","fcode":"PPLA2","country":"RO","cc2":"","admin1":"11","admin2":"50068","admin3":"","admin4":"","population":458,"elevation":0,"gtopo30":402,"timezone":"Europe/Bucharest","moddate":"2013-04-20T00:00:00.000Z"},{"geonameid":10942291,"name":"Valea Salciei-Cătun","asciiname":"Valea Salciei-Catun","alternatenames":"","latitude":"45.4716500","longitude":"26.8245300","fclass":"P","fcode":"PPL","country":"RO","cc2":"","admin1":"11","admin2":"50068","admin3":"","admin4":"","population":96,"elevation":0,"gtopo30":440,"timezone":"Europe/Bucharest","moddate":"2015-11-20T00:00:00.000Z"}],"admin3":[],"alternateNames":[]},"__N_SSG":true}