{"pageProps":{"locale":"ro","admin2":{"geonameid":674171,"name":"Comuna Măgireşti","country":"RO","admin1":"04","admin2":"23387","admin3":"","latitude":"46.5096500","longitude":"26.5372700"},"admin1":{"geonameid":685947,"name":"Bacău","admin1":"04"},"locations":[{"geonameid":682525,"name":"Cătunu-Şesuri","asciiname":"Catunu-Sesuri","alternatenames":"","latitude":"46.5000000","longitude":"26.5666700","fclass":"P","fcode":"PPLX","country":"RO","cc2":"","admin1":"04","admin2":"23387","admin3":"","admin4":"","population":0,"elevation":0,"gtopo30":360,"timezone":"Europe/Bucharest","moddate":"2016-02-07T00:00:00.000Z"},{"geonameid":674172,"name":"Măgireşti","asciiname":"Magiresti","alternatenames":"Magiresti,Măgireşti","latitude":"46.5166700","longitude":"26.5500000","fclass":"P","fcode":"PPLA2","country":"RO","cc2":"","admin1":"04","admin2":"23387","admin3":"","admin4":"","population":4477,"elevation":0,"gtopo30":443,"timezone":"Europe/Bucharest","moddate":"2012-06-12T00:00:00.000Z"},{"geonameid":669727,"name":"Prăjești","asciiname":"Prajesti","alternatenames":"","latitude":"46.5058300","longitude":"26.5259300","fclass":"P","fcode":"PPL","country":"RO","cc2":"","admin1":"04","admin2":"23387","admin3":"","admin4":"","population":703,"elevation":0,"gtopo30":437,"timezone":"Europe/Bucharest","moddate":"2013-04-21T00:00:00.000Z"},{"geonameid":667327,"name":"Șesuri","asciiname":"Sesuri","alternatenames":"","latitude":"46.5071000","longitude":"26.5715000","fclass":"P","fcode":"PPL","country":"RO","cc2":"","admin1":"04","admin2":"23387","admin3":"","admin4":"","population":429,"elevation":0,"gtopo30":349,"timezone":"Europe/Bucharest","moddate":"2013-04-21T00:00:00.000Z"},{"geonameid":666297,"name":"Stănești","asciiname":"Stanesti","alternatenames":"","latitude":"46.5266100","longitude":"26.5337700","fclass":"P","fcode":"PPL","country":"RO","cc2":"","admin1":"04","admin2":"23387","admin3":"","admin4":"","population":738,"elevation":0,"gtopo30":460,"timezone":"Europe/Bucharest","moddate":"2013-04-21T00:00:00.000Z"},{"geonameid":663924,"name":"Valea Arinilor","asciiname":"Valea Arinilor","alternatenames":"Valea Arinilor,Valea-Aninilor","latitude":"46.4979300","longitude":"26.5091800","fclass":"P","fcode":"PPL","country":"RO","cc2":"RO","admin1":"04","admin2":"23387","admin3":"","admin4":"","population":1276,"elevation":0,"gtopo30":459,"timezone":"Europe/Bucharest","moddate":"2013-04-20T00:00:00.000Z"}],"admin3":[],"alternateNames":[]},"__N_SSG":true}