{"pageProps":{"locale":"en","admin2":{"geonameid":3333236,"name":"South Lanarkshire","country":"GB","admin1":"SCT","admin2":"W5","admin3":"","latitude":"55.5833300","longitude":"-3.8333300"},"admin1":{"geonameid":2638360,"name":"Scotland","admin1":"SCT"},"locations":[{"geonameid":2657778,"name":"Abington","asciiname":"Abington","alternatenames":"Abington","latitude":"55.4833300","longitude":"-3.7000000","fclass":"P","fcode":"PPL","country":"GB","cc2":"","admin1":"SCT","admin2":"W5","admin3":"","admin4":"","population":0,"elevation":0,"gtopo30":258,"timezone":"Europe/London","moddate":"2017-06-06T00:00:00.000Z"},{"geonameid":11592107,"name":"Ashgill","asciiname":"Ashgill","alternatenames":"","latitude":"55.7311900","longitude":"-3.9301900","fclass":"P","fcode":"PPL","country":"GB","cc2":"","admin1":"SCT","admin2":"W5","admin3":"","admin4":"","population":1460,"elevation":0,"gtopo30":103,"timezone":"Europe/London","moddate":"2017-06-14T00:00:00.000Z"},{"geonameid":2656825,"name":"Auchengray","asciiname":"Auchengray","alternatenames":"Auchengray","latitude":"55.7709500","longitude":"-3.6021100","fclass":"P","fcode":"PPL","country":"GB","cc2":"","admin1":"SCT","admin2":"W5","admin3":"","admin4":"","population":0,"elevation":0,"gtopo30":271,"timezone":"Europe/London","moddate":"2011-03-03T00:00:00.000Z"},{"geonameid":11550826,"name":"Auldhouse","asciiname":"Auldhouse","alternatenames":"","latitude":"55.7272600","longitude":"-4.1937300","fclass":"P","fcode":"PPL","country":"GB","cc2":"","admin1":"SCT","admin2":"W5","admin3":"","admin4":"","population":0,"elevation":0,"gtopo30":211,"timezone":"Europe/London","moddate":"2017-06-07T00:00:00.000Z"},{"geonameid":2656392,"name":"Bankend","asciiname":"Bankend","alternatenames":"","latitude":"55.5833300","longitude":"-3.9166700","fclass":"P","fcode":"PPL","country":"GB","cc2":"","admin1":"SCT","admin2":"W5","admin3":"","admin4":"","population":0,"elevation":0,"gtopo30":299,"timezone":"Europe/London","moddate":"2013-07-11T00:00:00.000Z"},{"geonameid":2655692,"name":"Biggar","asciiname":"Biggar","alternatenames":"Bigear,Biggar","latitude":"55.6229700","longitude":"-3.5245500","fclass":"P","fcode":"PPL","country":"GB","cc2":"","admin1":"SCT","admin2":"W5","admin3":"","admin4":"","population":2330,"elevation":0,"gtopo30":215,"timezone":"Europe/London","moddate":"2017-06-13T00:00:00.000Z"},{"geonameid":2655418,"name":"Blackwood","asciiname":"Blackwood","alternatenames":"Blackwood","latitude":"55.6666700","longitude":"-3.9166700","fclass":"P","fcode":"PPL","country":"GB","cc2":"","admin1":"SCT","admin2":"W5","admin3":"","admin4":"","population":1901,"elevation":0,"gtopo30":175,"timezone":"Europe/London","moddate":"2014-04-06T00:00:00.000Z"},{"geonameid":11592111,"name":"Blantyre","asciiname":"Blantyre","alternatenames":"","latitude":"55.7963400","longitude":"-4.0948500","fclass":"P","fcode":"PPL","country":"GB","cc2":"","admin1":"SCT","admin2":"W5","admin3":"","admin4":"","population":17090,"elevation":0,"gtopo30":68,"timezone":"Europe/London","moddate":"2017-06-14T00:00:00.000Z"},{"geonameid":2655130,"name":"Bothwell","asciiname":"Bothwell","alternatenames":"Bosuehll,Bothwell,bwtwl,Босуэлл,بوتول","latitude":"55.8027200","longitude":"-4.0683500","fclass":"P","fcode":"PPL","country":"GB","cc2":"","admin1":"SCT","admin2":"W5","admin3":"","admin4":"","population":6410,"elevation":0,"gtopo30":59,"timezone":"Europe/London","moddate":"2017-06-12T00:00:00.000Z"},{"geonameid":2654941,"name":"Braidwood","asciiname":"Braidwood","alternatenames":"","latitude":"55.7102300","longitude":"-3.8431600","fclass":"P","fcode":"PPL","country":"GB","cc2":"","admin1":"SCT","admin2":"W5","admin3":"","admin4":"","population":600,"elevation":0,"gtopo30":181,"timezone":"Europe/London","moddate":"2017-06-12T00:00:00.000Z"},{"geonameid":2654102,"name":"Cadzow","asciiname":"Cadzow","alternatenames":"","latitude":"55.7595800","longitude":"-4.0466200","fclass":"P","fcode":"PPL","country":"GB","cc2":"","admin1":"SCT","admin2":"W5","admin3":"","admin4":"","population":0,"elevation":0,"gtopo30":117,"timezone":"Europe/London","moddate":"2011-03-03T00:00:00.000Z"},{"geonameid":2653935,"name":"Cambuslang","asciiname":"Cambuslang","alternatenames":"Camas Lang,Camas Long,Kambusleng,kmbslng,Камбусленг,کمبسلنگ","latitude":"55.8096600","longitude":"-4.1609600","fclass":"P","fcode":"PPL","country":"GB","cc2":"","admin1":"SCT","admin2":"W5","admin3":"","admin4":"","population":27610,"elevation":0,"gtopo30":76,"timezone":"Europe/London","moddate":"2017-06-12T00:00:00.000Z"},{"geonameid":2653756,"name":"Carluke","asciiname":"Carluke","alternatenames":"Carluke,Cathair MoLuaig,Karluk,Карлук","latitude":"55.7359500","longitude":"-3.8301900","fclass":"P","fcode":"PPL","country":"GB","cc2":"","admin1":"SCT","admin2":"W5","admin3":"","admin4":"","population":13370,"elevation":0,"gtopo30":210,"timezone":"Europe/London","moddate":"2017-06-15T00:00:00.000Z"},{"geonameid":2653701,"name":"Carnwath","asciiname":"Carnwath","alternatenames":"Carnwath","latitude":"55.7003600","longitude":"-3.6257900","fclass":"P","fcode":"PPL","country":"GB","cc2":"","admin1":"SCT","admin2":"W5","admin3":"","admin4":"","population":1430,"elevation":0,"gtopo30":218,"timezone":"Europe/London","moddate":"2017-06-12T00:00:00.000Z"},{"geonameid":2653639,"name":"Carstairs","asciiname":"Carstairs","alternatenames":"Carstairs","latitude":"55.6956100","longitude":"-3.6911500","fclass":"P","fcode":"PPL","country":"GB","cc2":"","admin1":"SCT","admin2":"W5","admin3":"","admin4":"","population":890,"elevation":0,"gtopo30":209,"timezone":"Europe/London","moddate":"2017-06-12T00:00:00.000Z"},{"geonameid":11592125,"name":"Carstairs Junction","asciiname":"Carstairs Junction","alternatenames":"","latitude":"55.6870000","longitude":"-3.6630000","fclass":"P","fcode":"PPL","country":"GB","cc2":"","admin1":"SCT","admin2":"W5","admin3":"","admin4":"","population":780,"elevation":0,"gtopo30":198,"timezone":"Europe/London","moddate":"2017-06-14T00:00:00.000Z"},{"geonameid":2653354,"name":"Chapelton","asciiname":"Chapelton","alternatenames":"","latitude":"55.7120400","longitude":"-4.0962900","fclass":"P","fcode":"PPL","country":"GB","cc2":"","admin1":"SCT","admin2":"W5","admin3":"","admin4":"","population":650,"elevation":0,"gtopo30":238,"timezone":"Europe/London","moddate":"2017-06-13T00:00:00.000Z"},{"geonameid":2652707,"name":"Coalburn","asciiname":"Coalburn","alternatenames":"","latitude":"55.5929500","longitude":"-3.8863700","fclass":"P","fcode":"PPL","country":"GB","cc2":"","admin1":"SCT","admin2":"W5","admin3":"","admin4":"","population":1200,"elevation":0,"gtopo30":236,"timezone":"Europe/London","moddate":"2017-06-13T00:00:00.000Z"},{"geonameid":2652214,"name":"Covington","asciiname":"Covington","alternatenames":"","latitude":"55.6333300","longitude":"-3.6333300","fclass":"P","fcode":"PPL","country":"GB","cc2":"","admin1":"SCT","admin2":"W5","admin3":"","admin4":"","population":0,"elevation":0,"gtopo30":214,"timezone":"Europe/London","moddate":"2013-07-11T00:00:00.000Z"},{"geonameid":2652060,"name":"Crawford","asciiname":"Crawford","alternatenames":"","latitude":"55.4666700","longitude":"-3.6500000","fclass":"P","fcode":"PPL","country":"GB","cc2":"","admin1":"SCT","admin2":"W5","admin3":"","admin4":"","population":0,"elevation":0,"gtopo30":263,"timezone":"Europe/London","moddate":"2013-07-11T00:00:00.000Z"},{"geonameid":2652059,"name":"Crawfordjohn","asciiname":"Crawfordjohn","alternatenames":"Crawfordjohn","latitude":"55.4961000","longitude":"-3.7747200","fclass":"P","fcode":"PPL","country":"GB","cc2":"","admin1":"SCT","admin2":"W5","admin3":"","admin4":"","population":0,"elevation":0,"gtopo30":276,"timezone":"Europe/London","moddate":"2011-03-03T00:00:00.000Z"},{"geonameid":2651879,"name":"Crossford","asciiname":"Crossford","alternatenames":"Crossford","latitude":"55.7000000","longitude":"-3.8666700","fclass":"P","fcode":"PPL","country":"GB","cc2":"","admin1":"SCT","admin2":"W5","admin3":"","admin4":"","population":710,"elevation":0,"gtopo30":49,"timezone":"Europe/London","moddate":"2017-07-04T00:00:00.000Z"},{"geonameid":11550827,"name":"Crutherland","asciiname":"Crutherland","alternatenames":"","latitude":"55.7429600","longitude":"-4.1361000","fclass":"P","fcode":"PPL","country":"GB","cc2":"","admin1":"SCT","admin2":"W5","admin3":"","admin4":"","population":0,"elevation":0,"gtopo30":204,"timezone":"Europe/London","moddate":"2017-06-07T00:00:00.000Z"},{"geonameid":2651726,"name":"Culter","asciiname":"Culter","alternatenames":"","latitude":"55.5833300","longitude":"-3.5500000","fclass":"P","fcode":"PPL","country":"GB","cc2":"","admin1":"SCT","admin2":"W5","admin3":"","admin4":"","population":0,"elevation":0,"gtopo30":266,"timezone":"Europe/London","moddate":"2013-07-11T00:00:00.000Z"},{"geonameid":2651558,"name":"Dalserf","asciiname":"Dalserf","alternatenames":"Dalserf","latitude":"55.7333300","longitude":"-3.9166700","fclass":"P","fcode":"PPL","country":"GB","cc2":"","admin1":"SCT","admin2":"W5","admin3":"","admin4":"","population":17985,"elevation":0,"gtopo30":54,"timezone":"Europe/London","moddate":"2013-07-11T00:00:00.000Z"},{"geonameid":2651147,"name":"Dolphinton","asciiname":"Dolphinton","alternatenames":"","latitude":"55.7062600","longitude":"-3.4244500","fclass":"P","fcode":"PPL","country":"GB","cc2":"","admin1":"SCT","admin2":"W5","admin3":"","admin4":"","population":0,"elevation":0,"gtopo30":233,"timezone":"Europe/London","moddate":"2013-07-11T00:00:00.000Z"},{"geonameid":2651073,"name":"Douglas","asciiname":"Douglas","alternatenames":"Douglas","latitude":"55.5500000","longitude":"-3.8500000","fclass":"P","fcode":"PPL","country":"GB","cc2":"","admin1":"SCT","admin2":"W5","admin3":"","admin4":"","population":1560,"elevation":0,"gtopo30":206,"timezone":"Europe/London","moddate":"2017-06-12T00:00:00.000Z"},{"geonameid":6324531,"name":"Douglas Water","asciiname":"Douglas Water","alternatenames":"","latitude":"55.6093200","longitude":"-3.7876100","fclass":"P","fcode":"PPL","country":"GB","cc2":"","admin1":"SCT","admin2":"W5","admin3":"","admin4":"","population":100,"elevation":0,"gtopo30":189,"timezone":"Europe/London","moddate":"2011-03-03T00:00:00.000Z"},{"geonameid":2650942,"name":"Drumclog","asciiname":"Drumclog","alternatenames":"","latitude":"55.6244100","longitude":"-4.1618700","fclass":"P","fcode":"PPL","country":"GB","cc2":"","admin1":"SCT","admin2":"W5","admin3":"","admin4":"","population":0,"elevation":0,"gtopo30":197,"timezone":"Europe/London","moddate":"2011-03-03T00:00:00.000Z"},{"geonameid":2650648,"name":"Dunsyre","asciiname":"Dunsyre","alternatenames":"Dunsyre","latitude":"55.7177600","longitude":"-3.4780400","fclass":"P","fcode":"PPL","country":"GB","cc2":"","admin1":"SCT","admin2":"W5","admin3":"","admin4":"","population":0,"elevation":0,"gtopo30":228,"timezone":"Europe/London","moddate":"2013-07-11T00:00:00.000Z"},{"geonameid":2650405,"name":"East Kilbride","asciiname":"East Kilbride","alternatenames":"Cille Bhrighde an Ear,Cille Bhrìghde an Ear,Cille Bhríghde an Ear,East Kilbride,East Kilbridge,Ist Kilbraidas,Ist Kilbrajd,Ist Kilbrayd,Ist-Kilbrajd,Keeill Vreeshey Hiar,ayst kylbrayd,dong ji er bu lai de,iseuteukilbeulaideu,İst Kilbrayd,Іст-Кілбрайд,Ист Килбрайд,Ист Килбрајд,ایست کیلبراید,ایسٹ کلبرائیڈ,イースト・キルブライド,東基爾布萊德,이스트킬브라이드","latitude":"55.7641200","longitude":"-4.1766900","fclass":"P","fcode":"PPL","country":"GB","cc2":"","admin1":"SCT","admin2":"W5","admin3":"","admin4":"","population":74740,"elevation":0,"gtopo30":161,"timezone":"Europe/London","moddate":"2017-06-12T00:00:00.000Z"},{"geonameid":2650052,"name":"Elsrickle","asciiname":"Elsrickle","alternatenames":"","latitude":"55.6750600","longitude":"-3.4954600","fclass":"P","fcode":"PPL","country":"GB","cc2":"","admin1":"SCT","admin2":"W5","admin3":"","admin4":"","population":0,"elevation":0,"gtopo30":268,"timezone":"Europe/London","moddate":"2011-03-03T00:00:00.000Z"},{"geonameid":2650034,"name":"Elvanfoot","asciiname":"Elvanfoot","alternatenames":"","latitude":"55.4372500","longitude":"-3.6579500","fclass":"P","fcode":"PPL","country":"GB","cc2":"","admin1":"SCT","admin2":"W5","admin3":"","admin4":"","population":0,"elevation":0,"gtopo30":285,"timezone":"Europe/London","moddate":"2011-03-03T00:00:00.000Z"},{"geonameid":2649179,"name":"Forth","asciiname":"Forth","alternatenames":"","latitude":"55.7650200","longitude":"-3.6887400","fclass":"P","fcode":"PPL","country":"GB","cc2":"","admin1":"SCT","admin2":"W5","admin3":"","admin4":"","population":2240,"elevation":0,"gtopo30":281,"timezone":"Europe/London","moddate":"2017-06-12T00:00:00.000Z"},{"geonameid":2648565,"name":"Glassford","asciiname":"Glassford","alternatenames":"Glasford,Glassford","latitude":"55.6997400","longitude":"-4.0294900","fclass":"P","fcode":"PPL","country":"GB","cc2":"","admin1":"SCT","admin2":"W5","admin3":"","admin4":"","population":640,"elevation":0,"gtopo30":212,"timezone":"Europe/London","moddate":"2017-06-12T00:00:00.000Z"},{"geonameid":2647570,"name":"Hamilton","asciiname":"Hamilton","alternatenames":"Baile Hamaltan,Gamil'ton,Hamaltan,Hamilton i Skottland,Hamiltonas,Hamiltoun,Həmilton,Khamiltun,hamiruton,han mi er dun,hmyltwn,Гамильтон,Гамільтон,Хамилтън,همیلتون,ہملٹن,ہیملٹن، جنوبی لینکاشائر,ハミルトン,漢密爾頓","latitude":"55.7666700","longitude":"-4.0333300","fclass":"P","fcode":"PPLA2","country":"GB","cc2":"","admin1":"SCT","admin2":"W5","admin3":"","admin4":"","population":53200,"elevation":0,"gtopo30":68,"timezone":"Europe/London","moddate":"2017-06-15T00:00:00.000Z"},{"geonameid":2647247,"name":"Haywood","asciiname":"Haywood","alternatenames":"","latitude":"55.7666700","longitude":"-3.6333300","fclass":"P","fcode":"PPL","country":"GB","cc2":"","admin1":"SCT","admin2":"W5","admin3":"","admin4":"","population":0,"elevation":0,"gtopo30":262,"timezone":"Europe/London","moddate":"2013-07-11T00:00:00.000Z"},{"geonameid":2646979,"name":"High Blantyre","asciiname":"High Blantyre","alternatenames":"Blantyre,High Blantyre","latitude":"55.7843800","longitude":"-4.1000700","fclass":"P","fcode":"PPL","country":"GB","cc2":"","admin1":"SCT","admin2":"W5","admin3":"","admin4":"","population":16739,"elevation":0,"gtopo30":78,"timezone":"Europe/London","moddate":"2011-03-03T00:00:00.000Z"},{"geonameid":2646322,"name":"Hyndfordbridge-end","asciiname":"Hyndfordbridge-end","alternatenames":"","latitude":"55.6666700","longitude":"-3.7333300","fclass":"P","fcode":"PPL","country":"GB","cc2":"","admin1":"SCT","admin2":"W5","admin3":"","admin4":"","population":0,"elevation":0,"gtopo30":200,"timezone":"Europe/London","moddate":"2013-07-11T00:00:00.000Z"},{"geonameid":11550829,"name":"Jackton","asciiname":"Jackton","alternatenames":"","latitude":"55.7474800","longitude":"-4.2419200","fclass":"P","fcode":"PPL","country":"GB","cc2":"","admin1":"SCT","admin2":"W5","admin3":"","admin4":"","population":0,"elevation":0,"gtopo30":150,"timezone":"Europe/London","moddate":"2017-06-07T00:00:00.000Z"},{"geonameid":11592452,"name":"Kirkfieldbank","asciiname":"Kirkfieldbank","alternatenames":"","latitude":"55.6750200","longitude":"-3.8049200","fclass":"P","fcode":"PPL","country":"GB","cc2":"","admin1":"SCT","admin2":"W5","admin3":"","admin4":"","population":940,"elevation":0,"gtopo30":115,"timezone":"Europe/London","moddate":"2017-06-15T00:00:00.000Z"},{"geonameid":2644986,"name":"Lamington","asciiname":"Lamington","alternatenames":"","latitude":"55.5627800","longitude":"-3.6186800","fclass":"P","fcode":"PPL","country":"GB","cc2":"","admin1":"SCT","admin2":"W5","admin3":"","admin4":"","population":0,"elevation":0,"gtopo30":218,"timezone":"Europe/London","moddate":"2011-03-03T00:00:00.000Z"},{"geonameid":2644976,"name":"Lanark","asciiname":"Lanark","alternatenames":"Lanark,Lannraig,Lanrik,lnark,ranaku,Ланарк,لنارک,ラナーク","latitude":"55.6737100","longitude":"-3.7817000","fclass":"P","fcode":"PPL","country":"GB","cc2":"","admin1":"SCT","admin2":"W5","admin3":"","admin4":"","population":8890,"elevation":0,"gtopo30":199,"timezone":"Europe/London","moddate":"2017-06-12T00:00:00.000Z"},{"geonameid":2644853,"name":"Larkhall","asciiname":"Larkhall","alternatenames":"Darkhall,Larkhall,Larkhauch,Larkkholl,Taigh na h-Uiseig,Ларкхолл","latitude":"55.7333300","longitude":"-3.9666700","fclass":"P","fcode":"PPL","country":"GB","cc2":"","admin1":"SCT","admin2":"W5","admin3":"","admin4":"","population":15020,"elevation":0,"gtopo30":117,"timezone":"Europe/London","moddate":"2017-06-15T00:00:00.000Z"},{"geonameid":2644795,"name":"Law","asciiname":"Law","alternatenames":"Law","latitude":"55.7500000","longitude":"-3.8833300","fclass":"P","fcode":"PPL","country":"GB","cc2":"","admin1":"SCT","admin2":"W5","admin3":"","admin4":"","population":3250,"elevation":0,"gtopo30":170,"timezone":"Europe/London","moddate":"2018-07-04T00:00:00.000Z"},{"geonameid":2644748,"name":"Leadhills","asciiname":"Leadhills","alternatenames":"Leadhills","latitude":"55.4170400","longitude":"-3.7604300","fclass":"P","fcode":"PPL","country":"GB","cc2":"","admin1":"SCT","admin2":"W5","admin3":"","admin4":"","population":0,"elevation":0,"gtopo30":396,"timezone":"Europe/London","moddate":"2011-03-03T00:00:00.000Z"},{"geonameid":2644600,"name":"Lesmahagow","asciiname":"Lesmahagow","alternatenames":"Lesmahagow","latitude":"55.6366800","longitude":"-3.8873600","fclass":"P","fcode":"PPL","country":"GB","cc2":"","admin1":"SCT","admin2":"W5","admin3":"","admin4":"","population":4380,"elevation":0,"gtopo30":176,"timezone":"Europe/London","moddate":"2017-06-12T00:00:00.000Z"},{"geonameid":2644534,"name":"Libberton","asciiname":"Libberton","alternatenames":"Libberton,Liberton","latitude":"55.6688800","longitude":"-3.6074700","fclass":"P","fcode":"PPL","country":"GB","cc2":"","admin1":"SCT","admin2":"W5","admin3":"","admin4":"","population":0,"elevation":0,"gtopo30":221,"timezone":"Europe/London","moddate":"2011-03-03T00:00:00.000Z"},{"geonameid":2642814,"name":"Meikle Earnock","asciiname":"Meikle Earnock","alternatenames":"Meikle Earnock","latitude":"55.7500000","longitude":"-4.0333300","fclass":"P","fcode":"PPL","country":"GB","cc2":"","admin1":"SCT","admin2":"W5","admin3":"","admin4":"","population":0,"elevation":0,"gtopo30":134,"timezone":"Europe/London","moddate":"2013-07-11T00:00:00.000Z"},{"geonameid":11669640,"name":"Nerston","asciiname":"Nerston","alternatenames":"","latitude":"55.7849600","longitude":"-4.1662000","fclass":"P","fcode":"PPL","country":"GB","cc2":"","admin1":"SCT","admin2":"W5","admin3":"","admin4":"","population":500,"elevation":0,"gtopo30":175,"timezone":"Europe/London","moddate":"2017-08-18T00:00:00.000Z"},{"geonameid":2641790,"name":"Netherburn","asciiname":"Netherburn","alternatenames":"","latitude":"55.7086800","longitude":"-3.9035700","fclass":"P","fcode":"PPL","country":"GB","cc2":"","admin1":"SCT","admin2":"W5","admin3":"","admin4":"","population":760,"elevation":0,"gtopo30":147,"timezone":"Europe/London","moddate":"2017-06-12T00:00:00.000Z"},{"geonameid":6696141,"name":"New Lanark","asciiname":"New Lanark","alternatenames":"N'ju-Lanark,Neo Lanark,Niu Lanarkas,xin la na ke,Νέο Λάναρκ,Нью-Ланарк,ניו לנארק,ნიუ-ლანარკი,ニュー・ラナーク,新拉纳克","latitude":"55.6641300","longitude":"-3.7821600","fclass":"P","fcode":"PPL","country":"GB","cc2":"","admin1":"SCT","admin2":"W5","admin3":"","admin4":"","population":0,"elevation":0,"gtopo30":126,"timezone":"Europe/London","moddate":"2011-03-03T00:00:00.000Z"},{"geonameid":2641717,"name":"Newbigging","asciiname":"Newbigging","alternatenames":"","latitude":"55.6955000","longitude":"-3.5705200","fclass":"P","fcode":"PPL","country":"GB","cc2":"","admin1":"SCT","admin2":"W5","admin3":"","admin4":"","population":0,"elevation":0,"gtopo30":216,"timezone":"Europe/London","moddate":"2013-07-11T00:00:00.000Z"},{"geonameid":2641559,"name":"Newton","asciiname":"Newton","alternatenames":"","latitude":"55.8166700","longitude":"-4.1500000","fclass":"P","fcode":"PPL","country":"GB","cc2":"","admin1":"SCT","admin2":"W5","admin3":"","admin4":"","population":0,"elevation":0,"gtopo30":42,"timezone":"Europe/London","moddate":"2013-07-11T00:00:00.000Z"},{"geonameid":2640336,"name":"Pettinain","asciiname":"Pettinain","alternatenames":"","latitude":"55.6691200","longitude":"-3.6637700","fclass":"P","fcode":"PPL","country":"GB","cc2":"","admin1":"SCT","admin2":"W5","admin3":"","admin4":"","population":0,"elevation":0,"gtopo30":227,"timezone":"Europe/London","moddate":"2011-03-03T00:00:00.000Z"},{"geonameid":2639800,"name":"Quarter","asciiname":"Quarter","alternatenames":"","latitude":"55.7383500","longitude":"-4.0319700","fclass":"P","fcode":"PPL","country":"GB","cc2":"","admin1":"SCT","admin2":"W5","admin3":"","admin4":"","population":750,"elevation":0,"gtopo30":161,"timezone":"Europe/London","moddate":"2017-06-12T00:00:00.000Z"},{"geonameid":11256863,"name":"Quothquan","asciiname":"Quothquan","alternatenames":"A' Choitcheann,A’ Choitcheann,Couth-Boan","latitude":"55.6403300","longitude":"-3.6093500","fclass":"P","fcode":"PPL","country":"GB","cc2":"","admin1":"SCT","admin2":"W5","admin3":"","admin4":"","population":0,"elevation":0,"gtopo30":220,"timezone":"Europe/London","moddate":"2016-09-11T00:00:00.000Z"},{"geonameid":6324532,"name":"Rigside","asciiname":"Rigside","alternatenames":"","latitude":"55.5968300","longitude":"-3.7808400","fclass":"P","fcode":"PPL","country":"GB","cc2":"","admin1":"SCT","admin2":"W5","admin3":"","admin4":"","population":770,"elevation":0,"gtopo30":254,"timezone":"Europe/London","moddate":"2017-06-12T00:00:00.000Z"},{"geonameid":2639284,"name":"Roberton","asciiname":"Roberton","alternatenames":"","latitude":"55.5333300","longitude":"-3.6666700","fclass":"P","fcode":"PPL","country":"GB","cc2":"","admin1":"SCT","admin2":"W5","admin3":"","admin4":"","population":0,"elevation":0,"gtopo30":226,"timezone":"Europe/London","moddate":"2013-07-11T00:00:00.000Z"},{"geonameid":6620451,"name":"Rosebank","asciiname":"Rosebank","alternatenames":"","latitude":"55.7260400","longitude":"-3.9023400","fclass":"P","fcode":"PPL","country":"GB","cc2":"","admin1":"SCT","admin2":"W5","admin3":"","admin4":"","population":0,"elevation":0,"gtopo30":48,"timezone":"Europe/London","moddate":"2011-03-03T00:00:00.000Z"},{"geonameid":2638926,"name":"Rutherglen","asciiname":"Rutherglen","alternatenames":"An Ruadh-Ghleann,Razerqlen,Ruglen,Ruterglen,rwdrgln,Рутерглен,رودرگلن","latitude":"55.8288500","longitude":"-4.2137600","fclass":"P","fcode":"PPL","country":"GB","cc2":"","admin1":"SCT","admin2":"W5","admin3":"","admin4":"","population":31180,"elevation":0,"gtopo30":23,"timezone":"Europe/London","moddate":"2017-06-12T00:00:00.000Z"},{"geonameid":2638904,"name":"Ryeland","asciiname":"Ryeland","alternatenames":"","latitude":"55.6333300","longitude":"-4.1333300","fclass":"P","fcode":"PPL","country":"GB","cc2":"","admin1":"SCT","admin2":"W5","admin3":"","admin4":"","population":0,"elevation":0,"gtopo30":180,"timezone":"Europe/London","moddate":"2013-07-11T00:00:00.000Z"},{"geonameid":11552745,"name":"South Lanarkshire","asciiname":"South Lanarkshire","alternatenames":"","latitude":"55.7841000","longitude":"-4.2084500","fclass":"P","fcode":"PPL","country":"GB","cc2":"","admin1":"SCT","admin2":"W5","admin3":"","admin4":"","population":0,"elevation":0,"gtopo30":167,"timezone":"Europe/London","moddate":"2017-06-08T00:00:00.000Z"},{"geonameid":2636894,"name":"Stockbriggs","asciiname":"Stockbriggs","alternatenames":"","latitude":"55.6000000","longitude":"-3.9166700","fclass":"P","fcode":"PPL","country":"GB","cc2":"","admin1":"SCT","admin2":"W5","admin3":"","admin4":"","population":0,"elevation":0,"gtopo30":264,"timezone":"Europe/London","moddate":"2013-07-11T00:00:00.000Z"},{"geonameid":2636810,"name":"Stonehouse","asciiname":"Stonehouse","alternatenames":"","latitude":"55.6943500","longitude":"-3.9878000","fclass":"P","fcode":"PPL","country":"GB","cc2":"","admin1":"SCT","admin2":"W5","admin3":"","admin4":"","population":5500,"elevation":0,"gtopo30":153,"timezone":"Europe/London","moddate":"2017-06-13T00:00:00.000Z"},{"geonameid":2636710,"name":"Strathaven","asciiname":"Strathaven","alternatenames":"Srath Abhainn,Strath Aibhne,Strathaven","latitude":"55.6771000","longitude":"-4.0668000","fclass":"P","fcode":"PPL","country":"GB","cc2":"","admin1":"SCT","admin2":"W5","admin3":"","admin4":"","population":7480,"elevation":0,"gtopo30":182,"timezone":"Europe/London","moddate":"2017-06-12T00:00:00.000Z"},{"geonameid":2636349,"name":"Symington","asciiname":"Symington","alternatenames":"","latitude":"55.5984300","longitude":"-3.5951000","fclass":"P","fcode":"PPL","country":"GB","cc2":"","admin1":"SCT","admin2":"W5","admin3":"","admin4":"","population":760,"elevation":0,"gtopo30":226,"timezone":"Europe/London","moddate":"2017-06-16T00:00:00.000Z"},{"geonameid":2636230,"name":"Tarbrax","asciiname":"Tarbrax","alternatenames":"Tarbrax","latitude":"55.7802300","longitude":"-3.5532800","fclass":"P","fcode":"PPL","country":"GB","cc2":"","admin1":"SCT","admin2":"W5","admin3":"","admin4":"","population":0,"elevation":0,"gtopo30":288,"timezone":"Europe/London","moddate":"2013-07-11T00:00:00.000Z"},{"geonameid":2636055,"name":"Thankerton","asciiname":"Thankerton","alternatenames":"Thankerton","latitude":"55.6263100","longitude":"-3.6328900","fclass":"P","fcode":"PPL","country":"GB","cc2":"","admin1":"SCT","admin2":"W5","admin3":"","admin4":"","population":510,"elevation":0,"gtopo30":207,"timezone":"Europe/London","moddate":"2017-06-12T00:00:00.000Z"},{"geonameid":11592213,"name":"Thorntonhall","asciiname":"Thorntonhall","alternatenames":"","latitude":"55.7687000","longitude":"-4.2463000","fclass":"P","fcode":"PPL","country":"GB","cc2":"","admin1":"SCT","admin2":"W5","admin3":"","admin4":"","population":610,"elevation":0,"gtopo30":135,"timezone":"Europe/London","moddate":"2017-06-14T00:00:00.000Z"},{"geonameid":2635239,"name":"Uddingston","asciiname":"Uddingston","alternatenames":"Uddingston","latitude":"55.8197100","longitude":"-4.0836200","fclass":"P","fcode":"PPL","country":"GB","cc2":"","admin1":"SCT","admin2":"W5","admin3":"","admin4":"","population":5610,"elevation":0,"gtopo30":47,"timezone":"Europe/London","moddate":"2017-06-12T00:00:00.000Z"},{"geonameid":2634847,"name":"Walston","asciiname":"Walston","alternatenames":"Walston","latitude":"55.6948300","longitude":"-3.4983400","fclass":"P","fcode":"PPL","country":"GB","cc2":"","admin1":"SCT","admin2":"W5","admin3":"","admin4":"","population":0,"elevation":0,"gtopo30":269,"timezone":"Europe/London","moddate":"2013-07-11T00:00:00.000Z"},{"geonameid":2633877,"name":"Wilsontown","asciiname":"Wilsontown","alternatenames":"","latitude":"55.7790200","longitude":"-3.6775400","fclass":"P","fcode":"PPL","country":"GB","cc2":"","admin1":"SCT","admin2":"W5","admin3":"","admin4":"","population":0,"elevation":0,"gtopo30":279,"timezone":"Europe/London","moddate":"2011-03-03T00:00:00.000Z"},{"geonameid":2633756,"name":"Wiston","asciiname":"Wiston","alternatenames":"","latitude":"55.5666700","longitude":"-3.6333300","fclass":"P","fcode":"PPL","country":"GB","cc2":"","admin1":"SCT","admin2":"W5","admin3":"","admin4":"","population":0,"elevation":0,"gtopo30":223,"timezone":"Europe/London","moddate":"2013-07-11T00:00:00.000Z"}],"admin3":[{"geonameid":2644975,"name":"Lanarkshire","admin3":"2644975"}],"alternateNames":[]},"__N_SSG":true}