{"pageProps":{"locale":"ro","admin2":{"geonameid":666517,"name":"Comuna Şoimuş","country":"RO","admin1":"21","admin2":"91330","admin3":"","latitude":"45.9458900","longitude":"22.8629800"},"admin1":{"geonameid":675917,"name":"Hunedoara","admin1":"21"},"locations":[{"geonameid":685668,"name":"Bălata","asciiname":"Balata","alternatenames":"","latitude":"45.9182800","longitude":"22.9290200","fclass":"P","fcode":"PPL","country":"RO","cc2":"","admin1":"21","admin2":"91330","admin3":"","admin4":"","population":363,"elevation":0,"gtopo30":206,"timezone":"Europe/Bucharest","moddate":"2013-04-21T00:00:00.000Z"},{"geonameid":685172,"name":"Bejan","asciiname":"Bejan","alternatenames":"","latitude":"45.9389500","longitude":"22.8535200","fclass":"P","fcode":"PPL","country":"RO","cc2":"","admin1":"21","admin2":"91330","admin3":"","admin4":"","population":250,"elevation":0,"gtopo30":184,"timezone":"Europe/Bucharest","moddate":"2013-04-21T00:00:00.000Z"},{"geonameid":685171,"name":"Bejan-Târnăvița","asciiname":"Bejan-Tarnavita","alternatenames":"","latitude":"45.9310600","longitude":"22.8367000","fclass":"P","fcode":"PPL","country":"RO","cc2":"","admin1":"21","admin2":"91330","admin3":"","admin4":"","population":0,"elevation":0,"gtopo30":184,"timezone":"Europe/Bucharest","moddate":"2015-12-04T00:00:00.000Z"},{"geonameid":684350,"name":"Boholț","asciiname":"Boholt","alternatenames":"","latitude":"45.9489600","longitude":"22.9245000","fclass":"P","fcode":"PPL","country":"RO","cc2":"","admin1":"21","admin2":"91330","admin3":"","admin4":"","population":332,"elevation":0,"gtopo30":239,"timezone":"Europe/Bucharest","moddate":"2013-04-21T00:00:00.000Z"},{"geonameid":683046,"name":"Căinelu de Jos","asciiname":"Cainelu de Jos","alternatenames":"Cainelu de Jos,Cainelul-de Jos,Căinelu de Jos","latitude":"45.9514600","longitude":"22.8341800","fclass":"P","fcode":"PPL","country":"RO","cc2":"RO","admin1":"21","admin2":"91330","admin3":"","admin4":"","population":156,"elevation":0,"gtopo30":223,"timezone":"Europe/Bucharest","moddate":"2013-04-21T00:00:00.000Z"},{"geonameid":682021,"name":"Chișcădaga","asciiname":"Chiscadaga","alternatenames":"","latitude":"45.9571900","longitude":"22.8780100","fclass":"P","fcode":"PPL","country":"RO","cc2":"","admin1":"21","admin2":"91330","admin3":"","admin4":"","population":398,"elevation":0,"gtopo30":212,"timezone":"Europe/Bucharest","moddate":"2013-04-21T00:00:00.000Z"},{"geonameid":677978,"name":"Fornădia","asciiname":"Fornadia","alternatenames":"","latitude":"45.9683300","longitude":"22.8391500","fclass":"P","fcode":"PPL","country":"RO","cc2":"","admin1":"21","admin2":"91330","admin3":"","admin4":"","population":312,"elevation":0,"gtopo30":215,"timezone":"Europe/Bucharest","moddate":"2013-04-21T00:00:00.000Z"},{"geonameid":671219,"name":"Păuliș","asciiname":"Paulis","alternatenames":"Buruene,Paulis,Păuliş","latitude":"45.9427000","longitude":"22.8638700","fclass":"P","fcode":"PPL","country":"RO","cc2":"RO","admin1":"21","admin2":"91330","admin3":"","admin4":"","population":248,"elevation":0,"gtopo30":200,"timezone":"Europe/Bucharest","moddate":"2013-04-21T00:00:00.000Z"},{"geonameid":666524,"name":"Şoimuş","asciiname":"Soimus","alternatenames":"Marossolymos,Scholmosch,Soimus,Şoimuş","latitude":"45.9166700","longitude":"22.9000000","fclass":"P","fcode":"PPLA2","country":"RO","cc2":"","admin1":"21","admin2":"91330","admin3":"","admin4":"","population":3502,"elevation":0,"gtopo30":194,"timezone":"Europe/Bucharest","moddate":"2012-06-12T00:00:00.000Z"},{"geonameid":665792,"name":"Sulighete","asciiname":"Sulighete","alternatenames":"","latitude":"45.9771000","longitude":"22.8020400","fclass":"P","fcode":"PPL","country":"RO","cc2":"","admin1":"21","admin2":"91330","admin3":"","admin4":"","population":343,"elevation":0,"gtopo30":330,"timezone":"Europe/Bucharest","moddate":"2013-04-21T00:00:00.000Z"}],"admin3":[],"alternateNames":[]},"__N_SSG":true}