{"pageProps":{"locale":"ro","admin2":{"geonameid":672618,"name":"Comuna Murgaşi","country":"RO","admin1":"17","admin2":"73371","admin3":"","latitude":"44.5434200","longitude":"23.8299400"},"admin1":{"geonameid":679134,"name":"jud. Dolj","admin1":"17"},"locations":[{"geonameid":685593,"name":"Balota de Jos","asciiname":"Balota de Jos","alternatenames":"","latitude":"44.5473000","longitude":"23.8147900","fclass":"P","fcode":"PPL","country":"RO","cc2":"","admin1":"17","admin2":"73371","admin3":"","admin4":"","population":383,"elevation":0,"gtopo30":197,"timezone":"Europe/Bucharest","moddate":"2013-04-21T00:00:00.000Z"},{"geonameid":685592,"name":"Balota de Sus","asciiname":"Balota de Sus","alternatenames":"","latitude":"44.5607400","longitude":"23.7934400","fclass":"P","fcode":"PPL","country":"RO","cc2":"","admin1":"17","admin2":"73371","admin3":"","admin4":"","population":411,"elevation":0,"gtopo30":210,"timezone":"Europe/Bucharest","moddate":"2013-04-21T00:00:00.000Z"},{"geonameid":683180,"name":"Bușteni","asciiname":"Busteni","alternatenames":"","latitude":"44.5323000","longitude":"23.8337000","fclass":"P","fcode":"PPL","country":"RO","cc2":"","admin1":"17","admin2":"73371","admin3":"","admin4":"","population":281,"elevation":0,"gtopo30":191,"timezone":"Europe/Bucharest","moddate":"2013-04-21T00:00:00.000Z"},{"geonameid":681649,"name":"Cioroeni","asciiname":"Cioroeni","alternatenames":"","latitude":"44.5500000","longitude":"23.7833300","fclass":"P","fcode":"PPLX","country":"RO","cc2":"","admin1":"17","admin2":"73371","admin3":"","admin4":"","population":0,"elevation":0,"gtopo30":242,"timezone":"Europe/Bucharest","moddate":"2016-02-07T00:00:00.000Z"},{"geonameid":677725,"name":"Gaia","asciiname":"Gaia","alternatenames":"","latitude":"44.5159100","longitude":"23.8461900","fclass":"P","fcode":"PPL","country":"RO","cc2":"","admin1":"17","admin2":"73371","admin3":"","admin4":"","population":441,"elevation":0,"gtopo30":179,"timezone":"Europe/Bucharest","moddate":"2013-04-21T00:00:00.000Z"},{"geonameid":677724,"name":"Gaia de Sus","asciiname":"Gaia de Sus","alternatenames":"","latitude":"44.5166700","longitude":"23.8500000","fclass":"P","fcode":"PPLX","country":"RO","cc2":"","admin1":"17","admin2":"73371","admin3":"","admin4":"","population":0,"elevation":0,"gtopo30":185,"timezone":"Europe/Bucharest","moddate":"2016-02-07T00:00:00.000Z"},{"geonameid":676518,"name":"Gura Mijlociului","asciiname":"Gura Mijlociului","alternatenames":"Gura Mijlociului,Gura-Mijlociul","latitude":"44.5333300","longitude":"23.8500000","fclass":"P","fcode":"PPLX","country":"RO","cc2":"","admin1":"17","admin2":"73371","admin3":"","admin4":"","population":0,"elevation":0,"gtopo30":191,"timezone":"Europe/Bucharest","moddate":"2016-02-07T00:00:00.000Z"},{"geonameid":672769,"name":"Motoc","asciiname":"Motoc","alternatenames":"Motoc,Motoci","latitude":"44.6333300","longitude":"23.8000000","fclass":"P","fcode":"PPLX","country":"RO","cc2":"","admin1":"17","admin2":"73371","admin3":"","admin4":"","population":0,"elevation":0,"gtopo30":287,"timezone":"Europe/Bucharest","moddate":"2016-02-07T00:00:00.000Z"},{"geonameid":672619,"name":"Murgași","asciiname":"Murgasi","alternatenames":"Murgasi,Murgasu,Murgaşi,Murgaşu,Murgosul,Murgoşul","latitude":"44.4996800","longitude":"23.8669800","fclass":"P","fcode":"PPLA2","country":"RO","cc2":"RO","admin1":"17","admin2":"73371","admin3":"","admin4":"","population":659,"elevation":0,"gtopo30":178,"timezone":"Europe/Bucharest","moddate":"2013-04-21T00:00:00.000Z"},{"geonameid":670882,"name":"Picăturile","asciiname":"Picaturile","alternatenames":"","latitude":"44.4888500","longitude":"23.8819500","fclass":"P","fcode":"PPL","country":"RO","cc2":"","admin1":"17","admin2":"73371","admin3":"","admin4":"","population":181,"elevation":0,"gtopo30":174,"timezone":"Europe/Bucharest","moddate":"2013-04-21T00:00:00.000Z"},{"geonameid":668436,"name":"Rupturile","asciiname":"Rupturile","alternatenames":"","latitude":"44.6021500","longitude":"23.8133000","fclass":"P","fcode":"PPL","country":"RO","cc2":"","admin1":"17","admin2":"73371","admin3":"","admin4":"","population":170,"elevation":0,"gtopo30":275,"timezone":"Europe/Bucharest","moddate":"2013-04-21T00:00:00.000Z"},{"geonameid":663072,"name":"Velesti","asciiname":"Velesti","alternatenames":"","latitude":"44.6004500","longitude":"23.7891900","fclass":"P","fcode":"PPL","country":"RO","cc2":"","admin1":"17","admin2":"73371","admin3":"","admin4":"","population":528,"elevation":0,"gtopo30":277,"timezone":"Europe/Bucharest","moddate":"2013-04-20T00:00:00.000Z"}],"admin3":[],"alternateNames":[]},"__N_SSG":true}