{"pageProps":{"locale":"ro","admin2":{"geonameid":677480,"name":"Comuna Ghelari","country":"RO","admin1":"21","admin2":"86883","admin3":"","latitude":"45.7181000","longitude":"22.7741400"},"admin1":{"geonameid":675917,"name":"Hunedoara","admin1":"21"},"locations":[{"geonameid":677481,"name":"Ghelari","asciiname":"Ghelari","alternatenames":"Ghelar,Gyalar,Gyalár","latitude":"45.7166700","longitude":"22.7833300","fclass":"P","fcode":"PPLA2","country":"RO","cc2":"","admin1":"21","admin2":"86883","admin3":"","admin4":"","population":1670,"elevation":0,"gtopo30":630,"timezone":"Europe/Bucharest","moddate":"2015-12-04T00:00:00.000Z"},{"geonameid":676851,"name":"Govăjdia","asciiname":"Govajdia","alternatenames":"Govajdia,Govasdia,Govăjdia,Govăşdia","latitude":"45.7406900","longitude":"22.7959900","fclass":"P","fcode":"PPL","country":"RO","cc2":"RO","admin1":"21","admin2":"86883","admin3":"","admin4":"","population":177,"elevation":0,"gtopo30":425,"timezone":"Europe/Bucharest","moddate":"2013-04-21T00:00:00.000Z"},{"geonameid":670473,"name":"Plop","asciiname":"Plop","alternatenames":"","latitude":"45.7202700","longitude":"22.7669800","fclass":"P","fcode":"PPL","country":"RO","cc2":"","admin1":"21","admin2":"86883","admin3":"","admin4":"","population":44,"elevation":0,"gtopo30":741,"timezone":"Europe/Bucharest","moddate":"2013-04-21T00:00:00.000Z"},{"geonameid":668537,"name":"Ruda","asciiname":"Ruda","alternatenames":"","latitude":"45.7000900","longitude":"22.7460500","fclass":"P","fcode":"PPL","country":"RO","cc2":"","admin1":"21","admin2":"86883","admin3":"","admin4":"","population":260,"elevation":0,"gtopo30":842,"timezone":"Europe/Bucharest","moddate":"2013-04-21T00:00:00.000Z"}],"admin3":[],"alternateNames":[]},"__N_SSG":true}