{"pageProps":{"locale":"ro","admin2":{"geonameid":665589,"name":"Comuna Tãlpaş","country":"RO","admin1":"17","admin2":"74956","admin3":"","latitude":"44.6825600","longitude":"23.7439100"},"admin1":{"geonameid":679134,"name":"jud. Dolj","admin1":"17"},"locations":[{"geonameid":672965,"name":"Moflești","asciiname":"Moflesti","alternatenames":"","latitude":"44.6594300","longitude":"23.7518200","fclass":"P","fcode":"PPL","country":"RO","cc2":"","admin1":"17","admin2":"74956","admin3":"","admin4":"","population":380,"elevation":0,"gtopo30":211,"timezone":"Europe/Bucharest","moddate":"2013-04-21T00:00:00.000Z"},{"geonameid":672197,"name":"Nistoi","asciiname":"Nistoi","alternatenames":"Nistoiu,Nistoiul","latitude":"44.6998900","longitude":"23.7333300","fclass":"P","fcode":"PPL","country":"RO","cc2":"RO","admin1":"17","admin2":"74956","admin3":"","admin4":"","population":205,"elevation":0,"gtopo30":242,"timezone":"Europe/Bucharest","moddate":"2013-04-21T00:00:00.000Z"},{"geonameid":669445,"name":"Puținei","asciiname":"Putinei","alternatenames":"Putinei,Putineiul,Puţinei","latitude":"44.6688900","longitude":"23.7394000","fclass":"P","fcode":"PPL","country":"RO","cc2":"RO","admin1":"17","admin2":"74956","admin3":"","admin4":"","population":141,"elevation":0,"gtopo30":202,"timezone":"Europe/Bucharest","moddate":"2013-04-21T00:00:00.000Z"},{"geonameid":666596,"name":"Soceni","asciiname":"Soceni","alternatenames":"","latitude":"44.7023300","longitude":"23.7494800","fclass":"P","fcode":"PPL","country":"RO","cc2":"","admin1":"17","admin2":"74956","admin3":"","admin4":"","population":471,"elevation":0,"gtopo30":219,"timezone":"Europe/Bucharest","moddate":"2013-04-21T00:00:00.000Z"},{"geonameid":665590,"name":"Tălpaș","asciiname":"Talpas","alternatenames":"Talpasiu,Talpasu,Talpasul,Tălpasiu,Tălpaşu,Tălpaşul","latitude":"44.6822700","longitude":"23.7455300","fclass":"P","fcode":"PPLA2","country":"RO","cc2":"RO","admin1":"17","admin2":"74956","admin3":"","admin4":"","population":308,"elevation":0,"gtopo30":223,"timezone":"Europe/Bucharest","moddate":"2013-04-21T00:00:00.000Z"}],"admin3":[],"alternateNames":[]},"__N_SSG":true}