{"pageProps":{"locale":"ro","admin2":{"geonameid":681727,"name":"Comuna Ciochina","country":"RO","admin1":"22","admin2":"93101","admin3":"","latitude":"44.5752400","longitude":"27.0247500"},"admin1":{"geonameid":675848,"name":"Ialomiţa","admin1":"22"},"locations":[{"geonameid":684200,"name":"Bordușelu","asciiname":"Borduselu","alternatenames":"Borduselu,Borduselu de Sus,Borduselul-de Sus,Borduşelu,Borduşelu de Sus,Borduşelul-de Sus","latitude":"44.5563200","longitude":"27.0425200","fclass":"P","fcode":"PPL","country":"RO","cc2":"RO","admin1":"22","admin2":"93101","admin3":"","admin4":"","population":920,"elevation":0,"gtopo30":32,"timezone":"Europe/Bucharest","moddate":"2013-04-21T00:00:00.000Z"},{"geonameid":684198,"name":"Borduşelu de Jos","asciiname":"Borduselu de Jos","alternatenames":"Borduselu,Borduselu de Jos,Borduselul,Borduselul-de-Jos,Borduşelu,Borduşelu de Jos,Borduşelul,Borduşelul-de-Jos","latitude":"44.5500000","longitude":"27.0500000","fclass":"P","fcode":"PPL","country":"RO","cc2":"","admin1":"22","admin2":"93101","admin3":"","admin4":"","population":0,"elevation":0,"gtopo30":64,"timezone":"Europe/Bucharest","moddate":"2016-02-07T00:00:00.000Z"},{"geonameid":681728,"name":"Ciochina","asciiname":"Ciochina","alternatenames":"Ciochina","latitude":"44.5833300","longitude":"27.0666700","fclass":"P","fcode":"PPLA2","country":"RO","cc2":"","admin1":"22","admin2":"93101","admin3":"","admin4":"","population":3573,"elevation":0,"gtopo30":34,"timezone":"Europe/Bucharest","moddate":"2012-06-12T00:00:00.000Z"},{"geonameid":671716,"name":"Orezu","asciiname":"Orezu","alternatenames":"Orezu,Orezul","latitude":"44.5849500","longitude":"26.9945000","fclass":"P","fcode":"PPL","country":"RO","cc2":"RO","admin1":"22","admin2":"93101","admin3":"","admin4":"","population":705,"elevation":0,"gtopo30":35,"timezone":"Europe/Bucharest","moddate":"2013-04-21T00:00:00.000Z"},{"geonameid":670864,"name":"Piersica","asciiname":"Piersica","alternatenames":"Persica,Piersica","latitude":"44.5655100","longitude":"27.0022600","fclass":"P","fcode":"PPL","country":"RO","cc2":"RO","admin1":"22","admin2":"93101","admin3":"","admin4":"","population":133,"elevation":0,"gtopo30":33,"timezone":"Europe/Bucharest","moddate":"2013-04-21T00:00:00.000Z"}],"admin3":[],"alternateNames":[]},"__N_SSG":true}