{"pageProps":{"locale":"ro","admin2":{"geonameid":665913,"name":"Comuna Strunga","country":"RO","admin1":"23","admin2":"99209","admin3":"","latitude":"47.1602100","longitude":"26.9440000"},"admin1":{"geonameid":675809,"name":"Iaşi","admin1":"23"},"locations":[{"geonameid":683779,"name":"Brătulești","asciiname":"Bratulesti","alternatenames":"","latitude":"47.1256700","longitude":"26.9694300","fclass":"P","fcode":"PPL","country":"RO","cc2":"","admin1":"23","admin2":"99209","admin3":"","admin4":"","population":533,"elevation":0,"gtopo30":237,"timezone":"Europe/Bucharest","moddate":"2013-04-21T00:00:00.000Z"},{"geonameid":683777,"name":"Brătuleşti-Fedeleşeni","asciiname":"Bratulesti-Fedeleseni","alternatenames":"","latitude":"47.1333300","longitude":"26.9666700","fclass":"P","fcode":"PPLX","country":"RO","cc2":"","admin1":"23","admin2":"99209","admin3":"","admin4":"","population":0,"elevation":0,"gtopo30":270,"timezone":"Europe/Bucharest","moddate":"2016-02-07T00:00:00.000Z"},{"geonameid":680128,"name":"Crivești","asciiname":"Crivesti","alternatenames":"","latitude":"47.1989800","longitude":"26.9304700","fclass":"P","fcode":"PPL","country":"RO","cc2":"","admin1":"23","admin2":"99209","admin3":"","admin4":"","population":290,"elevation":0,"gtopo30":139,"timezone":"Europe/Bucharest","moddate":"2013-04-21T00:00:00.000Z"},{"geonameid":680034,"name":"Cucova","asciiname":"Cucova","alternatenames":"","latitude":"47.1605900","longitude":"26.9169600","fclass":"P","fcode":"PPL","country":"RO","cc2":"","admin1":"23","admin2":"99209","admin3":"","admin4":"","population":152,"elevation":0,"gtopo30":275,"timezone":"Europe/Bucharest","moddate":"2013-04-21T00:00:00.000Z"},{"geonameid":678428,"name":"Fărcășeni","asciiname":"Farcaseni","alternatenames":"Farcasani,Farcaseni,Fărcăşani,Fărcăşeni","latitude":"47.1598700","longitude":"26.8961500","fclass":"P","fcode":"PPL","country":"RO","cc2":"RO","admin1":"23","admin2":"99209","admin3":"","admin4":"","population":1770,"elevation":0,"gtopo30":244,"timezone":"Europe/Bucharest","moddate":"2013-04-21T00:00:00.000Z"},{"geonameid":678378,"name":"Fedeleșeni","asciiname":"Fedeleseni","alternatenames":"","latitude":"47.1230100","longitude":"26.9784600","fclass":"P","fcode":"PPL","country":"RO","cc2":"","admin1":"23","admin2":"99209","admin3":"","admin4":"","population":372,"elevation":0,"gtopo30":260,"timezone":"Europe/Bucharest","moddate":"2013-04-21T00:00:00.000Z"},{"geonameid":677573,"name":"Gura Văii","asciiname":"Gura Vaii","alternatenames":"Gaureaua,Găureaua","latitude":"47.1833300","longitude":"26.9333300","fclass":"P","fcode":"PPL","country":"RO","cc2":"","admin1":"23","admin2":"99209","admin3":"","admin4":"","population":73,"elevation":0,"gtopo30":238,"timezone":"Europe/Bucharest","moddate":"2015-12-07T00:00:00.000Z"},{"geonameid":676413,"name":"Hăbășești","asciiname":"Habasesti","alternatenames":"","latitude":"47.1547000","longitude":"26.9603700","fclass":"P","fcode":"PPL","country":"RO","cc2":"","admin1":"23","admin2":"99209","admin3":"","admin4":"","population":481,"elevation":0,"gtopo30":293,"timezone":"Europe/Bucharest","moddate":"2013-04-21T00:00:00.000Z"},{"geonameid":675184,"name":"Jora","asciiname":"Jora","alternatenames":"","latitude":"47.2000000","longitude":"26.9666700","fclass":"P","fcode":"PPL","country":"RO","cc2":"","admin1":"23","admin2":"99209","admin3":"","admin4":"","population":0,"elevation":0,"gtopo30":117,"timezone":"Europe/Bucharest","moddate":"2016-02-07T00:00:00.000Z"},{"geonameid":665914,"name":"Strunga","asciiname":"Strunga","alternatenames":"Strunga","latitude":"47.1666700","longitude":"26.9833300","fclass":"P","fcode":"PPLA2","country":"RO","cc2":"","admin1":"23","admin2":"99209","admin3":"","admin4":"","population":4508,"elevation":0,"gtopo30":171,"timezone":"Europe/Bucharest","moddate":"2012-06-12T00:00:00.000Z"}],"admin3":[],"alternateNames":[]},"__N_SSG":true}