{"pageProps":{"locale":"ro","admin2":{"geonameid":8305938,"name":"Comuna Conop","country":"RO","admin1":"02","admin2":"10453","admin3":"","latitude":"46.1040100","longitude":"21.8804700"},"admin1":{"geonameid":686253,"name":"Arad","admin1":"02"},"locations":[{"geonameid":685124,"name":"Belotinț","asciiname":"Belotint","alternatenames":"Belethaza,Beletháza,Bellotincz,Belotincz,Belotint,Belotinţ","latitude":"46.0767000","longitude":"21.9383900","fclass":"P","fcode":"PPL","country":"RO","cc2":"RO","admin1":"02","admin2":"10453","admin3":"","admin4":"","population":385,"elevation":0,"gtopo30":141,"timezone":"Europe/Bucharest","moddate":"2013-04-21T00:00:00.000Z"},{"geonameid":682207,"name":"Chelmac","asciiname":"Chelmac","alternatenames":"Chelmac,Eperjes,Kelmak,Kelmák,Maroseperjes","latitude":"46.0818000","longitude":"21.8846300","fclass":"P","fcode":"PPL","country":"RO","cc2":"RO","admin1":"02","admin2":"10453","admin3":"","admin4":"","population":459,"elevation":0,"gtopo30":136,"timezone":"Europe/Bucharest","moddate":"2013-04-21T00:00:00.000Z"},{"geonameid":680965,"name":"Conop","asciiname":"Conop","alternatenames":"Conop,Konop","latitude":"46.1018600","longitude":"21.8797000","fclass":"P","fcode":"PPLA2","country":"RO","cc2":"","admin1":"02","admin2":"10453","admin3":"","admin4":"","population":2296,"elevation":0,"gtopo30":135,"timezone":"Europe/Bucharest","moddate":"2012-06-12T00:00:00.000Z"},{"geonameid":673293,"name":"Milova","asciiname":"Milova","alternatenames":"","latitude":"46.1059400","longitude":"21.8019900","fclass":"P","fcode":"PPL","country":"RO","cc2":"","admin1":"02","admin2":"10453","admin3":"","admin4":"","population":560,"elevation":0,"gtopo30":148,"timezone":"Europe/Bucharest","moddate":"2013-04-21T00:00:00.000Z"},{"geonameid":671961,"name":"Odvoș","asciiname":"Odvos","alternatenames":"Odvas,Odvos,Odvoş","latitude":"46.1121500","longitude":"21.8239600","fclass":"P","fcode":"PPL","country":"RO","cc2":"RO","admin1":"02","admin2":"10453","admin3":"","admin4":"","population":493,"elevation":0,"gtopo30":147,"timezone":"Europe/Bucharest","moddate":"2013-04-21T00:00:00.000Z"}],"admin3":[],"alternateNames":[]},"__N_SSG":true}