{"pageProps":{"locale":"ro","admin2":{"geonameid":682944,"name":"Comuna Călineşti","country":"RO","admin1":"03","admin2":"15108","admin3":"","latitude":"44.8565000","longitude":"25.0196800"},"admin1":{"geonameid":686192,"name":"Argeş","admin1":"03"},"locations":[{"geonameid":685901,"name":"Bădeşti","asciiname":"Badesti","alternatenames":"","latitude":"44.8333300","longitude":"25.0166700","fclass":"P","fcode":"PPLX","country":"RO","cc2":"","admin1":"03","admin2":"15108","admin3":"","admin4":"","population":0,"elevation":0,"gtopo30":276,"timezone":"Europe/Bucharest","moddate":"2016-02-07T00:00:00.000Z"},{"geonameid":682958,"name":"Călineşti","asciiname":"Calinesti","alternatenames":"Calinesti,Calinosti,Călineşti,Călinoşti","latitude":"44.8166700","longitude":"25.0500000","fclass":"P","fcode":"PPLA2","country":"RO","cc2":"","admin1":"03","admin2":"15108","admin3":"","admin4":"","population":10419,"elevation":0,"gtopo30":240,"timezone":"Europe/Bucharest","moddate":"2012-06-12T00:00:00.000Z"},{"geonameid":681527,"name":"Cârstieni","asciiname":"Carstieni","alternatenames":"Carstieni,Cirstieni,Cârstieni,Cîrstieni","latitude":"44.8832000","longitude":"25.0300900","fclass":"P","fcode":"PPL","country":"RO","cc2":"RO","admin1":"03","admin2":"15108","admin3":"","admin4":"","population":818,"elevation":0,"gtopo30":292,"timezone":"Europe/Bucharest","moddate":"2013-04-21T00:00:00.000Z"},{"geonameid":682527,"name":"Cătunu din Câmp","asciiname":"Catunu din Camp","alternatenames":"Catunu din Camp,Catunu din Cimp,Cătunu din Câmp,Cătunu din Cîmp","latitude":"44.8500000","longitude":"24.9666700","fclass":"P","fcode":"PPLX","country":"RO","cc2":"","admin1":"03","admin2":"15108","admin3":"","admin4":"","population":0,"elevation":0,"gtopo30":254,"timezone":"Europe/Bucharest","moddate":"2020-03-08T00:00:00.000Z"},{"geonameid":681745,"name":"Ciocănești","asciiname":"Ciocanesti","alternatenames":"","latitude":"44.8520600","longitude":"24.9696600","fclass":"P","fcode":"PPL","country":"RO","cc2":"","admin1":"03","admin2":"15108","admin3":"","admin4":"","population":863,"elevation":0,"gtopo30":267,"timezone":"Europe/Bucharest","moddate":"2013-04-21T00:00:00.000Z"},{"geonameid":678961,"name":"Drăghiceşti","asciiname":"Draghicesti","alternatenames":"Draghicesti,Draghicestii,Drăghiceşti,Drăghiceştii","latitude":"44.8333300","longitude":"25.0166700","fclass":"P","fcode":"PPLX","country":"RO","cc2":"","admin1":"03","admin2":"15108","admin3":"","admin4":"","population":0,"elevation":0,"gtopo30":276,"timezone":"Europe/Bucharest","moddate":"2016-02-07T00:00:00.000Z"},{"geonameid":677031,"name":"Glodu","asciiname":"Glodu","alternatenames":"","latitude":"44.8484900","longitude":"25.0422600","fclass":"P","fcode":"PPL","country":"RO","cc2":"","admin1":"03","admin2":"15108","admin3":"","admin4":"","population":382,"elevation":0,"gtopo30":271,"timezone":"Europe/Bucharest","moddate":"2013-04-21T00:00:00.000Z"},{"geonameid":676912,"name":"Gorganu","asciiname":"Gorganu","alternatenames":"","latitude":"44.8424100","longitude":"25.0383800","fclass":"P","fcode":"PPL","country":"RO","cc2":"","admin1":"03","admin2":"15108","admin3":"","admin4":"","population":1087,"elevation":0,"gtopo30":267,"timezone":"Europe/Bucharest","moddate":"2013-04-21T00:00:00.000Z"},{"geonameid":676911,"name":"Gorganu de Jos","asciiname":"Gorganu de Jos","alternatenames":"","latitude":"44.8500000","longitude":"25.0333300","fclass":"P","fcode":"PPLX","country":"RO","cc2":"","admin1":"03","admin2":"15108","admin3":"","admin4":"","population":0,"elevation":0,"gtopo30":285,"timezone":"Europe/Bucharest","moddate":"2016-02-07T00:00:00.000Z"},{"geonameid":676910,"name":"Gorganu de Sus","asciiname":"Gorganu de Sus","alternatenames":"Gorganu de Sus,Gorganul de Sus","latitude":"44.8500000","longitude":"25.0333300","fclass":"P","fcode":"PPLX","country":"RO","cc2":"","admin1":"03","admin2":"15108","admin3":"","admin4":"","population":0,"elevation":0,"gtopo30":285,"timezone":"Europe/Bucharest","moddate":"2016-02-07T00:00:00.000Z"},{"geonameid":669228,"name":"Radu Negru","asciiname":"Radu Negru","alternatenames":"Gusati,Guşaţi,Radu Negru","latitude":"44.8623600","longitude":"25.0099200","fclass":"P","fcode":"PPL","country":"RO","cc2":"RO","admin1":"03","admin2":"15108","admin3":"","admin4":"","population":632,"elevation":0,"gtopo30":295,"timezone":"Europe/Bucharest","moddate":"2013-04-21T00:00:00.000Z"},{"geonameid":668871,"name":"Râncăciov","asciiname":"Rancaciov","alternatenames":"Rancaciov,Rincaciov,Râncaciov,Rîncăciov","latitude":"44.8542600","longitude":"25.0383900","fclass":"P","fcode":"PPL","country":"RO","cc2":"RO","admin1":"03","admin2":"15108","admin3":"","admin4":"","population":406,"elevation":0,"gtopo30":271,"timezone":"Europe/Bucharest","moddate":"2013-04-21T00:00:00.000Z"},{"geonameid":668526,"name":"Rudarii din Vale","asciiname":"Rudarii din Vale","alternatenames":"","latitude":"44.8666700","longitude":"25.0500000","fclass":"P","fcode":"PPL","country":"RO","cc2":"","admin1":"03","admin2":"15108","admin3":"","admin4":"","population":0,"elevation":0,"gtopo30":325,"timezone":"Europe/Bucharest","moddate":"2016-02-07T00:00:00.000Z"},{"geonameid":664462,"name":"Turculeşti","asciiname":"Turculesti","alternatenames":"","latitude":"44.8333300","longitude":"25.0500000","fclass":"P","fcode":"PPLX","country":"RO","cc2":"","admin1":"03","admin2":"15108","admin3":"","admin4":"","population":0,"elevation":0,"gtopo30":300,"timezone":"Europe/Bucharest","moddate":"2016-02-07T00:00:00.000Z"},{"geonameid":664373,"name":"Udeni-Zăvoi","asciiname":"Udeni-Zavoi","alternatenames":"Udeni,Udeni-Zavoi,Udeni-Zăvoi,Udenii","latitude":"44.8286400","longitude":"24.9986100","fclass":"P","fcode":"PPL","country":"RO","cc2":"RO","admin1":"03","admin2":"15108","admin3":"","admin4":"","population":560,"elevation":0,"gtopo30":250,"timezone":"Europe/Bucharest","moddate":"2013-04-21T00:00:00.000Z"},{"geonameid":664137,"name":"Urlucea","asciiname":"Urlucea","alternatenames":"","latitude":"44.8672100","longitude":"25.0323600","fclass":"P","fcode":"PPL","country":"RO","cc2":"","admin1":"03","admin2":"15108","admin3":"","admin4":"","population":797,"elevation":0,"gtopo30":278,"timezone":"Europe/Bucharest","moddate":"2013-04-20T00:00:00.000Z"},{"geonameid":663821,"name":"Valea Corbului","asciiname":"Valea Corbului","alternatenames":"Rudarii din Deal,Valea Corbului","latitude":"44.9114100","longitude":"25.0347900","fclass":"P","fcode":"PPL","country":"RO","cc2":"RO","admin1":"03","admin2":"15108","admin3":"","admin4":"","population":764,"elevation":0,"gtopo30":326,"timezone":"Europe/Bucharest","moddate":"2013-04-20T00:00:00.000Z"},{"geonameid":663249,"name":"Văleni-Podgoria","asciiname":"Valeni-Podgoria","alternatenames":"Valdeni-Podgoria,Valeni,Valeni-Podgoria,Văldeni-Podgoria,Văleni-Podgoria","latitude":"44.8575500","longitude":"24.9893000","fclass":"P","fcode":"PPL","country":"RO","cc2":"RO","admin1":"03","admin2":"15108","admin3":"","admin4":"","population":1069,"elevation":0,"gtopo30":283,"timezone":"Europe/Bucharest","moddate":"2013-04-20T00:00:00.000Z"},{"geonameid":662445,"name":"Vrănești","asciiname":"Vranesti","alternatenames":"","latitude":"44.8459500","longitude":"25.0071600","fclass":"P","fcode":"PPL","country":"RO","cc2":"","admin1":"03","admin2":"15108","admin3":"","admin4":"","population":1218,"elevation":0,"gtopo30":273,"timezone":"Europe/Bucharest","moddate":"2013-04-20T00:00:00.000Z"}],"admin3":[],"alternateNames":[]},"__N_SSG":true}