{"pageProps":{"locale":"ro","admin2":{"geonameid":666839,"name":"Comuna Sârbi","country":"RO","admin1":"05","admin2":"31128","admin3":"","latitude":"47.1903000","longitude":"22.1378900"},"admin1":{"geonameid":684878,"name":"Bihor","admin1":"05"},"locations":[{"geonameid":686439,"name":"Almașu Mic","asciiname":"Almasu Mic","alternatenames":"","latitude":"47.1713100","longitude":"22.1351800","fclass":"P","fcode":"PPL","country":"RO","cc2":"","admin1":"05","admin2":"31128","admin3":"","admin4":"","population":209,"elevation":0,"gtopo30":163,"timezone":"Europe/Bucharest","moddate":"2013-04-21T00:00:00.000Z"},{"geonameid":683196,"name":"Burzuc","asciiname":"Burzuc","alternatenames":"","latitude":"47.1555200","longitude":"22.1709600","fclass":"P","fcode":"PPL","country":"RO","cc2":"","admin1":"05","admin2":"31128","admin3":"","admin4":"","population":1166,"elevation":0,"gtopo30":161,"timezone":"Europe/Bucharest","moddate":"2013-04-21T00:00:00.000Z"},{"geonameid":682086,"name":"Chioag","asciiname":"Chioag","alternatenames":"","latitude":"47.1772300","longitude":"22.1533800","fclass":"P","fcode":"PPL","country":"RO","cc2":"","admin1":"05","admin2":"31128","admin3":"","admin4":"","population":286,"elevation":0,"gtopo30":170,"timezone":"Europe/Bucharest","moddate":"2013-04-21T00:00:00.000Z"},{"geonameid":678372,"name":"Fegernic","asciiname":"Fegernic","alternatenames":"Fegernic,Fegiernic","latitude":"47.2036700","longitude":"22.1285800","fclass":"P","fcode":"PPL","country":"RO","cc2":"RO","admin1":"05","admin2":"31128","admin3":"","admin4":"","population":381,"elevation":0,"gtopo30":141,"timezone":"Europe/Bucharest","moddate":"2013-04-21T00:00:00.000Z"},{"geonameid":678371,"name":"Fegernicu Nou","asciiname":"Fegernicu Nou","alternatenames":"Fegernicu Nou,Fegiernic Nou","latitude":"47.2203600","longitude":"22.1022700","fclass":"P","fcode":"PPL","country":"RO","cc2":"RO","admin1":"05","admin2":"31128","admin3":"","admin4":"","population":59,"elevation":0,"gtopo30":120,"timezone":"Europe/Bucharest","moddate":"2013-04-21T00:00:00.000Z"},{"geonameid":666846,"name":"Sârbi","asciiname":"Sarbi","alternatenames":"Sarbi,Sirbi,Sârbi,Sîrbi","latitude":"47.1931500","longitude":"22.1221500","fclass":"P","fcode":"PPLA2","country":"RO","cc2":"RO","admin1":"05","admin2":"31128","admin3":"","admin4":"","population":1240,"elevation":0,"gtopo30":134,"timezone":"Europe/Bucharest","moddate":"2013-04-21T00:00:00.000Z"},{"geonameid":668004,"name":"Sarcău","asciiname":"Sarcau","alternatenames":"","latitude":"47.2108300","longitude":"22.1527100","fclass":"P","fcode":"PPL","country":"RO","cc2":"","admin1":"05","admin2":"31128","admin3":"","admin4":"","population":125,"elevation":0,"gtopo30":159,"timezone":"Europe/Bucharest","moddate":"2013-04-21T00:00:00.000Z"}],"admin3":[],"alternateNames":[]},"__N_SSG":true}