{"pageProps":{"locale":"ro","admin2":{"geonameid":673176,"name":"Comuna Mintiu Gherlii","country":"RO","admin1":"13","admin2":"58552","admin3":"","latitude":"47.0732300","longitude":"23.9273100"},"admin1":{"geonameid":681291,"name":"Cluj","admin1":"13"},"locations":[{"geonameid":683277,"name":"Bunești","asciiname":"Bunesti","alternatenames":"","latitude":"47.0585500","longitude":"23.8806500","fclass":"P","fcode":"PPL","country":"RO","cc2":"","admin1":"13","admin2":"58552","admin3":"","admin4":"","population":903,"elevation":0,"gtopo30":283,"timezone":"Europe/Bucharest","moddate":"2013-04-21T00:00:00.000Z"},{"geonameid":673177,"name":"Mintiu Gherlii","asciiname":"Mintiu Gherlii","alternatenames":"Mintiu Gherlii,Mintiul-Gherlei","latitude":"47.0500000","longitude":"23.9500000","fclass":"P","fcode":"PPLA2","country":"RO","cc2":"","admin1":"13","admin2":"58552","admin3":"","admin4":"","population":3806,"elevation":0,"gtopo30":378,"timezone":"Europe/Bucharest","moddate":"2012-06-12T00:00:00.000Z"},{"geonameid":672223,"name":"Nima","asciiname":"Nima","alternatenames":"","latitude":"47.0766000","longitude":"23.8687900","fclass":"P","fcode":"PPL","country":"RO","cc2":"","admin1":"13","admin2":"58552","admin3":"","admin4":"","population":773,"elevation":0,"gtopo30":287,"timezone":"Europe/Bucharest","moddate":"2013-04-21T00:00:00.000Z"},{"geonameid":672221,"name":"Nima-Cătun","asciiname":"Nima-Catun","alternatenames":"","latitude":"47.0666700","longitude":"23.8666700","fclass":"P","fcode":"PPLX","country":"RO","cc2":"","admin1":"13","admin2":"58552","admin3":"","admin4":"","population":0,"elevation":0,"gtopo30":445,"timezone":"Europe/Bucharest","moddate":"2016-02-07T00:00:00.000Z"},{"geonameid":671508,"name":"Pădurenii","asciiname":"Padurenii","alternatenames":"Padurenii,Pădurenii,Top,Ţop","latitude":"47.0707600","longitude":"24.0002500","fclass":"P","fcode":"PPL","country":"RO","cc2":"RO","admin1":"13","admin2":"58552","admin3":"","admin4":"","population":152,"elevation":0,"gtopo30":429,"timezone":"Europe/Bucharest","moddate":"2013-04-21T00:00:00.000Z"},{"geonameid":670995,"name":"Petrești","asciiname":"Petresti","alternatenames":"","latitude":"47.0778500","longitude":"23.9383300","fclass":"P","fcode":"PPL","country":"RO","cc2":"","admin1":"13","admin2":"58552","admin3":"","admin4":"","population":252,"elevation":0,"gtopo30":252,"timezone":"Europe/Bucharest","moddate":"2013-04-21T00:00:00.000Z"},{"geonameid":668234,"name":"Salatiu","asciiname":"Salatiu","alternatenames":"Salatiu,Salatuil","latitude":"47.1001800","longitude":"23.9304900","fclass":"P","fcode":"PPL","country":"RO","cc2":"RO","admin1":"13","admin2":"58552","admin3":"","admin4":"","population":221,"elevation":0,"gtopo30":252,"timezone":"Europe/Bucharest","moddate":"2013-04-21T00:00:00.000Z"}],"admin3":[],"alternateNames":[]},"__N_SSG":true}