{"pageProps":{"locale":"ro","admin2":{"geonameid":665049,"name":"Comuna Ţinteşti","country":"RO","admin1":"11","admin2":"49849","admin3":"","latitude":"45.0728000","longitude":"26.8578600"},"admin1":{"geonameid":683121,"name":"Buzău","admin1":"11"},"locations":[{"geonameid":673654,"name":"Maxenu","asciiname":"Maxenu","alternatenames":"Maxenu,Maxenul","latitude":"45.0516200","longitude":"26.8549800","fclass":"P","fcode":"PPL","country":"RO","cc2":"RO","admin1":"11","admin2":"49849","admin3":"","admin4":"","population":2042,"elevation":0,"gtopo30":73,"timezone":"Europe/Bucharest","moddate":"2013-04-21T00:00:00.000Z"},{"geonameid":671993,"name":"Odaia Banului","asciiname":"Odaia Banului","alternatenames":"","latitude":"45.0776700","longitude":"26.8313400","fclass":"P","fcode":"PPL","country":"RO","cc2":"","admin1":"11","admin2":"49849","admin3":"","admin4":"","population":110,"elevation":0,"gtopo30":78,"timezone":"Europe/Bucharest","moddate":"2013-04-21T00:00:00.000Z"},{"geonameid":670166,"name":"Pogonele","asciiname":"Pogonele","alternatenames":"Pogoanele,Tintesti-Pogoanele,Ţinteşti-Pogoanele,Погоанеле","latitude":"45.0864500","longitude":"26.8645400","fclass":"P","fcode":"PPL","country":"RO","cc2":"RO","admin1":"11","admin2":"49849","admin3":"","admin4":"","population":1518,"elevation":0,"gtopo30":81,"timezone":"Europe/Bucharest","moddate":"2013-04-21T00:00:00.000Z"},{"geonameid":665050,"name":"Ţinteşti","asciiname":"Tintesti","alternatenames":"Tintesti,Ţinteşti","latitude":"45.0666700","longitude":"26.8666700","fclass":"P","fcode":"PPLA2","country":"RO","cc2":"","admin1":"11","admin2":"49849","admin3":"","admin4":"","population":4475,"elevation":0,"gtopo30":73,"timezone":"Europe/Bucharest","moddate":"2012-06-12T00:00:00.000Z"}],"admin3":[],"alternateNames":[]},"__N_SSG":true}