{"pageProps":{"locale":"ro","admin2":{"geonameid":670776,"name":"Comuna Pipirig","country":"RO","admin1":"28","admin2":"123521","admin3":"","latitude":"47.2280000","longitude":"26.0848300"},"admin1":{"geonameid":672460,"name":"Neamţ","admin1":"28"},"locations":[{"geonameid":686640,"name":"Agafeni","asciiname":"Agafeni","alternatenames":"Agafeni,Agapieni","latitude":"47.2000000","longitude":"26.0000000","fclass":"P","fcode":"PPLX","country":"RO","cc2":"","admin1":"28","admin2":"123521","admin3":"","admin4":"","population":0,"elevation":0,"gtopo30":799,"timezone":"Europe/Bucharest","moddate":"2016-02-07T00:00:00.000Z"},{"geonameid":684522,"name":"Boboiești","asciiname":"Boboiesti","alternatenames":"","latitude":"47.2537000","longitude":"26.0374900","fclass":"P","fcode":"PPL","country":"RO","cc2":"","admin1":"28","admin2":"123521","admin3":"","admin4":"","population":1621,"elevation":0,"gtopo30":667,"timezone":"Europe/Bucharest","moddate":"2013-04-21T00:00:00.000Z"},{"geonameid":683186,"name":"Busmeni","asciiname":"Busmeni","alternatenames":"","latitude":"47.2333300","longitude":"26.0666700","fclass":"P","fcode":"PPLX","country":"RO","cc2":"","admin1":"28","admin2":"123521","admin3":"","admin4":"","population":0,"elevation":0,"gtopo30":707,"timezone":"Europe/Bucharest","moddate":"2016-02-07T00:00:00.000Z"},{"geonameid":679981,"name":"Cujbeni","asciiname":"Cujbeni","alternatenames":"","latitude":"47.2500000","longitude":"26.0500000","fclass":"P","fcode":"PPLX","country":"RO","cc2":"","admin1":"28","admin2":"123521","admin3":"","admin4":"","population":0,"elevation":0,"gtopo30":642,"timezone":"Europe/Bucharest","moddate":"2016-02-07T00:00:00.000Z"},{"geonameid":679141,"name":"Dolhești","asciiname":"Dolhesti","alternatenames":"","latitude":"47.2118900","longitude":"26.0673800","fclass":"P","fcode":"PPL","country":"RO","cc2":"","admin1":"28","admin2":"123521","admin3":"","admin4":"","population":1435,"elevation":0,"gtopo30":624,"timezone":"Europe/Bucharest","moddate":"2013-04-21T00:00:00.000Z"},{"geonameid":11001775,"name":"Leghin","asciiname":"Leghin","alternatenames":"","latitude":"47.2252100","longitude":"26.1983700","fclass":"P","fcode":"PPL","country":"RO","cc2":"","admin1":"28","admin2":"123521","admin3":"","admin4":"","population":675,"elevation":0,"gtopo30":494,"timezone":"Europe/Bucharest","moddate":"2015-12-18T00:00:00.000Z"},{"geonameid":670599,"name":"Pâţâligeni","asciiname":"Pataligeni","alternatenames":"Pataligeni,Patiligeni,Pitiligeni,Pâţâligeni,Pîţîligeni,Păţiligeni,Păţăligeni","latitude":"47.2333300","longitude":"26.0833300","fclass":"P","fcode":"PPL","country":"RO","cc2":"RO","admin1":"28","admin2":"123521","admin3":"","admin4":"","population":0,"elevation":0,"gtopo30":603,"timezone":"Europe/Bucharest","moddate":"2020-03-08T00:00:00.000Z"},{"geonameid":670777,"name":"Pipirig","asciiname":"Pipirig","alternatenames":"Pioirig,Pipirig","latitude":"47.2500000","longitude":"26.0666700","fclass":"P","fcode":"PPLA2","country":"RO","cc2":"","admin1":"28","admin2":"123521","admin3":"","admin4":"","population":8569,"elevation":0,"gtopo30":737,"timezone":"Europe/Bucharest","moddate":"2012-06-12T00:00:00.000Z"},{"geonameid":670382,"name":"Pluton","asciiname":"Pluton","alternatenames":"","latitude":"47.2002800","longitude":"26.0133100","fclass":"P","fcode":"PPL","country":"RO","cc2":"","admin1":"28","admin2":"123521","admin3":"","admin4":"","population":988,"elevation":0,"gtopo30":715,"timezone":"Europe/Bucharest","moddate":"2013-04-21T00:00:00.000Z"},{"geonameid":669918,"name":"Popeni","asciiname":"Popeni","alternatenames":"","latitude":"47.2333300","longitude":"26.0666700","fclass":"P","fcode":"PPLX","country":"RO","cc2":"","admin1":"28","admin2":"123521","admin3":"","admin4":"","population":0,"elevation":0,"gtopo30":707,"timezone":"Europe/Bucharest","moddate":"2016-02-07T00:00:00.000Z"},{"geonameid":666134,"name":"Stânca","asciiname":"Stanca","alternatenames":"Stanca,Stinca,Stînca","latitude":"47.2306900","longitude":"26.1313900","fclass":"P","fcode":"PPL","country":"RO","cc2":"RO","admin1":"28","admin2":"123521","admin3":"","admin4":"","population":1280,"elevation":0,"gtopo30":542,"timezone":"Europe/Bucharest","moddate":"2013-04-21T00:00:00.000Z"},{"geonameid":665526,"name":"Tărăţeni","asciiname":"Tarateni","alternatenames":"","latitude":"47.2000000","longitude":"26.0000000","fclass":"P","fcode":"PPLX","country":"RO","cc2":"","admin1":"28","admin2":"123521","admin3":"","admin4":"","population":0,"elevation":0,"gtopo30":799,"timezone":"Europe/Bucharest","moddate":"2016-02-07T00:00:00.000Z"}],"admin3":[],"alternateNames":[]},"__N_SSG":true}