{"pageProps":{"locale":"ro","admin2":{"geonameid":8334793,"name":"Comuna Homoroade","country":"RO","admin1":"32","admin2":"137899","admin3":"","latitude":"47.6389600","longitude":"23.0659300"},"admin1":{"geonameid":667869,"name":"Satu Mare","admin1":"32"},"locations":[{"geonameid":682123,"name":"Chilia","asciiname":"Chilia","alternatenames":"","latitude":"47.6422800","longitude":"23.0845300","fclass":"P","fcode":"PPL","country":"RO","cc2":"","admin1":"32","admin2":"137899","admin3":"","admin4":"","population":313,"elevation":0,"gtopo30":180,"timezone":"Europe/Bucharest","moddate":"2013-04-21T00:00:00.000Z"},{"geonameid":676050,"name":"Homorodu de Jos","asciiname":"Homorodu de Jos","alternatenames":"Alsohomorod,Alsóhomoród,Homorod-de Jos,Homorodu de Jos,Homorodul-de-Jos","latitude":"47.6666700","longitude":"23.0833300","fclass":"P","fcode":"PPL","country":"RO","cc2":"","admin1":"32","admin2":"137899","admin3":"","admin4":"","population":2019,"elevation":0,"gtopo30":150,"timezone":"Europe/Bucharest","moddate":"2016-02-07T00:00:00.000Z"},{"geonameid":676048,"name":"Homorodu de Mijloc","asciiname":"Homorodu de Mijloc","alternatenames":"Homorod-de Mijloc,Homorodu de Mijloc,Homorodul-de-Mijloc","latitude":"47.6333300","longitude":"23.0666700","fclass":"P","fcode":"PPL","country":"RO","cc2":"","admin1":"32","admin2":"137899","admin3":"","admin4":"","population":0,"elevation":0,"gtopo30":164,"timezone":"Europe/Bucharest","moddate":"2016-02-07T00:00:00.000Z"},{"geonameid":676046,"name":"Homorodu de Sus","asciiname":"Homorodu de Sus","alternatenames":"Homorodu de Sus,Homorodul de Sus","latitude":"47.6165400","longitude":"23.0546600","fclass":"P","fcode":"PPL","country":"RO","cc2":"RO","admin1":"32","admin2":"137899","admin3":"","admin4":"","population":397,"elevation":0,"gtopo30":171,"timezone":"Europe/Bucharest","moddate":"2013-04-21T00:00:00.000Z"},{"geonameid":672452,"name":"Necopoi","asciiname":"Necopoi","alternatenames":"","latitude":"47.6832400","longitude":"23.0652900","fclass":"P","fcode":"PPL","country":"RO","cc2":"","admin1":"32","admin2":"137899","admin3":"","admin4":"","population":339,"elevation":0,"gtopo30":139,"timezone":"Europe/Bucharest","moddate":"2013-04-21T00:00:00.000Z"},{"geonameid":666502,"name":"Solduba","asciiname":"Solduba","alternatenames":"Bukkszoldobagy,Bükkszoldobágy,Solduba","latitude":"47.5970800","longitude":"23.0433300","fclass":"P","fcode":"PPL","country":"RO","cc2":"RO","admin1":"32","admin2":"137899","admin3":"","admin4":"","population":480,"elevation":0,"gtopo30":203,"timezone":"Europe/Bucharest","moddate":"2013-04-21T00:00:00.000Z"}],"admin3":[],"alternateNames":[]},"__N_SSG":true}