{"pageProps":{"locale":"ro","admin2":{"geonameid":665195,"name":"Comuna Ţibana","country":"RO","admin1":"23","admin2":"99673","admin3":"","latitude":"46.9868500","longitude":"27.3260700"},"admin1":{"geonameid":675809,"name":"Iaşi","admin1":"23"},"locations":[{"geonameid":686485,"name":"Alexeni","asciiname":"Alexeni","alternatenames":"Alexeni,Panoasa,Paraschiveni,Pănoasa","latitude":"46.9700800","longitude":"27.3686000","fclass":"P","fcode":"PPL","country":"RO","cc2":"RO","admin1":"23","admin2":"99673","admin3":"","admin4":"","population":553,"elevation":0,"gtopo30":234,"timezone":"Europe/Bucharest","moddate":"2013-04-21T00:00:00.000Z"},{"geonameid":679107,"name":"Domnița","asciiname":"Domnita","alternatenames":"","latitude":"47.0209100","longitude":"27.3350000","fclass":"P","fcode":"PPL","country":"RO","cc2":"","admin1":"23","admin2":"99673","admin3":"","admin4":"","population":1002,"elevation":0,"gtopo30":266,"timezone":"Europe/Bucharest","moddate":"2013-04-21T00:00:00.000Z"},{"geonameid":679108,"name":"Domniţa","asciiname":"Domnita","alternatenames":"Domnita,Domniţa,Livada Noua,Livada Nouă,Secaturi,Secături","latitude":"46.9833300","longitude":"27.3333300","fclass":"P","fcode":"PPL","country":"RO","cc2":"","admin1":"23","admin2":"99673","admin3":"","admin4":"","population":0,"elevation":0,"gtopo30":162,"timezone":"Europe/Bucharest","moddate":"2016-02-07T00:00:00.000Z"},{"geonameid":677242,"name":"Gârbești","asciiname":"Garbesti","alternatenames":"Girbesti,Girbesti Mari,Girbesti Mici,Gîrbeşti,Gîrbeşti Mari,Gîrbeşti Mici,Palanca","latitude":"46.9833300","longitude":"27.3000000","fclass":"P","fcode":"PPL","country":"RO","cc2":"","admin1":"23","admin2":"99673","admin3":"","admin4":"","population":2228,"elevation":0,"gtopo30":217,"timezone":"Europe/Bucharest","moddate":"2015-11-17T00:00:00.000Z"},{"geonameid":673015,"name":"Moara Ciornei","asciiname":"Moara Ciornei","alternatenames":"Moara Ceornei,Moara Lui Ciornei","latitude":"46.9633000","longitude":"27.3485600","fclass":"P","fcode":"PPL","country":"RO","cc2":"RO","admin1":"23","admin2":"99673","admin3":"","admin4":"","population":140,"elevation":0,"gtopo30":184,"timezone":"Europe/Bucharest","moddate":"2013-04-21T00:00:00.000Z"},{"geonameid":671773,"name":"Oproaia","asciiname":"Oproaia","alternatenames":"","latitude":"46.9562100","longitude":"27.3709000","fclass":"P","fcode":"PPL","country":"RO","cc2":"","admin1":"23","admin2":"99673","admin3":"","admin4":"","population":168,"elevation":0,"gtopo30":223,"timezone":"Europe/Bucharest","moddate":"2013-04-21T00:00:00.000Z"},{"geonameid":670087,"name":"Poiana de Sus","asciiname":"Poiana de Sus","alternatenames":"","latitude":"47.0058400","longitude":"27.3190100","fclass":"P","fcode":"PPL","country":"RO","cc2":"","admin1":"23","admin2":"99673","admin3":"","admin4":"","population":434,"elevation":0,"gtopo30":232,"timezone":"Europe/Bucharest","moddate":"2013-04-21T00:00:00.000Z"},{"geonameid":670065,"name":"Poiana Mănăstirii","asciiname":"Poiana Manastirii","alternatenames":"Poiana Manastirii,Poiana Minastirei,Poiana Mînăstirei,Poiana Mănăstirii","latitude":"46.9856900","longitude":"27.3569300","fclass":"P","fcode":"PPL","country":"RO","cc2":"RO","admin1":"23","admin2":"99673","admin3":"","admin4":"","population":444,"elevation":0,"gtopo30":218,"timezone":"Europe/Bucharest","moddate":"2013-04-21T00:00:00.000Z"},{"geonameid":668461,"name":"Runcu","asciiname":"Runcu","alternatenames":"","latitude":"47.0061200","longitude":"27.2842400","fclass":"P","fcode":"PPL","country":"RO","cc2":"","admin1":"23","admin2":"99673","admin3":"","admin4":"","population":486,"elevation":0,"gtopo30":183,"timezone":"Europe/Bucharest","moddate":"2013-04-21T00:00:00.000Z"},{"geonameid":665196,"name":"Ţibana","asciiname":"Tibana","alternatenames":"Tibana,Ţibana","latitude":"46.9833300","longitude":"27.3333300","fclass":"P","fcode":"PPLA2","country":"RO","cc2":"","admin1":"23","admin2":"99673","admin3":"","admin4":"","population":7098,"elevation":0,"gtopo30":162,"timezone":"Europe/Bucharest","moddate":"2012-06-12T00:00:00.000Z"},{"geonameid":663981,"name":"Vadu Vejei","asciiname":"Vadu Vejei","alternatenames":"Vadu Vejei,Vadul-Vejei","latitude":"46.9960800","longitude":"27.2439900","fclass":"P","fcode":"PPL","country":"RO","cc2":"RO","admin1":"23","admin2":"99673","admin3":"","admin4":"","population":223,"elevation":0,"gtopo30":206,"timezone":"Europe/Bucharest","moddate":"2013-04-20T00:00:00.000Z"}],"admin3":[],"alternateNames":[]},"__N_SSG":true}