{"pageProps":{"locale":"ro","admin2":{"geonameid":8334639,"name":"Comuna Schitu","country":"RO","admin1":"42","admin2":"104975","admin3":"","latitude":"44.1457400","longitude":"25.8424000"},"admin1":{"geonameid":677104,"name":"Giurgiu","admin1":"42"},"locations":[{"geonameid":684874,"name":"Bila","asciiname":"Bila","alternatenames":"","latitude":"44.1698800","longitude":"25.8520200","fclass":"P","fcode":"PPL","country":"RO","cc2":"","admin1":"42","admin2":"104975","admin3":"","admin4":"","population":632,"elevation":0,"gtopo30":63,"timezone":"Europe/Bucharest","moddate":"2013-04-21T00:00:00.000Z"},{"geonameid":682856,"name":"Cămineasca","asciiname":"Camineasca","alternatenames":"","latitude":"44.1707800","longitude":"25.8181500","fclass":"P","fcode":"PPL","country":"RO","cc2":"","admin1":"42","admin2":"104975","admin3":"","admin4":"","population":835,"elevation":0,"gtopo30":62,"timezone":"Europe/Bucharest","moddate":"2013-04-21T00:00:00.000Z"},{"geonameid":667670,"name":"Schitu","asciiname":"Schitu","alternatenames":"Pangalesti,Pingalesti,Pîngăleşti,Păngăleşti","latitude":"44.1408300","longitude":"25.8366700","fclass":"P","fcode":"PPLA2","country":"RO","cc2":"","admin1":"42","admin2":"104975","admin3":"","admin4":"","population":2227,"elevation":0,"gtopo30":90,"timezone":"Europe/Bucharest","moddate":"2012-06-12T00:00:00.000Z"},{"geonameid":10942611,"name":"Vlașin","asciiname":"Vlasin","alternatenames":"Principele Nicolae","latitude":"44.1002500","longitude":"25.8580900","fclass":"P","fcode":"PPL","country":"RO","cc2":"","admin1":"42","admin2":"104975","admin3":"","admin4":"","population":572,"elevation":0,"gtopo30":84,"timezone":"Europe/Bucharest","moddate":"2015-11-27T00:00:00.000Z"}],"admin3":[],"alternateNames":[]},"__N_SSG":true}