{"pageProps":{"locale":"en","admin2":{"geonameid":2648110,"name":"Greater London","country":"GB","admin1":"ENG","admin2":"GLA","admin3":"","latitude":"51.5000000","longitude":"-0.1666700","localeAltName":"Greater London"},"admin1":{"geonameid":6269131,"name":"England","admin1":"ENG","localeAltName":"England"},"locations":[{"geonameid":12048007,"name":"Abbey","asciiname":"Abbey","alternatenames":"","latitude":"51.4140800","longitude":"-0.1911100","fclass":"P","fcode":"PPLX","country":"GB","cc2":"","admin1":"ENG","admin2":"GLA","admin3":"I4","admin4":"","population":0,"elevation":0,"gtopo30":16,"timezone":"Europe/London","moddate":"2019-06-07T00:00:00.000Z"},{"geonameid":12048352,"name":"Abbey","asciiname":"Abbey","alternatenames":"","latitude":"51.5397100","longitude":"0.0779300","fclass":"P","fcode":"PPLX","country":"GB","cc2":"","admin1":"ENG","admin2":"GLA","admin3":"A1","admin4":"","population":0,"elevation":0,"gtopo30":11,"timezone":"Europe/London","moddate":"2019-06-07T00:00:00.000Z"},{"geonameid":12048423,"name":"Abbey Road","asciiname":"Abbey Road","alternatenames":"","latitude":"51.5349000","longitude":"-0.1782000","fclass":"P","fcode":"PPLX","country":"GB","cc2":"","admin1":"ENG","admin2":"GLA","admin3":"P5","admin4":"","population":0,"elevation":0,"gtopo30":50,"timezone":"Europe/London","moddate":"2019-06-07T00:00:00.000Z"},{"geonameid":7302135,"name":"Abbey Wood","asciiname":"Abbey Wood","alternatenames":"ایبی وڈ","latitude":"51.4868800","longitude":"0.1074700","fclass":"P","fcode":"PPL","country":"GB","cc2":"","admin1":"ENG","admin2":"GLA","admin3":"E7","admin4":"","population":13000,"elevation":0,"gtopo30":9,"timezone":"Europe/London","moddate":"2010-05-27T00:00:00.000Z"},{"geonameid":12048178,"name":"Abingdon","asciiname":"Abingdon","alternatenames":"","latitude":"51.4964000","longitude":"-0.1975200","fclass":"P","fcode":"PPLX","country":"GB","cc2":"","admin1":"ENG","admin2":"GLA","admin3":"G4","admin4":"","population":0,"elevation":0,"gtopo30":10,"timezone":"Europe/London","moddate":"2019-06-07T00:00:00.000Z"},{"geonameid":2657697,"name":"Acton","asciiname":"Acton","alternatenames":"Acton i London,Akton,Aktun,aiktana,aktwn  lndn,akuton,e dun,Актон,Актън,آکتون، لندن,ایکٹون، لندن,ऐक्टन,アクトン,厄頓","latitude":"51.5090100","longitude":"-0.2762000","fclass":"P","fcode":"PPL","country":"GB","cc2":"","admin1":"ENG","admin2":"GLA","admin3":"D9","admin4":"","population":53689,"elevation":0,"gtopo30":30,"timezone":"Europe/London","moddate":"2010-09-22T00:00:00.000Z"},{"geonameid":12047983,"name":"Acton Central","asciiname":"Acton Central","alternatenames":"","latitude":"51.5149100","longitude":"-0.2707300","fclass":"P","fcode":"PPLX","country":"GB","cc2":"","admin1":"ENG","admin2":"GLA","admin3":"D9","admin4":"","population":0,"elevation":0,"gtopo30":31,"timezone":"Europe/London","moddate":"2019-06-07T00:00:00.000Z"},{"geonameid":2657678,"name":"Addington","asciiname":"Addington","alternatenames":"Addington","latitude":"51.3500000","longitude":"-0.0333300","fclass":"P","fcode":"PPL","country":"GB","cc2":"","admin1":"ENG","admin2":"GLA","admin3":"C8","admin4":"","population":0,"elevation":0,"gtopo30":97,"timezone":"Europe/London","moddate":"2012-01-17T00:00:00.000Z"},{"geonameid":12047937,"name":"Addiscombe","asciiname":"Addiscombe","alternatenames":"","latitude":"51.3807700","longitude":"-0.0816200","fclass":"P","fcode":"PPLX","country":"GB","cc2":"","admin1":"ENG","admin2":"GLA","admin3":"C8","admin4":"","population":0,"elevation":0,"gtopo30":56,"timezone":"Europe/London","moddate":"2019-09-30T00:00:00.000Z"},{"geonameid":12048267,"name":"Addison","asciiname":"Addison","alternatenames":"","latitude":"51.5003500","longitude":"-0.2195300","fclass":"P","fcode":"PPLX","country":"GB","cc2":"","admin1":"ENG","admin2":"GLA","admin3":"F1","admin4":"","population":0,"elevation":0,"gtopo30":7,"timezone":"Europe/London","moddate":"2019-06-07T00:00:00.000Z"},{"geonameid":12048204,"name":"Aldborough","asciiname":"Aldborough","alternatenames":"","latitude":"51.5902700","longitude":"0.1090700","fclass":"P","fcode":"PPLX","country":"GB","cc2":"","admin1":"ENG","admin2":"GLA","admin3":"K8","admin4":"","population":0,"elevation":0,"gtopo30":26,"timezone":"Europe/London","moddate":"2019-06-07T00:00:00.000Z"},{"geonameid":11550771,"name":"Aldersbrook","asciiname":"Aldersbrook","alternatenames":"E12","latitude":"51.5618600","longitude":"0.0394000","fclass":"P","fcode":"PPL","country":"GB","cc2":"","admin1":"ENG","admin2":"GLA","admin3":"K8","admin4":"","population":0,"elevation":0,"gtopo30":15,"timezone":"Europe/London","moddate":"2017-06-06T00:00:00.000Z"},{"geonameid":12048321,"name":"Aldersgate","asciiname":"Aldersgate","alternatenames":"","latitude":"51.5184400","longitude":"-0.0964900","fclass":"P","fcode":"PPLX","country":"GB","cc2":"","admin1":"ENG","admin2":"GLA","admin3":"H9","admin4":"","population":0,"elevation":0,"gtopo30":31,"timezone":"Europe/London","moddate":"2019-06-07T00:00:00.000Z"},{"geonameid":11550773,"name":"Aldgate","asciiname":"Aldgate","alternatenames":"","latitude":"51.5146200","longitude":"-0.0760500","fclass":"P","fcode":"PPL","country":"GB","cc2":"","admin1":"ENG","admin2":"GLA","admin3":"H9","admin4":"","population":0,"elevation":0,"gtopo30":36,"timezone":"Europe/London","moddate":"2017-06-06T00:00:00.000Z"},{"geonameid":12048407,"name":"Alexandra","asciiname":"Alexandra","alternatenames":"","latitude":"51.5986400","longitude":"-0.1329300","fclass":"P","fcode":"PPLX","country":"GB","cc2":"","admin1":"ENG","admin2":"GLA","admin3":"F3","admin4":"","population":0,"elevation":0,"gtopo30":77,"timezone":"Europe/London","moddate":"2019-06-07T00:00:00.000Z"},{"geonameid":12047910,"name":"Alexandra","asciiname":"Alexandra","alternatenames":"","latitude":"51.3838900","longitude":"-0.2752700","fclass":"P","fcode":"PPLX","country":"GB","cc2":"","admin1":"ENG","admin2":"GLA","admin3":"G7","admin4":"","population":0,"elevation":0,"gtopo30":31,"timezone":"Europe/London","moddate":"2019-06-07T00:00:00.000Z"},{"geonameid":12048280,"name":"Alibon","asciiname":"Alibon","alternatenames":"","latitude":"51.5455900","longitude":"0.1482700","fclass":"P","fcode":"PPLX","country":"GB","cc2":"","admin1":"ENG","admin2":"GLA","admin3":"A1","admin4":"","population":0,"elevation":0,"gtopo30":9,"timezone":"Europe/London","moddate":"2019-06-07T00:00:00.000Z"},{"geonameid":12048118,"name":"Alperton","asciiname":"Alperton","alternatenames":"","latitude":"51.5404700","longitude":"-0.2945100","fclass":"P","fcode":"PPLX","country":"GB","cc2":"","admin1":"ENG","admin2":"GLA","admin3":"B5","admin4":"","population":0,"elevation":0,"gtopo30":37,"timezone":"Europe/London","moddate":"2019-09-30T00:00:00.000Z"},{"geonameid":7289509,"name":"Anerley","asciiname":"Anerley","alternatenames":"","latitude":"51.4065400","longitude":"-0.0638900","fclass":"P","fcode":"PPL","country":"GB","cc2":"","admin1":"ENG","admin2":"GLA","admin3":"B8","admin4":"","population":0,"elevation":0,"gtopo30":44,"timezone":"Europe/London","moddate":"2011-03-03T00:00:00.000Z"},{"geonameid":11777624,"name":"Archway","asciiname":"Archway","alternatenames":"","latitude":"51.5673300","longitude":"-0.1341500","fclass":"P","fcode":"PPLL","country":"GB","cc2":"","admin1":"ENG","admin2":"GLA","admin3":"G3","admin4":"","population":215667,"elevation":0,"gtopo30":67,"timezone":"Europe/London","moddate":"2017-11-29T00:00:00.000Z"},{"geonameid":9072593,"name":"Arkley","asciiname":"Arkley","alternatenames":"akuri,arkli,آرکلے، لندن,आर्क्ली,アークリー","latitude":"51.6466800","longitude":"-0.2352600","fclass":"P","fcode":"PPL","country":"GB","cc2":"","admin1":"ENG","admin2":"GLA","admin3":"A2","admin4":"","population":0,"elevation":0,"gtopo30":140,"timezone":"Europe/London","moddate":"2014-06-02T00:00:00.000Z"},{"geonameid":12047932,"name":"Ashburton","asciiname":"Ashburton","alternatenames":"","latitude":"51.3842200","longitude":"-0.0582800","fclass":"P","fcode":"PPLX","country":"GB","cc2":"","admin1":"ENG","admin2":"GLA","admin3":"C8","admin4":"","population":0,"elevation":0,"gtopo30":55,"timezone":"Europe/London","moddate":"2019-09-30T00:00:00.000Z"},{"geonameid":12048263,"name":"Askew","asciiname":"Askew","alternatenames":"","latitude":"51.5034000","longitude":"-0.2421100","fclass":"P","fcode":"PPLX","country":"GB","cc2":"","admin1":"ENG","admin2":"GLA","admin3":"F1","admin4":"","population":0,"elevation":0,"gtopo30":8,"timezone":"Europe/London","moddate":"2019-06-07T00:00:00.000Z"},{"geonameid":12048262,"name":"Avonmore and Brook Green","asciiname":"Avonmore and Brook Green","alternatenames":"","latitude":"51.4943300","longitude":"-0.2135700","fclass":"P","fcode":"PPLX","country":"GB","cc2":"","admin1":"ENG","admin2":"GLA","admin3":"F1","admin4":"","population":0,"elevation":0,"gtopo30":10,"timezone":"Europe/London","moddate":"2019-06-07T00:00:00.000Z"},{"geonameid":6691486,"name":"Baker Street","asciiname":"Baker Street","alternatenames":"","latitude":"51.5232200","longitude":"-0.1577800","fclass":"P","fcode":"PPLX","country":"GB","cc2":"","admin1":"ENG","admin2":"GLA","admin3":"P5","admin4":"","population":0,"elevation":0,"gtopo30":38,"timezone":"Europe/London","moddate":"2010-05-24T00:00:00.000Z"},{"geonameid":2656580,"name":"Balham","asciiname":"Balham","alternatenames":"Balum,Балъм","latitude":"51.4469500","longitude":"-0.1383600","fclass":"P","fcode":"PPL","country":"GB","cc2":"","admin1":"ENG","admin2":"GLA","admin3":"H1","admin4":"","population":0,"elevation":0,"gtopo30":27,"timezone":"Europe/London","moddate":"2010-05-24T00:00:00.000Z"},{"geonameid":12048203,"name":"Balham","asciiname":"Balham","alternatenames":"","latitude":"51.4498800","longitude":"-0.1517600","fclass":"P","fcode":"PPLX","country":"GB","cc2":"","admin1":"ENG","admin2":"GLA","admin3":"P1","admin4":"","population":0,"elevation":0,"gtopo30":30,"timezone":"Europe/London","moddate":"2019-09-30T00:00:00.000Z"},{"geonameid":11550785,"name":"Bank","asciiname":"Bank","alternatenames":"","latitude":"51.5130700","longitude":"-0.0894800","fclass":"P","fcode":"PPL","country":"GB","cc2":"","admin1":"ENG","admin2":"GLA","admin3":"H9","admin4":"","population":0,"elevation":0,"gtopo30":31,"timezone":"Europe/London","moddate":"2017-06-06T00:00:00.000Z"},{"geonameid":6690593,"name":"Barbican","asciiname":"Barbican","alternatenames":"","latitude":"51.5198800","longitude":"-0.0944600","fclass":"P","fcode":"PPLX","country":"GB","cc2":"","admin1":"ENG","admin2":"GLA","admin3":"H9","admin4":"","population":4000,"elevation":0,"gtopo30":31,"timezone":"Europe/London","moddate":"2010-05-25T00:00:00.000Z"},{"geonameid":2656333,"name":"Barking","asciiname":"Barking","alternatenames":"Barking,Barking Town,Barking i England,bakingu,barkinga,barkyng,بارکینگ,बार्किंग,バーキング","latitude":"51.5333300","longitude":"0.0833300","fclass":"P","fcode":"PPL","country":"GB","cc2":"","admin1":"ENG","admin2":"GLA","admin3":"A1","admin4":"","population":61000,"elevation":0,"gtopo30":6,"timezone":"Europe/London","moddate":"2012-06-01T00:00:00.000Z"},{"geonameid":2656330,"name":"Barkingside","asciiname":"Barkingside","alternatenames":"barkingasa'ida,बार्किंगसाइड","latitude":"51.5876800","longitude":"0.0815200","fclass":"P","fcode":"PPLX","country":"GB","cc2":"","admin1":"ENG","admin2":"GLA","admin3":"K8","admin4":"","population":0,"elevation":0,"gtopo30":29,"timezone":"Europe/London","moddate":"2011-03-03T00:00:00.000Z"},{"geonameid":12048339,"name":"Barkingside","asciiname":"Barkingside","alternatenames":"","latitude":"51.5813100","longitude":"0.0686000","fclass":"P","fcode":"PPLX","country":"GB","cc2":"","admin1":"ENG","admin2":"GLA","admin3":"K8","admin4":"","population":0,"elevation":0,"gtopo30":29,"timezone":"Europe/London","moddate":"2019-09-30T00:00:00.000Z"},{"geonameid":12048148,"name":"Barnehurst","asciiname":"Barnehurst","alternatenames":"","latitude":"51.4576600","longitude":"0.1618400","fclass":"P","fcode":"PPLX","country":"GB","cc2":"","admin1":"ENG","admin2":"GLA","admin3":"A6","admin4":"","population":0,"elevation":0,"gtopo30":46,"timezone":"Europe/London","moddate":"2019-09-30T00:00:00.000Z"},{"geonameid":2656296,"name":"Barnes","asciiname":"Barnes","alternatenames":"bans  lndn,barnsa,بانس، لندن,बार्न्स","latitude":"51.4735200","longitude":"-0.2483900","fclass":"P","fcode":"PPL","country":"GB","cc2":"","admin1":"ENG","admin2":"GLA","admin3":"L1","admin4":"","population":0,"elevation":0,"gtopo30":7,"timezone":"Europe/London","moddate":"2010-05-24T00:00:00.000Z"},{"geonameid":2656295,"name":"Barnet","asciiname":"Barnet","alternatenames":"Barnet,Barnet keruelet,Barnet kerület,Barneto,Buirg Londan Barnet,Chipping Barnet,High Barnet,La Barnette,London Borough of Barnet,Londonska opshtina Barnet,Municipio de Barnet,ba ni te qu,barneta,barnٹ  lndn,Барнет,Лондонска општина Барнет,Բարնեթ,בארנט,לאנדאנער בארא פון בארנעט,بارنٹ، لندن,बार्नेट,バーネット・ロンドン特別区,巴尼特區","latitude":"51.6500000","longitude":"-0.2000000","fclass":"P","fcode":"PPL","country":"GB","cc2":"","admin1":"ENG","admin2":"GLA","admin3":"A2","admin4":"","population":30000,"elevation":0,"gtopo30":117,"timezone":"Europe/London","moddate":"2012-06-01T00:00:00.000Z"},{"geonameid":12048001,"name":"Barnhill","asciiname":"Barnhill","alternatenames":"","latitude":"51.5251900","longitude":"-0.4071500","fclass":"P","fcode":"PPLX","country":"GB","cc2":"","admin1":"ENG","admin2":"GLA","admin3":"F9","admin4":"","population":0,"elevation":0,"gtopo30":28,"timezone":"Europe/London","moddate":"2019-06-07T00:00:00.000Z"},{"geonameid":12048062,"name":"Barnhill","asciiname":"Barnhill","alternatenames":"","latitude":"51.5711300","longitude":"-0.2795100","fclass":"P","fcode":"PPLX","country":"GB","cc2":"","admin1":"ENG","admin2":"GLA","admin3":"B5","admin4":"","population":0,"elevation":0,"gtopo30":73,"timezone":"Europe/London","moddate":"2019-06-07T00:00:00.000Z"},{"geonameid":6690590,"name":"Barnsbury","asciiname":"Barnsbury","alternatenames":"","latitude":"51.5406700","longitude":"-0.1167500","fclass":"P","fcode":"PPL","country":"GB","cc2":"","admin1":"ENG","admin2":"GLA","admin3":"G3","admin4":"","population":10000,"elevation":0,"gtopo30":32,"timezone":"Europe/London","moddate":"2011-03-03T00:00:00.000Z"},{"geonameid":12048296,"name":"Barnsbury","asciiname":"Barnsbury","alternatenames":"","latitude":"51.5373600","longitude":"-0.1111000","fclass":"P","fcode":"PPLX","country":"GB","cc2":"","admin1":"ENG","admin2":"GLA","admin3":"G3","admin4":"","population":0,"elevation":0,"gtopo30":42,"timezone":"Europe/London","moddate":"2019-09-30T00:00:00.000Z"},{"geonameid":8199317,"name":"Barons Court","asciiname":"Barons Court","alternatenames":"","latitude":"51.4910900","longitude":"-0.2120400","fclass":"P","fcode":"PPL","country":"GB","cc2":"","admin1":"ENG","admin2":"GLA","admin3":"F1","admin4":"","population":0,"elevation":0,"gtopo30":7,"timezone":"Europe/London","moddate":"2012-02-18T00:00:00.000Z"},{"geonameid":12047931,"name":"Bassishaw","asciiname":"Bassishaw","alternatenames":"","latitude":"51.5167800","longitude":"-0.0925600","fclass":"P","fcode":"PPLX","country":"GB","cc2":"","admin1":"ENG","admin2":"GLA","admin3":"H9","admin4":"","population":0,"elevation":0,"gtopo30":34,"timezone":"Europe/London","moddate":"2019-06-07T00:00:00.000Z"},{"geonameid":6690602,"name":"Battersea","asciiname":"Battersea","alternatenames":"ba te xi,baeteosi,baitarasi,बैटरसी,巴特锡,배터시","latitude":"51.4747500","longitude":"-0.1554700","fclass":"P","fcode":"PPLX","country":"GB","cc2":"","admin1":"ENG","admin2":"GLA","admin3":"P1","admin4":"","population":75651,"elevation":0,"gtopo30":7,"timezone":"Europe/London","moddate":"2012-05-01T00:00:00.000Z"},{"geonameid":12048430,"name":"Bayswater","asciiname":"Bayswater","alternatenames":"","latitude":"51.5170800","longitude":"-0.1918900","fclass":"P","fcode":"PPLX","country":"GB","cc2":"","admin1":"ENG","admin2":"GLA","admin3":"P5","admin4":"","population":0,"elevation":0,"gtopo30":28,"timezone":"Europe/London","moddate":"2019-09-30T00:00:00.000Z"},{"geonameid":6545243,"name":"Bayswater","asciiname":"Bayswater","alternatenames":"beizuu~ota,bezavotara,byyzwwtr,בייזווטר,بیزواٹر,बेज़वॉटर,ベイズウォーター","latitude":"51.5111600","longitude":"-0.1842600","fclass":"P","fcode":"PPLX","country":"GB","cc2":"","admin1":"ENG","admin2":"GLA","admin3":"P5","admin4":"","population":17500,"elevation":0,"gtopo30":35,"timezone":"Europe/London","moddate":"2011-03-03T00:00:00.000Z"},{"geonameid":2656065,"name":"Beckenham","asciiname":"Beckenham","alternatenames":"Beckenham,bekenahama,bekkunamu,bknham,بکنهام,بیکنہیم، لندن,बेकेनहम,ベックナム","latitude":"51.4087800","longitude":"-0.0252600","fclass":"P","fcode":"PPL","country":"GB","cc2":"","admin1":"ENG","admin2":"GLA","admin3":"B8","admin4":"","population":82000,"elevation":0,"gtopo30":45,"timezone":"Europe/London","moddate":"2012-06-01T00:00:00.000Z"},{"geonameid":2656052,"name":"Beckton","asciiname":"Beckton","alternatenames":"Beckton","latitude":"51.5152800","longitude":"0.0565900","fclass":"P","fcode":"PPLX","country":"GB","cc2":"","admin1":"ENG","admin2":"GLA","admin3":"I8","admin4":"","population":0,"elevation":0,"gtopo30":4,"timezone":"Europe/London","moddate":"2011-03-03T00:00:00.000Z"},{"geonameid":6690870,"name":"Becontree","asciiname":"Becontree","alternatenames":"bekanatri,बेकनट्री","latitude":"51.5529000","longitude":"0.1290000","fclass":"P","fcode":"PPLX","country":"GB","cc2":"","admin1":"ENG","admin2":"GLA","admin3":"A1","admin4":"","population":100000,"elevation":0,"gtopo30":11,"timezone":"Europe/London","moddate":"2010-05-25T00:00:00.000Z"},{"geonameid":12048350,"name":"Becontree","asciiname":"Becontree","alternatenames":"","latitude":"51.5545300","longitude":"0.1189600","fclass":"P","fcode":"PPLX","country":"GB","cc2":"","admin1":"ENG","admin2":"GLA","admin3":"A1","admin4":"","population":0,"elevation":0,"gtopo30":11,"timezone":"Europe/London","moddate":"2019-09-30T00:00:00.000Z"},{"geonameid":6690872,"name":"Becontree Heath","asciiname":"Becontree Heath","alternatenames":"","latitude":"51.5460900","longitude":"0.1389000","fclass":"P","fcode":"PPLX","country":"GB","cc2":"","admin1":"ENG","admin2":"GLA","admin3":"A1","admin4":"","population":0,"elevation":0,"gtopo30":7,"timezone":"Europe/London","moddate":"2011-03-03T00:00:00.000Z"},{"geonameid":6547120,"name":"Beddington Corner","asciiname":"Beddington Corner","alternatenames":"","latitude":"51.3839500","longitude":"-0.1576900","fclass":"P","fcode":"PPLX","country":"GB","cc2":"","admin1":"ENG","admin2":"GLA","admin3":"N8","admin4":"","population":0,"elevation":0,"gtopo30":26,"timezone":"Europe/London","moddate":"2011-03-03T00:00:00.000Z"},{"geonameid":10104037,"name":"Beddington Hill","asciiname":"Beddington Hill","alternatenames":"","latitude":"51.3686700","longitude":"-0.1359100","fclass":"P","fcode":"PPLX","country":"GB","cc2":"","admin1":"ENG","admin2":"GLA","admin3":"N8","admin4":"","population":0,"elevation":0,"gtopo30":52,"timezone":"Europe/London","moddate":"2015-02-17T00:00:00.000Z"},{"geonameid":12048227,"name":"Beddington North","asciiname":"Beddington North","alternatenames":"","latitude":"51.3763800","longitude":"-0.1378600","fclass":"P","fcode":"PPLX","country":"GB","cc2":"","admin1":"ENG","admin2":"GLA","admin3":"N8","admin4":"","population":0,"elevation":0,"gtopo30":32,"timezone":"Europe/London","moddate":"2019-06-07T00:00:00.000Z"},{"geonameid":12048215,"name":"Beddington South","asciiname":"Beddington South","alternatenames":"","latitude":"51.3519400","longitude":"-0.1323700","fclass":"P","fcode":"PPLX","country":"GB","cc2":"","admin1":"ENG","admin2":"GLA","admin3":"N8","admin4":"","population":0,"elevation":0,"gtopo30":79,"timezone":"Europe/London","moddate":"2019-06-07T00:00:00.000Z"},{"geonameid":12047956,"name":"Bedfont","asciiname":"Bedfont","alternatenames":"","latitude":"51.4504100","longitude":"-0.4399400","fclass":"P","fcode":"PPLX","country":"GB","cc2":"","admin1":"ENG","admin2":"GLA","admin3":"G1","admin4":"","population":0,"elevation":0,"gtopo30":22,"timezone":"Europe/London","moddate":"2019-06-07T00:00:00.000Z"},{"geonameid":12048201,"name":"Bedford","asciiname":"Bedford","alternatenames":"","latitude":"51.4357000","longitude":"-0.1479500","fclass":"P","fcode":"PPLX","country":"GB","cc2":"","admin1":"ENG","admin2":"GLA","admin3":"P1","admin4":"","population":0,"elevation":0,"gtopo30":34,"timezone":"Europe/London","moddate":"2019-06-07T00:00:00.000Z"},{"geonameid":6545247,"name":"Belgravia","asciiname":"Belgravia","alternatenames":"Belgravi,Belgravija,Belgrejvija,Belqravia,belagreviya,belgeulabia,blgrbyh,bylgrwya,Белграви,Белгравія,Белгрейвия,בלגרביה,بیلگرویا,बेलग्रेविया,벨그라비아","latitude":"51.4911000","longitude":"-0.1493400","fclass":"P","fcode":"PPLX","country":"GB","cc2":"","admin1":"ENG","admin2":"GLA","admin3":"P5","admin4":"","population":0,"elevation":0,"gtopo30":15,"timezone":"Europe/London","moddate":"2011-03-03T00:00:00.000Z"},{"geonameid":12048100,"name":"Bellingham","asciiname":"Bellingham","alternatenames":"","latitude":"51.4278000","longitude":"-0.0250500","fclass":"P","fcode":"PPLX","country":"GB","cc2":"","admin1":"ENG","admin2":"GLA","admin3":"H6","admin4":"","population":0,"elevation":0,"gtopo30":36,"timezone":"Europe/London","moddate":"2019-09-30T00:00:00.000Z"},{"geonameid":12048041,"name":"Belmont","asciiname":"Belmont","alternatenames":"","latitude":"51.6044500","longitude":"-0.3100300","fclass":"P","fcode":"PPLX","country":"GB","cc2":"","admin1":"ENG","admin2":"GLA","admin3":"F4","admin4":"","population":0,"elevation":0,"gtopo30":67,"timezone":"Europe/London","moddate":"2019-09-30T00:00:00.000Z"},{"geonameid":10104034,"name":"Belmont","asciiname":"Belmont","alternatenames":"","latitude":"51.3432400","longitude":"-0.2000300","fclass":"P","fcode":"PPLX","country":"GB","cc2":"","admin1":"ENG","admin2":"GLA","admin3":"N8","admin4":"","population":0,"elevation":0,"gtopo30":94,"timezone":"Europe/London","moddate":"2015-02-17T00:00:00.000Z"},{"geonameid":12048394,"name":"Belsize","asciiname":"Belsize","alternatenames":"","latitude":"51.5461100","longitude":"-0.1665900","fclass":"P","fcode":"PPLX","country":"GB","cc2":"","admin1":"ENG","admin2":"GLA","admin3":"C4","admin4":"","population":0,"elevation":0,"gtopo30":63,"timezone":"Europe/London","moddate":"2019-06-07T00:00:00.000Z"},{"geonameid":6690581,"name":"Belsize Park","asciiname":"Belsize Park","alternatenames":"","latitude":"51.5476700","longitude":"-0.1722800","fclass":"P","fcode":"PPL","country":"GB","cc2":"","admin1":"ENG","admin2":"GLA","admin3":"C4","admin4":"","population":11600,"elevation":0,"gtopo30":67,"timezone":"Europe/London","moddate":"2011-03-03T00:00:00.000Z"},{"geonameid":2655929,"name":"Belvedere","asciiname":"Belvedere","alternatenames":"Belvedere","latitude":"51.4911400","longitude":"0.1513600","fclass":"P","fcode":"PPLX","country":"GB","cc2":"","admin1":"ENG","admin2":"GLA","admin3":"A6","admin4":"","population":11000,"elevation":0,"gtopo30":6,"timezone":"Europe/London","moddate":"2012-06-01T00:00:00.000Z"},{"geonameid":12047927,"name":"Bensham Manor","asciiname":"Bensham Manor","alternatenames":"","latitude":"51.3971200","longitude":"-0.1063900","fclass":"P","fcode":"PPLX","country":"GB","cc2":"","admin1":"ENG","admin2":"GLA","admin3":"C8","admin4":"","population":0,"elevation":0,"gtopo30":45,"timezone":"Europe/London","moddate":"2019-06-07T00:00:00.000Z"},{"geonameid":2655853,"name":"Bermondsey","asciiname":"Bermondsey","alternatenames":"Bermondsey,barmandasi,बर्मंडसी","latitude":"51.4979400","longitude":"-0.0660700","fclass":"P","fcode":"PPL","country":"GB","cc2":"","admin1":"ENG","admin2":"GLA","admin3":"M8","admin4":"","population":0,"elevation":0,"gtopo30":5,"timezone":"Europe/London","moddate":"2011-03-03T00:00:00.000Z"},{"geonameid":6690818,"name":"Berry's Green","asciiname":"Berry's Green","alternatenames":"","latitude":"51.3167900","longitude":"0.0594800","fclass":"P","fcode":"PPL","country":"GB","cc2":"","admin1":"ENG","admin2":"GLA","admin3":"B8","admin4":"","population":232,"elevation":0,"gtopo30":183,"timezone":"Europe/London","moddate":"2017-06-12T00:00:00.000Z"},{"geonameid":12047907,"name":"Berrylands","asciiname":"Berrylands","alternatenames":"","latitude":"51.3926500","longitude":"-0.2894600","fclass":"P","fcode":"PPLX","country":"GB","cc2":"","admin1":"ENG","admin2":"GLA","admin3":"G7","admin4":"","population":0,"elevation":0,"gtopo30":33,"timezone":"Europe/London","moddate":"2019-09-30T00:00:00.000Z"},{"geonameid":6690989,"name":"Bethnal Green","asciiname":"Bethnal Green","alternatenames":"beseuneolgeulin,bethanala grina,بینتھل گرین,बेथनल ग्रीन,বেথনাল গ্রিন,베스널그린","latitude":"51.5271800","longitude":"-0.0610900","fclass":"P","fcode":"PPLX","country":"GB","cc2":"","admin1":"ENG","admin2":"GLA","admin3":"O5","admin4":"","population":17590,"elevation":0,"gtopo30":20,"timezone":"Europe/London","moddate":"2011-03-03T00:00:00.000Z"},{"geonameid":12048288,"name":"Bethnal Green North","asciiname":"Bethnal Green North","alternatenames":"","latitude":"51.5312300","longitude":"-0.0574900","fclass":"P","fcode":"PPLX","country":"GB","cc2":"","admin1":"ENG","admin2":"GLA","admin3":"O5","admin4":"","population":0,"elevation":0,"gtopo30":16,"timezone":"Europe/London","moddate":"2019-06-07T00:00:00.000Z"},{"geonameid":12048391,"name":"Bethnal Green South","asciiname":"Bethnal Green South","alternatenames":"","latitude":"51.5234200","longitude":"-0.0566200","fclass":"P","fcode":"PPLX","country":"GB","cc2":"","admin1":"ENG","admin2":"GLA","admin3":"O5","admin4":"","population":0,"elevation":0,"gtopo30":16,"timezone":"Europe/London","moddate":"2019-06-07T00:00:00.000Z"},{"geonameid":12047911,"name":"Beverley","asciiname":"Beverley","alternatenames":"","latitude":"51.4027400","longitude":"-0.2589400","fclass":"P","fcode":"PPLX","country":"GB","cc2":"","admin1":"ENG","admin2":"GLA","admin3":"G7","admin4":"","population":0,"elevation":0,"gtopo30":18,"timezone":"Europe/London","moddate":"2019-06-07T00:00:00.000Z"},{"geonameid":2655775,"name":"Bexley","asciiname":"Bexley","alternatenames":"Bexley,Bexley keruelet,Bexley kerület,London Borough of Bexley,Londonska opshtina Beksli,bksly,bykzly  lndn,Лондонска општина Бексли,بکسلی,بیکزلی، لندن","latitude":"51.4416200","longitude":"0.1486600","fclass":"P","fcode":"PPLL","country":"GB","cc2":"","admin1":"ENG","admin2":"GLA","admin3":"A6","admin4":"","population":228000,"elevation":0,"gtopo30":16,"timezone":"Europe/London","moddate":"2012-06-01T00:00:00.000Z","localeAltName":"Bexley"},{"geonameid":2655774,"name":"Bexleyheath","asciiname":"Bexleyheath","alternatenames":"begseullihiseu,beksalihitha,بیکزلیہیتھ,बेक्सलीहीथ,벡슬리히스","latitude":"51.4629100","longitude":"0.1394300","fclass":"P","fcode":"PPLA3","country":"GB","cc2":"","admin1":"ENG","admin2":"GLA","admin3":"A6","admin4":"","population":0,"elevation":0,"gtopo30":52,"timezone":"Europe/London","moddate":"2011-02-12T00:00:00.000Z"},{"geonameid":2655721,"name":"Bickley","asciiname":"Bickley","alternatenames":"","latitude":"51.4013500","longitude":"0.0458300","fclass":"P","fcode":"PPL","country":"GB","cc2":"","admin1":"ENG","admin2":"GLA","admin3":"B8","admin4":"","population":0,"elevation":0,"gtopo30":75,"timezone":"Europe/London","moddate":"2011-02-08T00:00:00.000Z"},{"geonameid":2655690,"name":"Biggin Hill","asciiname":"Biggin Hill","alternatenames":"","latitude":"51.3132900","longitude":"0.0343300","fclass":"P","fcode":"PPL","country":"GB","cc2":"","admin1":"ENG","admin2":"GLA","admin3":"B8","admin4":"","population":13535,"elevation":0,"gtopo30":188,"timezone":"Europe/London","moddate":"2019-09-30T00:00:00.000Z"},{"geonameid":11550776,"name":"Billingsgate","asciiname":"Billingsgate","alternatenames":"","latitude":"51.5096000","longitude":"-0.0850600","fclass":"P","fcode":"PPL","country":"GB","cc2":"","admin1":"ENG","admin2":"GLA","admin3":"H9","admin4":"","population":0,"elevation":0,"gtopo30":28,"timezone":"Europe/London","moddate":"2017-06-06T00:00:00.000Z"},{"geonameid":12048026,"name":"Billingsgate","asciiname":"Billingsgate","alternatenames":"","latitude":"51.5091700","longitude":"-0.0826200","fclass":"P","fcode":"PPLX","country":"GB","cc2":"","admin1":"ENG","admin2":"GLA","admin3":"H9","admin4":"","population":0,"elevation":0,"gtopo30":19,"timezone":"Europe/London","moddate":"2019-06-07T00:00:00.000Z"},{"geonameid":12048081,"name":"Bishop's","asciiname":"Bishop's","alternatenames":"","latitude":"51.5015200","longitude":"-0.1147300","fclass":"P","fcode":"PPLX","country":"GB","cc2":"","admin1":"ENG","admin2":"GLA","admin3":"H1","admin4":"","population":0,"elevation":0,"gtopo30":14,"timezone":"Europe/London","moddate":"2019-06-07T00:00:00.000Z"},{"geonameid":12048367,"name":"Bishopsgate","asciiname":"Bishopsgate","alternatenames":"","latitude":"51.5183900","longitude":"-0.0811000","fclass":"P","fcode":"PPLX","country":"GB","cc2":"","admin1":"ENG","admin2":"GLA","admin3":"H9","admin4":"","population":0,"elevation":0,"gtopo30":39,"timezone":"Europe/London","moddate":"2019-06-07T00:00:00.000Z"},{"geonameid":12048131,"name":"Blackfen and Lamorbey","asciiname":"Blackfen and Lamorbey","alternatenames":"","latitude":"51.4455000","longitude":"0.0917200","fclass":"P","fcode":"PPLX","country":"GB","cc2":"","admin1":"ENG","admin2":"GLA","admin3":"A6","admin4":"","population":0,"elevation":0,"gtopo30":33,"timezone":"Europe/London","moddate":"2019-10-01T00:00:00.000Z"},{"geonameid":11550821,"name":"Blackfriars","asciiname":"Blackfriars","alternatenames":"","latitude":"51.5118100","longitude":"-0.1063400","fclass":"P","fcode":"PPL","country":"GB","cc2":"","admin1":"ENG","admin2":"GLA","admin3":"H9","admin4":"","population":0,"elevation":0,"gtopo30":20,"timezone":"Europe/London","moddate":"2017-06-07T00:00:00.000Z"},{"geonameid":6947041,"name":"Blackheath","asciiname":"Blackheath","alternatenames":"beullaeghiseu,blakhyth,بلاكهيث,블랙히스","latitude":"51.4647000","longitude":"0.0079000","fclass":"P","fcode":"PPL","country":"GB","cc2":"","admin1":"ENG","admin2":"GLA","admin3":"H6","admin4":"","population":25116,"elevation":0,"gtopo30":33,"timezone":"Europe/London","moddate":"2010-05-25T00:00:00.000Z"},{"geonameid":12048119,"name":"Blackheath Westcombe","asciiname":"Blackheath Westcombe","alternatenames":"","latitude":"51.4747100","longitude":"0.0166900","fclass":"P","fcode":"PPLX","country":"GB","cc2":"","admin1":"ENG","admin2":"GLA","admin3":"E7","admin4":"","population":0,"elevation":0,"gtopo30":44,"timezone":"Europe/London","moddate":"2019-06-07T00:00:00.000Z"},{"geonameid":2655438,"name":"Blackwall","asciiname":"Blackwall","alternatenames":"Blackwall,blaikavola,blyk wal  lndn,بلیک وال، لندن,ब्लैकवॉल","latitude":"51.5097100","longitude":"-0.0016000","fclass":"P","fcode":"PPLX","country":"GB","cc2":"","admin1":"ENG","admin2":"GLA","admin3":"O5","admin4":"","population":0,"elevation":0,"gtopo30":7,"timezone":"Europe/London","moddate":"2012-01-17T00:00:00.000Z"},{"geonameid":12048286,"name":"Blackwall and Cubitt Town","asciiname":"Blackwall and Cubitt Town","alternatenames":"","latitude":"51.5000400","longitude":"-0.0065600","fclass":"P","fcode":"PPLX","country":"GB","cc2":"","admin1":"ENG","admin2":"GLA","admin3":"O5","admin4":"","population":0,"elevation":0,"gtopo30":2,"timezone":"Europe/London","moddate":"2019-06-07T00:00:00.000Z"},{"geonameid":12048140,"name":"Blendon and Penhill","asciiname":"Blendon and Penhill","alternatenames":"","latitude":"51.4460100","longitude":"0.1169600","fclass":"P","fcode":"PPLX","country":"GB","cc2":"","admin1":"ENG","admin2":"GLA","admin3":"A6","admin4":"","population":0,"elevation":0,"gtopo30":32,"timezone":"Europe/London","moddate":"2019-06-07T00:00:00.000Z"},{"geonameid":2655333,"name":"Bloomsbury","asciiname":"Bloomsbury","alternatenames":"Blumsberi,Blumsburi,beullumjeubeoli,blwmsbry,blwmsbyry,blwmzbry,bu lu mu ci bo li,burumusuberi,Блумсбери,Блумсбері,Блумсбъри,בלומסברי,بلومزبری,بلومسبيري,ブルームスベリー,布卢姆茨伯里,블룸즈버리","latitude":"51.5222800","longitude":"-0.1225200","fclass":"P","fcode":"PPLX","country":"GB","cc2":"","admin1":"ENG","admin2":"GLA","admin3":"C4","admin4":"","population":0,"elevation":0,"gtopo30":33,"timezone":"Europe/London","moddate":"2013-12-04T00:00:00.000Z"},{"geonameid":12048275,"name":"Bloomsbury","asciiname":"Bloomsbury","alternatenames":"","latitude":"51.5219900","longitude":"-0.1314400","fclass":"P","fcode":"PPLX","country":"GB","cc2":"","admin1":"ENG","admin2":"GLA","admin3":"C4","admin4":"","population":0,"elevation":0,"gtopo30":38,"timezone":"Europe/London","moddate":"2019-10-01T00:00:00.000Z"},{"geonameid":12048333,"name":"Boleyn","asciiname":"Boleyn","alternatenames":"","latitude":"51.5310900","longitude":"0.0413900","fclass":"P","fcode":"PPLX","country":"GB","cc2":"","admin1":"ENG","admin2":"GLA","admin3":"I8","admin4":"","population":0,"elevation":0,"gtopo30":10,"timezone":"Europe/London","moddate":"2019-06-07T00:00:00.000Z"},{"geonameid":12048023,"name":"Botwell","asciiname":"Botwell","alternatenames":"","latitude":"51.5123300","longitude":"-0.4331400","fclass":"P","fcode":"PPLX","country":"GB","cc2":"","admin1":"ENG","admin2":"GLA","admin3":"F9","admin4":"","population":0,"elevation":0,"gtopo30":35,"timezone":"Europe/London","moddate":"2019-06-07T00:00:00.000Z"},{"geonameid":12048404,"name":"Bounds Green","asciiname":"Bounds Green","alternatenames":"","latitude":"51.6052000","longitude":"-0.1224200","fclass":"P","fcode":"PPLX","country":"GB","cc2":"","admin1":"ENG","admin2":"GLA","admin3":"F3","admin4":"","population":0,"elevation":0,"gtopo30":46,"timezone":"Europe/London","moddate":"2019-10-01T00:00:00.000Z"},{"geonameid":2655076,"name":"Bow","asciiname":"Bow","alternatenames":"bao qu,bw  lndn,بو، لندن,寶區","latitude":"51.5260900","longitude":"-0.0166500","fclass":"P","fcode":"PPLX","country":"GB","cc2":"","admin1":"ENG","admin2":"GLA","admin3":"I8","admin4":"","population":0,"elevation":0,"gtopo30":14,"timezone":"Europe/London","moddate":"2010-05-24T00:00:00.000Z"},{"geonameid":12048297,"name":"Bow East","asciiname":"Bow East","alternatenames":"","latitude":"51.5368200","longitude":"-0.0265900","fclass":"P","fcode":"PPLX","country":"GB","cc2":"","admin1":"ENG","admin2":"GLA","admin3":"O5","admin4":"","population":0,"elevation":0,"gtopo30":10,"timezone":"Europe/London","moddate":"2019-06-07T00:00:00.000Z"},{"geonameid":12048295,"name":"Bow West","asciiname":"Bow West","alternatenames":"","latitude":"51.5313800","longitude":"-0.0370400","fclass":"P","fcode":"PPLX","country":"GB","cc2":"","admin1":"ENG","admin2":"GLA","admin3":"O5","admin4":"","population":0,"elevation":0,"gtopo30":15,"timezone":"Europe/London","moddate":"2019-06-07T00:00:00.000Z"},{"geonameid":12048170,"name":"Bowes","asciiname":"Bowes","alternatenames":"","latitude":"51.6113500","longitude":"-0.1093600","fclass":"P","fcode":"PPLX","country":"GB","cc2":"","admin1":"ENG","admin2":"GLA","admin3":"E3","admin4":"","population":0,"elevation":0,"gtopo30":28,"timezone":"Europe/London","moddate":"2019-06-07T00:00:00.000Z"},{"geonameid":12048144,"name":"Brampton","asciiname":"Brampton","alternatenames":"","latitude":"51.4682400","longitude":"0.1391900","fclass":"P","fcode":"PPLX","country":"GB","cc2":"","admin1":"ENG","admin2":"GLA","admin3":"A6","admin4":"","population":0,"elevation":0,"gtopo30":53,"timezone":"Europe/London","moddate":"2019-06-07T00:00:00.000Z"},{"geonameid":12048415,"name":"Bread Street","asciiname":"Bread Street","alternatenames":"","latitude":"51.5137100","longitude":"-0.0975000","fclass":"P","fcode":"PPLX","country":"GB","cc2":"","admin1":"ENG","admin2":"GLA","admin3":"H9","admin4":"","population":0,"elevation":0,"gtopo30":30,"timezone":"Europe/London","moddate":"2019-06-07T00:00:00.000Z"},{"geonameid":2654789,"name":"Brent","asciiname":"Brent","alternatenames":"Brent,Brent keruelet,Brent kerület,London Borough of Brent,Londonska opshtina Brent,Лондонска општина Брент","latitude":"51.5530600","longitude":"-0.3023000","fclass":"P","fcode":"PPLX","country":"GB","cc2":"","admin1":"ENG","admin2":"GLA","admin3":"B5","admin4":"","population":329100,"elevation":0,"gtopo30":44,"timezone":"Europe/London","moddate":"2019-07-03T00:00:00.000Z"},{"geonameid":2654787,"name":"Brentford","asciiname":"Brentford","alternatenames":"Brentford,beulenteupeodeu,bin fu te,brentafarda,brentapharda,brntfwrd,burentofodo,Брентфорд,برنتفورد,برینٹفرڈ,ब्रेंटफर्ड,ब्रेंटफ़र्ड,ブレントフォード,賓福特,브렌트퍼드","latitude":"51.4861900","longitude":"-0.3083000","fclass":"P","fcode":"PPL","country":"GB","cc2":"","admin1":"ENG","admin2":"GLA","admin3":"D9","admin4":"","population":10750,"elevation":0,"gtopo30":15,"timezone":"Europe/London","moddate":"2012-03-01T00:00:00.000Z"},{"geonameid":12047967,"name":"Brentford","asciiname":"Brentford","alternatenames":"","latitude":"51.4927200","longitude":"-0.3017000","fclass":"P","fcode":"PPLX","country":"GB","cc2":"","admin1":"ENG","admin2":"GLA","admin3":"G1","admin4":"","population":0,"elevation":0,"gtopo30":15,"timezone":"Europe/London","moddate":"2019-10-01T00:00:00.000Z"},{"geonameid":7302129,"name":"Brick Lane","asciiname":"Brick Lane","alternatenames":"Brick Lane,Brick Ln","latitude":"51.5219400","longitude":"-0.0716700","fclass":"P","fcode":"PPLX","country":"GB","cc2":"","admin1":"ENG","admin2":"GLA","admin3":"O5","admin4":"","population":0,"elevation":0,"gtopo30":20,"timezone":"Europe/London","moddate":"2010-05-27T00:00:00.000Z"},{"geonameid":12048206,"name":"Bridge","asciiname":"Bridge","alternatenames":"","latitude":"51.6074900","longitude":"0.0472000","fclass":"P","fcode":"PPLX","country":"GB","cc2":"","admin1":"ENG","admin2":"GLA","admin3":"K8","admin4":"","population":0,"elevation":0,"gtopo30":13,"timezone":"Europe/London","moddate":"2019-06-07T00:00:00.000Z"},{"geonameid":12048324,"name":"Bridge","asciiname":"Bridge","alternatenames":"","latitude":"51.5096800","longitude":"-0.0860600","fclass":"P","fcode":"PPLX","country":"GB","cc2":"","admin1":"ENG","admin2":"GLA","admin3":"H9","admin4":"","population":0,"elevation":0,"gtopo30":29,"timezone":"Europe/London","moddate":"2019-06-07T00:00:00.000Z"},{"geonameid":6690877,"name":"Brixton","asciiname":"Brixton","alternatenames":"Brikston,beuligseuteon,brikstana,brykstwn,bryqstwn,bu li ke si dun,burikusuton,Брикстон,בריקסטון,برکسٹن,بریکستون,ब्रिक्स्टन,ブリクストン,布里克斯頓,브릭스턴","latitude":"51.4659300","longitude":"-0.1065200","fclass":"P","fcode":"PPLX","country":"GB","cc2":"","admin1":"ENG","admin2":"GLA","admin3":"H1","admin4":"","population":66300,"elevation":0,"gtopo30":14,"timezone":"Europe/London","moddate":"2010-05-25T00:00:00.000Z"},{"geonameid":6692466,"name":"Brixton Hill","asciiname":"Brixton Hill","alternatenames":"","latitude":"51.4521300","longitude":"-0.1230000","fclass":"P","fcode":"PPL","country":"GB","cc2":"","admin1":"ENG","admin2":"GLA","admin3":"H1","admin4":"","population":12458,"elevation":0,"gtopo30":33,"timezone":"Europe/London","moddate":"2010-05-25T00:00:00.000Z"},{"geonameid":12047924,"name":"Broad Green","asciiname":"Broad Green","alternatenames":"","latitude":"51.3796700","longitude":"-0.1160200","fclass":"P","fcode":"PPLX","country":"GB","cc2":"","admin1":"ENG","admin2":"GLA","admin3":"C8","admin4":"","population":0,"elevation":0,"gtopo30":41,"timezone":"Europe/London","moddate":"2019-10-01T00:00:00.000Z"},{"geonameid":12048416,"name":"Broad Street","asciiname":"Broad Street","alternatenames":"","latitude":"51.5160500","longitude":"-0.0860100","fclass":"P","fcode":"PPLX","country":"GB","cc2":"","admin1":"ENG","admin2":"GLA","admin3":"H9","admin4":"","population":0,"elevation":0,"gtopo30":39,"timezone":"Europe/London","moddate":"2019-06-07T00:00:00.000Z"},{"geonameid":11551040,"name":"Brockley","asciiname":"Brockley","alternatenames":"","latitude":"51.4636900","longitude":"-0.0365200","fclass":"P","fcode":"PPL","country":"GB","cc2":"","admin1":"ENG","admin2":"GLA","admin3":"H6","admin4":"","population":0,"elevation":0,"gtopo30":25,"timezone":"Europe/London","moddate":"2017-06-08T00:00:00.000Z"},{"geonameid":6697033,"name":"Brockley Hill","asciiname":"Brockley Hill","alternatenames":"","latitude":"51.6343100","longitude":"-0.3055600","fclass":"P","fcode":"PPLX","country":"GB","cc2":"","admin1":"ENG","admin2":"GLA","admin3":"F4","admin4":"","population":0,"elevation":0,"gtopo30":131,"timezone":"Europe/London","moddate":"2012-02-20T00:00:00.000Z"},{"geonameid":2654588,"name":"Bromley","asciiname":"Bromley","alternatenames":"Bromley,Bromley keruelet,Bromley kerület,Bromli,beulomli,bromali,brwmly,bu luo mu li,buromuri,Бромли,Бромлі,بروملی,ब्रॉमली,ブロムリー,布羅姆利,브롬리","latitude":"51.4060600","longitude":"0.0151900","fclass":"P","fcode":"PPLA3","country":"GB","cc2":"","admin1":"ENG","admin2":"GLA","admin3":"B8","admin4":"","population":0,"elevation":0,"gtopo30":72,"timezone":"Europe/London","moddate":"2019-10-01T00:00:00.000Z"},{"geonameid":12047952,"name":"Bromley Common and Keston","asciiname":"Bromley Common and Keston","alternatenames":"","latitude":"51.3725600","longitude":"0.0407700","fclass":"P","fcode":"PPLX","country":"GB","cc2":"","admin1":"ENG","admin2":"GLA","admin3":"B8","admin4":"","population":0,"elevation":0,"gtopo30":81,"timezone":"Europe/London","moddate":"2019-06-07T00:00:00.000Z"},{"geonameid":12047942,"name":"Bromley Town","asciiname":"Bromley Town","alternatenames":"","latitude":"51.4037200","longitude":"0.0147200","fclass":"P","fcode":"PPLX","country":"GB","cc2":"","admin1":"ENG","admin2":"GLA","admin3":"B8","admin4":"","population":0,"elevation":0,"gtopo30":69,"timezone":"Europe/London","moddate":"2019-06-07T00:00:00.000Z"},{"geonameid":12048291,"name":"Bromley-by-Bow","asciiname":"Bromley-by-Bow","alternatenames":"","latitude":"51.5234400","longitude":"-0.0164500","fclass":"P","fcode":"PPLX","country":"GB","cc2":"","admin1":"ENG","admin2":"GLA","admin3":"O5","admin4":"","population":0,"elevation":0,"gtopo30":8,"timezone":"Europe/London","moddate":"2019-10-01T00:00:00.000Z"},{"geonameid":12048236,"name":"Brompton","asciiname":"Brompton","alternatenames":"","latitude":"51.4958300","longitude":"-0.1699800","fclass":"P","fcode":"PPLX","country":"GB","cc2":"","admin1":"ENG","admin2":"GLA","admin3":"G4","admin4":"","population":0,"elevation":0,"gtopo30":18,"timezone":"Europe/London","moddate":"2019-10-01T00:00:00.000Z"},{"geonameid":12048046,"name":"Brondesbury Park","asciiname":"Brondesbury Park","alternatenames":"","latitude":"51.5428800","longitude":"-0.2188900","fclass":"P","fcode":"PPLX","country":"GB","cc2":"","admin1":"ENG","admin2":"GLA","admin3":"B5","admin4":"","population":0,"elevation":0,"gtopo30":66,"timezone":"Europe/London","moddate":"2019-10-01T00:00:00.000Z"},{"geonameid":6615602,"name":"Brook Green","asciiname":"Brook Green","alternatenames":"","latitude":"51.5019400","longitude":"-0.2183700","fclass":"P","fcode":"PPLX","country":"GB","cc2":"","admin1":"ENG","admin2":"GLA","admin3":"F1","admin4":"","population":0,"elevation":0,"gtopo30":9,"timezone":"Europe/London","moddate":"2014-06-11T00:00:00.000Z"},{"geonameid":12047987,"name":"Brooklands","asciiname":"Brooklands","alternatenames":"","latitude":"51.5728800","longitude":"0.1651000","fclass":"P","fcode":"PPLX","country":"GB","cc2":"","admin1":"ENG","admin2":"GLA","admin3":"F6","admin4":"","population":0,"elevation":0,"gtopo30":18,"timezone":"Europe/London","moddate":"2019-06-07T00:00:00.000Z"},{"geonameid":12048013,"name":"Brownswood","asciiname":"Brownswood","alternatenames":"","latitude":"51.5661900","longitude":"-0.0952700","fclass":"P","fcode":"PPLX","country":"GB","cc2":"","admin1":"ENG","admin2":"GLA","admin3":"E8","admin4":"","population":0,"elevation":0,"gtopo30":32,"timezone":"Europe/London","moddate":"2019-06-07T00:00:00.000Z"},{"geonameid":12048399,"name":"Bruce Grove","asciiname":"Bruce Grove","alternatenames":"","latitude":"51.5933200","longitude":"-0.0759200","fclass":"P","fcode":"PPLX","country":"GB","cc2":"","admin1":"ENG","admin2":"GLA","admin3":"F3","admin4":"","population":0,"elevation":0,"gtopo30":23,"timezone":"Europe/London","moddate":"2019-06-07T00:00:00.000Z"},{"geonameid":12048019,"name":"Brunel","asciiname":"Brunel","alternatenames":"","latitude":"51.5281400","longitude":"-0.4641300","fclass":"P","fcode":"PPLX","country":"GB","cc2":"","admin1":"ENG","admin2":"GLA","admin3":"F9","admin4":"","population":0,"elevation":0,"gtopo30":41,"timezone":"Europe/London","moddate":"2019-06-07T00:00:00.000Z"},{"geonameid":12048074,"name":"Brunswick Park","asciiname":"Brunswick Park","alternatenames":"","latitude":"51.6285900","longitude":"-0.1448800","fclass":"P","fcode":"PPLX","country":"GB","cc2":"","admin1":"ENG","admin2":"GLA","admin3":"A2","admin4":"","population":0,"elevation":0,"gtopo30":43,"timezone":"Europe/London","moddate":"2019-10-01T00:00:00.000Z"},{"geonameid":12048089,"name":"Brunswick Park","asciiname":"Brunswick Park","alternatenames":"","latitude":"51.4737400","longitude":"-0.0851300","fclass":"P","fcode":"PPLX","country":"GB","cc2":"","admin1":"ENG","admin2":"GLA","admin3":"M8","admin4":"","population":0,"elevation":0,"gtopo30":11,"timezone":"Europe/London","moddate":"2019-06-07T00:00:00.000Z"},{"geonameid":12047929,"name":"Bryanston and Dorset Square","asciiname":"Bryanston and Dorset Square","alternatenames":"","latitude":"51.5195500","longitude":"-0.1619700","fclass":"P","fcode":"PPLX","country":"GB","cc2":"","admin1":"ENG","admin2":"GLA","admin3":"P5","admin4":"","population":0,"elevation":0,"gtopo30":32,"timezone":"Europe/London","moddate":"2019-06-07T00:00:00.000Z"},{"geonameid":12048298,"name":"Bunhill","asciiname":"Bunhill","alternatenames":"","latitude":"51.5249200","longitude":"-0.0946000","fclass":"P","fcode":"PPLX","country":"GB","cc2":"","admin1":"ENG","admin2":"GLA","admin3":"G3","admin4":"","population":0,"elevation":0,"gtopo30":25,"timezone":"Europe/London","moddate":"2019-06-07T00:00:00.000Z"},{"geonameid":8394363,"name":"Burnt Oak","asciiname":"Burnt Oak","alternatenames":"","latitude":"51.6021300","longitude":"-0.2664200","fclass":"P","fcode":"PPL","country":"GB","cc2":"","admin1":"ENG","admin2":"GLA","admin3":"A2","admin4":"","population":0,"elevation":0,"gtopo30":50,"timezone":"Europe/London","moddate":"2012-09-28T00:00:00.000Z"},{"geonameid":12048173,"name":"Bush Hill Park","asciiname":"Bush Hill Park","alternatenames":"","latitude":"51.6352300","longitude":"-0.0784300","fclass":"P","fcode":"PPLX","country":"GB","cc2":"","admin1":"ENG","admin2":"GLA","admin3":"E3","admin4":"","population":0,"elevation":0,"gtopo30":22,"timezone":"Europe/London","moddate":"2019-10-01T00:00:00.000Z"},{"geonameid":10104887,"name":"Bushey Mead","asciiname":"Bushey Mead","alternatenames":"","latitude":"51.4003300","longitude":"-0.2235900","fclass":"P","fcode":"PPLX","country":"GB","cc2":"","admin1":"ENG","admin2":"GLA","admin3":"I4","admin4":"","population":0,"elevation":0,"gtopo30":31,"timezone":"Europe/London","moddate":"2015-02-19T00:00:00.000Z"},{"geonameid":12048395,"name":"Caledonian","asciiname":"Caledonian","alternatenames":"","latitude":"51.5404800","longitude":"-0.1189700","fclass":"P","fcode":"PPLX","country":"GB","cc2":"","admin1":"ENG","admin2":"GLA","admin3":"G3","admin4":"","population":0,"elevation":0,"gtopo30":35,"timezone":"Europe/London","moddate":"2019-06-07T00:00:00.000Z"},{"geonameid":3345438,"name":"Camberwell","asciiname":"Camberwell","alternatenames":"Kamberuehll,kan bo wei er,kembaravela,Камберуэлл,केम्बरवेल,坎伯韦尔","latitude":"51.4739000","longitude":"-0.0938100","fclass":"P","fcode":"PPLA3","country":"GB","cc2":"","admin1":"ENG","admin2":"GLA","admin3":"M8","admin4":"","population":0,"elevation":0,"gtopo30":8,"timezone":"Europe/London","moddate":"2010-10-17T00:00:00.000Z"},{"geonameid":12048087,"name":"Camberwell Green","asciiname":"Camberwell Green","alternatenames":"","latitude":"51.4770900","longitude":"-0.0956300","fclass":"P","fcode":"PPLX","country":"GB","cc2":"","admin1":"ENG","admin2":"GLA","admin3":"M8","admin4":"","population":0,"elevation":0,"gtopo30":7,"timezone":"Europe/London","moddate":"2019-06-07T00:00:00.000Z"},{"geonameid":11875492,"name":"Camden Area","asciiname":"Camden Area","alternatenames":"","latitude":"51.5404800","longitude":"-0.1427800","fclass":"P","fcode":"PPL","country":"GB","cc2":"","admin1":"ENG","admin2":"GLA","admin3":"C4","admin4":"","population":0,"elevation":0,"gtopo30":46,"timezone":"Europe/London","moddate":"2018-05-25T00:00:00.000Z"},{"geonameid":3345437,"name":"Camden Town","asciiname":"Camden Town","alternatenames":"Camden,kaemdeontaun,kang deng zhen,קמדן טאון,کیمڈن ٹاؤن,カムデン・タウン,康登鎮,캠던타운","latitude":"51.5405700","longitude":"-0.1433400","fclass":"P","fcode":"PPLA3","country":"GB","cc2":"","admin1":"ENG","admin2":"GLA","admin3":"C4","admin4":"","population":26122,"elevation":0,"gtopo30":32,"timezone":"Europe/London","moddate":"2015-10-05T00:00:00.000Z"},{"geonameid":12048277,"name":"Camden Town with Primrose Hill","asciiname":"Camden Town with Primrose Hill","alternatenames":"","latitude":"51.5403100","longitude":"-0.1491100","fclass":"P","fcode":"PPLX","country":"GB","cc2":"","admin1":"ENG","admin2":"GLA","admin3":"C4","admin4":"","population":0,"elevation":0,"gtopo30":36,"timezone":"Europe/London","moddate":"2019-06-07T00:00:00.000Z"},{"geonameid":12048384,"name":"Campden","asciiname":"Campden","alternatenames":"","latitude":"51.5056400","longitude":"-0.1937200","fclass":"P","fcode":"PPLX","country":"GB","cc2":"","admin1":"ENG","admin2":"GLA","admin3":"G4","admin4":"","population":0,"elevation":0,"gtopo30":32,"timezone":"Europe/London","moddate":"2019-06-07T00:00:00.000Z"},{"geonameid":6692280,"name":"Canary Wharf","asciiname":"Canary Wharf","alternatenames":"Kanari-Uorf,Kanehri-Uorf,jin si que ma tou,kanali wopeu,knary warf,kynry warf  lndn,qnry wwrp,Канэри-Уорф,קנרי וורף,كناري وارف,کینری وارف، لندن,カナリー・ワーフ,金丝雀码头,카나리 워프","latitude":"51.5051900","longitude":"-0.0208500","fclass":"P","fcode":"PPLX","country":"GB","cc2":"","admin1":"ENG","admin2":"GLA","admin3":"O5","admin4":"","population":73390,"elevation":0,"gtopo30":32,"timezone":"Europe/London","moddate":"2019-10-01T00:00:00.000Z"},{"geonameid":12047909,"name":"Canbury","asciiname":"Canbury","alternatenames":"","latitude":"51.4168500","longitude":"-0.2946600","fclass":"P","fcode":"PPLX","country":"GB","cc2":"","admin1":"ENG","admin2":"GLA","admin3":"G7","admin4":"","population":0,"elevation":0,"gtopo30":10,"timezone":"Europe/London","moddate":"2019-09-30T00:00:00.000Z"},{"geonameid":12048436,"name":"Candlewick","asciiname":"Candlewick","alternatenames":"","latitude":"51.5113900","longitude":"-0.0870000","fclass":"P","fcode":"PPLX","country":"GB","cc2":"","admin1":"ENG","admin2":"GLA","admin3":"H9","admin4":"","population":0,"elevation":0,"gtopo30":36,"timezone":"Europe/London","moddate":"2019-06-07T00:00:00.000Z"},{"geonameid":12048190,"name":"Cann Hall","asciiname":"Cann Hall","alternatenames":"","latitude":"51.5572000","longitude":"0.0119000","fclass":"P","fcode":"PPLX","country":"GB","cc2":"","admin1":"ENG","admin2":"GLA","admin3":"O9","admin4":"","population":0,"elevation":0,"gtopo30":16,"timezone":"Europe/London","moddate":"2019-09-30T00:00:00.000Z"},{"geonameid":11549407,"name":"Canning Town","asciiname":"Canning Town","alternatenames":"","latitude":"51.5136300","longitude":"0.0194800","fclass":"P","fcode":"PPL","country":"GB","cc2":"","admin1":"ENG","admin2":"GLA","admin3":"I8","admin4":"","population":0,"elevation":0,"gtopo30":3,"timezone":"Europe/London","moddate":"2017-05-22T00:00:00.000Z"},{"geonameid":12048411,"name":"Canning Town North","asciiname":"Canning Town North","alternatenames":"","latitude":"51.5224000","longitude":"0.0072800","fclass":"P","fcode":"PPLX","country":"GB","cc2":"","admin1":"ENG","admin2":"GLA","admin3":"I8","admin4":"","population":0,"elevation":0,"gtopo30":1,"timezone":"Europe/London","moddate":"2019-06-07T00:00:00.000Z"},{"geonameid":12048331,"name":"Canning Town South","asciiname":"Canning Town South","alternatenames":"","latitude":"51.5124700","longitude":"0.0167800","fclass":"P","fcode":"PPLX","country":"GB","cc2":"","admin1":"ENG","admin2":"GLA","admin3":"I8","admin4":"","population":0,"elevation":0,"gtopo30":2,"timezone":"Europe/London","moddate":"2019-06-07T00:00:00.000Z"},{"geonameid":12048373,"name":"Cannon Hill","asciiname":"Cannon Hill","alternatenames":"","latitude":"51.4008500","longitude":"-0.2144800","fclass":"P","fcode":"PPLX","country":"GB","cc2":"","admin1":"ENG","admin2":"GLA","admin3":"I4","admin4":"","population":0,"elevation":0,"gtopo30":19,"timezone":"Europe/London","moddate":"2019-09-30T00:00:00.000Z"},{"geonameid":11552742,"name":"Cannon Street","asciiname":"Cannon Street","alternatenames":"","latitude":"51.5115300","longitude":"-0.0914500","fclass":"P","fcode":"PPL","country":"GB","cc2":"","admin1":"ENG","admin2":"GLA","admin3":"H9","admin4":"","population":0,"elevation":0,"gtopo30":26,"timezone":"Europe/London","moddate":"2017-06-08T00:00:00.000Z"},{"geonameid":12048301,"name":"Canonbury","asciiname":"Canonbury","alternatenames":"","latitude":"51.5433900","longitude":"-0.0912000","fclass":"P","fcode":"PPLX","country":"GB","cc2":"","admin1":"ENG","admin2":"GLA","admin3":"G3","admin4":"","population":0,"elevation":0,"gtopo30":24,"timezone":"Europe/London","moddate":"2019-09-30T00:00:00.000Z"},{"geonameid":12048037,"name":"Canons","asciiname":"Canons","alternatenames":"","latitude":"51.6230100","longitude":"-0.3057000","fclass":"P","fcode":"PPLX","country":"GB","cc2":"","admin1":"ENG","admin2":"GLA","admin3":"F4","admin4":"","population":0,"elevation":0,"gtopo30":115,"timezone":"Europe/London","moddate":"2019-06-07T00:00:00.000Z"},{"geonameid":8394364,"name":"Canons Park","asciiname":"Canons Park","alternatenames":"","latitude":"51.6074600","longitude":"-0.2954100","fclass":"P","fcode":"PPL","country":"GB","cc2":"","admin1":"ENG","admin2":"GLA","admin3":"F4","admin4":"","population":0,"elevation":0,"gtopo30":66,"timezone":"Europe/London","moddate":"2012-09-28T00:00:00.000Z"},{"geonameid":12048278,"name":"Cantelowes","asciiname":"Cantelowes","alternatenames":"","latitude":"51.5450500","longitude":"-0.1337000","fclass":"P","fcode":"PPLX","country":"GB","cc2":"","admin1":"ENG","admin2":"GLA","admin3":"C4","admin4":"","population":0,"elevation":0,"gtopo30":40,"timezone":"Europe/London","moddate":"2019-06-07T00:00:00.000Z"},{"geonameid":2653646,"name":"Carshalton","asciiname":"Carshalton","alternatenames":"Carshalton,karshaltwn,کارشالتون","latitude":"51.3682900","longitude":"-0.1675500","fclass":"P","fcode":"PPL","country":"GB","cc2":"","admin1":"ENG","admin2":"GLA","admin3":"N8","admin4":"","population":45525,"elevation":0,"gtopo30":39,"timezone":"Europe/London","moddate":"2012-06-01T00:00:00.000Z"},{"geonameid":10104036,"name":"Carshalton Beeches","asciiname":"Carshalton Beeches","alternatenames":"","latitude":"51.3491600","longitude":"-0.1757400","fclass":"P","fcode":"PPLX","country":"GB","cc2":"","admin1":"ENG","admin2":"GLA","admin3":"N8","admin4":"","population":0,"elevation":0,"gtopo30":74,"timezone":"Europe/London","moddate":"2015-02-17T00:00:00.000Z"},{"geonameid":12048222,"name":"Carshalton Central","asciiname":"Carshalton Central","alternatenames":"","latitude":"51.3643900","longitude":"-0.1696100","fclass":"P","fcode":"PPLX","country":"GB","cc2":"","admin1":"ENG","admin2":"GLA","admin3":"N8","admin4":"","population":0,"elevation":0,"gtopo30":45,"timezone":"Europe/London","moddate":"2019-06-07T00:00:00.000Z"},{"geonameid":10104035,"name":"Carshalton on the Hill","asciiname":"Carshalton on the Hill","alternatenames":"","latitude":"51.3536700","longitude":"-0.1629900","fclass":"P","fcode":"PPLX","country":"GB","cc2":"","admin1":"ENG","admin2":"GLA","admin3":"N8","admin4":"","population":0,"elevation":0,"gtopo30":83,"timezone":"Europe/London","moddate":"2015-02-17T00:00:00.000Z"},{"geonameid":12048213,"name":"Carshalton South and Clockhouse","asciiname":"Carshalton South and Clockhouse","alternatenames":"","latitude":"51.3403900","longitude":"-0.1632000","fclass":"P","fcode":"PPLX","country":"GB","cc2":"","admin1":"ENG","admin2":"GLA","admin3":"N8","admin4":"","population":0,"elevation":0,"gtopo30":91,"timezone":"Europe/London","moddate":"2019-06-07T00:00:00.000Z"},{"geonameid":6690797,"name":"Castelnau","asciiname":"Castelnau","alternatenames":"","latitude":"51.4856600","longitude":"-0.2320900","fclass":"P","fcode":"PPLX","country":"GB","cc2":"","admin1":"ENG","admin2":"GLA","admin3":"L1","admin4":"","population":0,"elevation":0,"gtopo30":7,"timezone":"Europe/London","moddate":"2010-05-25T00:00:00.000Z"},{"geonameid":12048363,"name":"Castle Baynard","asciiname":"Castle Baynard","alternatenames":"","latitude":"51.5127500","longitude":"-0.1046700","fclass":"P","fcode":"PPLX","country":"GB","cc2":"","admin1":"ENG","admin2":"GLA","admin3":"H9","admin4":"","population":0,"elevation":0,"gtopo30":21,"timezone":"Europe/London","moddate":"2019-06-07T00:00:00.000Z"},{"geonameid":2653516,"name":"Catford","asciiname":"Catford","alternatenames":"ka te fu de,卡特福德","latitude":"51.4449100","longitude":"-0.0204300","fclass":"P","fcode":"PPLA3","country":"GB","cc2":"","admin1":"ENG","admin2":"GLA","admin3":"H6","admin4":"","population":0,"elevation":0,"gtopo30":22,"timezone":"Europe/London","moddate":"2010-10-17T00:00:00.000Z"},{"geonameid":12048195,"name":"Catford South","asciiname":"Catford South","alternatenames":"","latitude":"51.4393400","longitude":"-0.0086600","fclass":"P","fcode":"PPLX","country":"GB","cc2":"","admin1":"ENG","admin2":"GLA","admin3":"H6","admin4":"","population":0,"elevation":0,"gtopo30":26,"timezone":"Europe/London","moddate":"2019-06-07T00:00:00.000Z"},{"geonameid":12048171,"name":"Cathall","asciiname":"Cathall","alternatenames":"","latitude":"51.5564900","longitude":"0.0002900","fclass":"P","fcode":"PPLX","country":"GB","cc2":"","admin1":"ENG","admin2":"GLA","admin3":"O9","admin4":"","population":0,"elevation":0,"gtopo30":13,"timezone":"Europe/London","moddate":"2019-06-07T00:00:00.000Z"},{"geonameid":12048093,"name":"Cathedrals","asciiname":"Cathedrals","alternatenames":"","latitude":"51.5024500","longitude":"-0.1008200","fclass":"P","fcode":"PPLX","country":"GB","cc2":"","admin1":"ENG","admin2":"GLA","admin3":"M8","admin4":"","population":0,"elevation":0,"gtopo30":7,"timezone":"Europe/London","moddate":"2019-06-07T00:00:00.000Z"},{"geonameid":12047985,"name":"Cavendish","asciiname":"Cavendish","alternatenames":"","latitude":"51.5703200","longitude":"-0.3965500","fclass":"P","fcode":"PPLX","country":"GB","cc2":"","admin1":"ENG","admin2":"GLA","admin3":"F9","admin4":"","population":0,"elevation":0,"gtopo30":44,"timezone":"Europe/London","moddate":"2019-06-07T00:00:00.000Z"},{"geonameid":12048310,"name":"Cazenove","asciiname":"Cazenove","alternatenames":"","latitude":"51.5660000","longitude":"-0.0668300","fclass":"P","fcode":"PPLX","country":"GB","cc2":"","admin1":"ENG","admin2":"GLA","admin3":"E8","admin4":"","population":0,"elevation":0,"gtopo30":31,"timezone":"Europe/London","moddate":"2019-06-07T00:00:00.000Z"},{"geonameid":12048344,"name":"Chadwell","asciiname":"Chadwell","alternatenames":"","latitude":"51.5752800","longitude":"0.1235300","fclass":"P","fcode":"PPLX","country":"GB","cc2":"","admin1":"ENG","admin2":"GLA","admin3":"K8","admin4":"","population":0,"elevation":0,"gtopo30":23,"timezone":"Europe/London","moddate":"2019-06-07T00:00:00.000Z"},{"geonameid":6690869,"name":"Chadwell Heath","asciiname":"Chadwell Heath","alternatenames":"caidavela hitha,चैडवेल हीथ","latitude":"51.5712100","longitude":"0.1327100","fclass":"P","fcode":"PPLX","country":"GB","cc2":"","admin1":"ENG","admin2":"GLA","admin3":"A1","admin4":"","population":9598,"elevation":0,"gtopo30":20,"timezone":"Europe/London","moddate":"2011-03-03T00:00:00.000Z"},{"geonameid":12048357,"name":"Chadwell Heath","asciiname":"Chadwell Heath","alternatenames":"","latitude":"51.5847500","longitude":"0.1399900","fclass":"P","fcode":"PPLX","country":"GB","cc2":"","admin1":"ENG","admin2":"GLA","admin3":"A1","admin4":"","population":0,"elevation":0,"gtopo30":36,"timezone":"Europe/London","moddate":"2019-09-30T00:00:00.000Z"},{"geonameid":6690583,"name":"Chalk Farm","asciiname":"Chalk Farm","alternatenames":"","latitude":"51.5431300","longitude":"-0.1498700","fclass":"P","fcode":"PPL","country":"GB","cc2":"","admin1":"ENG","admin2":"GLA","admin3":"C4","admin4":"","population":0,"elevation":0,"gtopo30":33,"timezone":"Europe/London","moddate":"2011-03-03T00:00:00.000Z"},{"geonameid":12048187,"name":"Chapel End","asciiname":"Chapel End","alternatenames":"","latitude":"51.5972900","longitude":"-0.0119800","fclass":"P","fcode":"PPLX","country":"GB","cc2":"","admin1":"ENG","admin2":"GLA","admin3":"O9","admin4":"","population":0,"elevation":0,"gtopo30":17,"timezone":"Europe/London","moddate":"2019-06-07T00:00:00.000Z"},{"geonameid":2653341,"name":"Charing Cross","asciiname":"Charing Cross","alternatenames":"Charing Cross,Charing-Kross,cha ling shi zi,chaelingkeuloseu,zryng qrws,Чаринг-Кросс,צרינג קרוס,チャリング・クロス,查令十字,채링크로스","latitude":"51.5084800","longitude":"-0.1249300","fclass":"P","fcode":"PPLX","country":"GB","cc2":"","admin1":"ENG","admin2":"GLA","admin3":"P5","admin4":"","population":0,"elevation":0,"gtopo30":26,"timezone":"Europe/London","moddate":"2010-08-03T00:00:00.000Z"},{"geonameid":8741036,"name":"Charlton","asciiname":"Charlton","alternatenames":"cha er dun,charuton,チャールトン,查爾頓","latitude":"51.4850000","longitude":"0.0403200","fclass":"P","fcode":"PPL","country":"GB","cc2":"","admin1":"ENG","admin2":"GLA","admin3":"E7","admin4":"","population":0,"elevation":0,"gtopo30":34,"timezone":"Europe/London","moddate":"2014-04-04T00:00:00.000Z"},{"geonameid":12048031,"name":"Charville","asciiname":"Charville","alternatenames":"","latitude":"51.5322700","longitude":"-0.4267900","fclass":"P","fcode":"PPLX","country":"GB","cc2":"","admin1":"ENG","admin2":"GLA","admin3":"F9","admin4":"","population":0,"elevation":0,"gtopo30":34,"timezone":"Europe/London","moddate":"2019-06-07T00:00:00.000Z"},{"geonameid":12048248,"name":"Chase","asciiname":"Chase","alternatenames":"","latitude":"51.6772500","longitude":"-0.1022700","fclass":"P","fcode":"PPLX","country":"GB","cc2":"","admin1":"ENG","admin2":"GLA","admin3":"E3","admin4":"","population":0,"elevation":0,"gtopo30":64,"timezone":"Europe/London","moddate":"2019-06-07T00:00:00.000Z"},{"geonameid":12048313,"name":"Chatham","asciiname":"Chatham","alternatenames":"","latitude":"51.5483400","longitude":"-0.0480800","fclass":"P","fcode":"PPLX","country":"GB","cc2":"","admin1":"ENG","admin2":"GLA","admin3":"E8","admin4":"","population":0,"elevation":0,"gtopo30":17,"timezone":"Europe/London","moddate":"2019-06-07T00:00:00.000Z"},{"geonameid":12048096,"name":"Chaucer","asciiname":"Chaucer","alternatenames":"","latitude":"51.4979500","longitude":"-0.0907900","fclass":"P","fcode":"PPLX","country":"GB","cc2":"","admin1":"ENG","admin2":"GLA","admin3":"M8","admin4":"","population":0,"elevation":0,"gtopo30":9,"timezone":"Europe/London","moddate":"2019-06-07T00:00:00.000Z"},{"geonameid":2653289,"name":"Cheam","asciiname":"Cheam","alternatenames":"Cheam","latitude":"51.3617900","longitude":"-0.2197700","fclass":"P","fcode":"PPLX","country":"GB","cc2":"","admin1":"ENG","admin2":"GLA","admin3":"N8","admin4":"","population":11286,"elevation":0,"gtopo30":55,"timezone":"Europe/London","moddate":"2015-07-19T00:00:00.000Z"},{"geonameid":12047943,"name":"Cheap","asciiname":"Cheap","alternatenames":"","latitude":"51.5150300","longitude":"-0.0944400","fclass":"P","fcode":"PPLX","country":"GB","cc2":"","admin1":"ENG","admin2":"GLA","admin3":"H9","admin4":"","population":0,"elevation":0,"gtopo30":30,"timezone":"Europe/London","moddate":"2019-06-07T00:00:00.000Z"},{"geonameid":2653265,"name":"Chelsea","asciiname":"Chelsea","alternatenames":"Celsi,Chelsea,Chelsi,Tselsi,che lu shi,chelsi,cherushi,chlsy,qie er xi,tshylsy  lndn,Çelsi,Τσέλσι,Челси,Челсі,تشيلسي، لندن,چلسی,チェルシー,切爾西,車路士,첼시","latitude":"51.4875500","longitude":"-0.1693600","fclass":"P","fcode":"PPLX","country":"GB","cc2":"","admin1":"ENG","admin2":"GLA","admin3":"G4","admin4":"","population":60000,"elevation":0,"gtopo30":12,"timezone":"Europe/London","moddate":"2020-03-06T00:00:00.000Z"},{"geonameid":8531799,"name":"Chelsea Embankment","asciiname":"Chelsea Embankment","alternatenames":"","latitude":"51.4842500","longitude":"-0.1607800","fclass":"P","fcode":"PPLX","country":"GB","cc2":"","admin1":"ENG","admin2":"GLA","admin3":"P5","admin4":"","population":0,"elevation":0,"gtopo30":10,"timezone":"Europe/London","moddate":"2016-10-10T00:00:00.000Z"},{"geonameid":2653264,"name":"Chelsfield","asciiname":"Chelsfield","alternatenames":"","latitude":"51.3580600","longitude":"0.1277200","fclass":"P","fcode":"PPL","country":"GB","cc2":"","admin1":"ENG","admin2":"GLA","admin3":"B8","admin4":"","population":0,"elevation":0,"gtopo30":127,"timezone":"Europe/London","moddate":"2011-02-05T00:00:00.000Z"},{"geonameid":12047955,"name":"Chelsfield and Pratts Bottom","asciiname":"Chelsfield and Pratts Bottom","alternatenames":"","latitude":"51.3510400","longitude":"0.1132100","fclass":"P","fcode":"PPLX","country":"GB","cc2":"","admin1":"ENG","admin2":"GLA","admin3":"B8","admin4":"","population":0,"elevation":0,"gtopo30":135,"timezone":"Europe/London","moddate":"2019-06-07T00:00:00.000Z"},{"geonameid":2653229,"name":"Chessington","asciiname":"Chessington","alternatenames":"Chessington,cesingtana,चेसिंग्टन","latitude":"51.3624000","longitude":"-0.3042700","fclass":"P","fcode":"PPL","country":"GB","cc2":"","admin1":"ENG","admin2":"GLA","admin3":"G7","admin4":"","population":19433,"elevation":0,"gtopo30":44,"timezone":"Europe/London","moddate":"2012-06-01T00:00:00.000Z"},{"geonameid":12048434,"name":"Chessington North and Hook","asciiname":"Chessington North and Hook","alternatenames":"","latitude":"51.3681500","longitude":"-0.3053700","fclass":"P","fcode":"PPLX","country":"GB","cc2":"","admin1":"ENG","admin2":"GLA","admin3":"G7","admin4":"","population":0,"elevation":0,"gtopo30":35,"timezone":"Europe/London","moddate":"2019-06-07T00:00:00.000Z"},{"geonameid":12047905,"name":"Chessington South","asciiname":"Chessington South","alternatenames":"","latitude":"51.3479700","longitude":"-0.3120300","fclass":"P","fcode":"PPLX","country":"GB","cc2":"","admin1":"ENG","admin2":"GLA","admin3":"G7","admin4":"","population":0,"elevation":0,"gtopo30":48,"timezone":"Europe/London","moddate":"2019-06-07T00:00:00.000Z"},{"geonameid":12048066,"name":"Childs Hill","asciiname":"Childs Hill","alternatenames":"","latitude":"51.5650800","longitude":"-0.2026500","fclass":"P","fcode":"PPLX","country":"GB","cc2":"","admin1":"ENG","admin2":"GLA","admin3":"A2","admin4":"","population":0,"elevation":0,"gtopo30":61,"timezone":"Europe/London","moddate":"2019-06-07T00:00:00.000Z"},{"geonameid":2653148,"name":"Chingford","asciiname":"Chingford","alternatenames":"chyngfwrd,چینگفورد","latitude":"51.6303300","longitude":"0.0005100","fclass":"P","fcode":"PPL","country":"GB","cc2":"","admin1":"ENG","admin2":"GLA","admin3":"O9","admin4":"","population":0,"elevation":0,"gtopo30":56,"timezone":"Europe/London","moddate":"2010-05-24T00:00:00.000Z"},{"geonameid":12048183,"name":"Chingford Green","asciiname":"Chingford Green","alternatenames":"","latitude":"51.6357900","longitude":"0.0052500","fclass":"P","fcode":"PPLX","country":"GB","cc2":"","admin1":"ENG","admin2":"GLA","admin3":"O9","admin4":"","population":0,"elevation":0,"gtopo30":61,"timezone":"Europe/London","moddate":"2019-06-07T00:00:00.000Z"},{"geonameid":2653123,"name":"Chislehurst","asciiname":"Chislehurst","alternatenames":"Chislehurst,Chizlkherst,cisalaharsta,zyzlhrst,Чизлхерст,ציזלהרסט,چزلہرسٹ، لندن,चिसलहर्स्ट","latitude":"51.4170900","longitude":"0.0685800","fclass":"P","fcode":"PPL","country":"GB","cc2":"","admin1":"ENG","admin2":"GLA","admin3":"B8","admin4":"","population":20000,"elevation":0,"gtopo30":86,"timezone":"Europe/London","moddate":"2012-06-01T00:00:00.000Z"},{"geonameid":2653121,"name":"Chiswick","asciiname":"Chiswick","alternatenames":"Chiswick,Chizik,Chyzik,chijeuwig,chijikku,chyzwyk,cizika,qi si wei ke,tshyswk,zyzwwyq,Чизик,Чизік,Чызік,ציזוויק,تشيسوك,چیزویک,चिज़िक,チジック,奇斯威克,치즈윅","latitude":"51.4927100","longitude":"-0.2580100","fclass":"P","fcode":"PPLX","country":"GB","cc2":"","admin1":"ENG","admin2":"GLA","admin3":"G1","admin4":"","population":0,"elevation":0,"gtopo30":10,"timezone":"Europe/London","moddate":"2011-02-08T00:00:00.000Z"},{"geonameid":12047969,"name":"Chiswick Homefields","asciiname":"Chiswick Homefields","alternatenames":"","latitude":"51.4839400","longitude":"-0.2543300","fclass":"P","fcode":"PPLX","country":"GB","cc2":"","admin1":"ENG","admin2":"GLA","admin3":"G1","admin4":"","population":0,"elevation":0,"gtopo30":9,"timezone":"Europe/London","moddate":"2019-06-07T00:00:00.000Z"},{"geonameid":12048003,"name":"Chiswick Riverside","asciiname":"Chiswick Riverside","alternatenames":"","latitude":"51.4833300","longitude":"-0.2705200","fclass":"P","fcode":"PPLX","country":"GB","cc2":"","admin1":"ENG","admin2":"GLA","admin3":"G1","admin4":"","population":0,"elevation":0,"gtopo30":10,"timezone":"Europe/London","moddate":"2019-06-07T00:00:00.000Z"},{"geonameid":12048136,"name":"Christchurch","asciiname":"Christchurch","alternatenames":"","latitude":"51.4551300","longitude":"0.1409700","fclass":"P","fcode":"PPLX","country":"GB","cc2":"","admin1":"ENG","admin2":"GLA","admin3":"A6","admin4":"","population":0,"elevation":0,"gtopo30":51,"timezone":"Europe/London","moddate":"2019-06-07T00:00:00.000Z"},{"geonameid":12048209,"name":"Church End","asciiname":"Church End","alternatenames":"","latitude":"51.5975000","longitude":"0.0219400","fclass":"P","fcode":"PPLX","country":"GB","cc2":"","admin1":"ENG","admin2":"GLA","admin3":"K8","admin4":"","population":0,"elevation":0,"gtopo30":51,"timezone":"Europe/London","moddate":"2019-06-07T00:00:00.000Z"},{"geonameid":12048390,"name":"Church Street","asciiname":"Church Street","alternatenames":"","latitude":"51.5239000","longitude":"-0.1696800","fclass":"P","fcode":"PPLX","country":"GB","cc2":"","admin1":"ENG","admin2":"GLA","admin3":"P5","admin4":"","population":0,"elevation":0,"gtopo30":39,"timezone":"Europe/London","moddate":"2019-06-07T00:00:00.000Z"},{"geonameid":12048020,"name":"Churchill","asciiname":"Churchill","alternatenames":"","latitude":"51.4877800","longitude":"-0.1470000","fclass":"P","fcode":"PPLX","country":"GB","cc2":"","admin1":"ENG","admin2":"GLA","admin3":"P5","admin4":"","population":0,"elevation":0,"gtopo30":8,"timezone":"Europe/London","moddate":"2019-06-07T00:00:00.000Z"},{"geonameid":2643741,"name":"City of London","asciiname":"City of London","alternatenames":"Bandaraya London,Cathair Londan,Ceety o Lunnon,Cidade de Londres,Cite de Londres,City of London,Cité de Londres,Civitas Londinium,Dakbayan sa Londres,Dinas Llundain,Idolobha weLondon,Ker Londrez,Kota London,Kêr Londrez,London,London City,Londonas Sitija,Londono Sitis,Londons'ke Siti,Londons'ke siti,Londra,Londra Sehri,Londra Şehri,Londres,Lontoon City,Lun-tun Chhi,Lundenceaster,Lundunaborg,Lundúnaborg,Lungsod ng Londres,Lûn-tun Chhī,Sici,Siti,Siti tou Londinou,Square Mile,Thanh pho Luan GJon,The City,Thành phố Luân Đôn,hsyty sl lwndwn,lun dui cheng,lun dui jin rong cheng,lun dui shi,mdynt lndn,nkhr lxndxn,siti ofa landana,siti opha landana,sitiobeuleondeon,syty lndn,Σίτι του Λονδίνου,Лондонське Сіті,Лондонське сіті,Сити,Сіці,Լոնդոնյան Սիթի,הסיטי של לונדון,סיטי פון לאנדאן,سیتی لندن,لندن شہر,مدينة لندن,सिटी ऑफ लंडन,सिटी ऑफ़ लंदन,นครลอนดอน,シティ・オブ・ロンドン,伦敦城,倫敦市,倫敦金融城,시티오브런던","latitude":"51.5127900","longitude":"-0.0918400","fclass":"P","fcode":"PPLA3","country":"GB","cc2":"","admin1":"ENG","admin2":"GLA","admin3":"H9","admin4":"","population":8072,"elevation":0,"gtopo30":27,"timezone":"Europe/London","moddate":"2021-02-17T00:00:00.000Z"},{"geonameid":2634341,"name":"City of Westminster","asciiname":"City of Westminster","alternatenames":"Westminster","latitude":"51.4975000","longitude":"-0.1357000","fclass":"P","fcode":"PPLA3","country":"GB","cc2":"","admin1":"ENG","admin2":"GLA","admin3":"P5","admin4":"","population":247614,"elevation":0,"gtopo30":14,"timezone":"Europe/London","moddate":"2019-05-09T00:00:00.000Z"},{"geonameid":2652951,"name":"Clapham","asciiname":"Clapham","alternatenames":"Klapam,ke la po mu,Клапам,کلیپہیم,克拉珀姆","latitude":"51.4622400","longitude":"-0.1375900","fclass":"P","fcode":"PPLX","country":"GB","cc2":"","admin1":"ENG","admin2":"GLA","admin3":"H1","admin4":"","population":0,"elevation":0,"gtopo30":24,"timezone":"Europe/London","moddate":"2015-01-30T00:00:00.000Z"},{"geonameid":12048151,"name":"Clapham Common","asciiname":"Clapham Common","alternatenames":"","latitude":"51.4562900","longitude":"-0.1396800","fclass":"P","fcode":"PPLX","country":"GB","cc2":"","admin1":"ENG","admin2":"GLA","admin3":"H1","admin4":"","population":0,"elevation":0,"gtopo30":26,"timezone":"Europe/London","moddate":"2019-06-07T00:00:00.000Z"},{"geonameid":6929936,"name":"Clapham Junction","asciiname":"Clapham Junction","alternatenames":"","latitude":"51.4635800","longitude":"-0.1684000","fclass":"P","fcode":"PPL","country":"GB","cc2":"","admin1":"ENG","admin2":"GLA","admin3":"P1","admin4":"","population":0,"elevation":0,"gtopo30":14,"timezone":"Europe/London","moddate":"2010-05-25T00:00:00.000Z"},{"geonameid":8224902,"name":"Clapham North","asciiname":"Clapham North","alternatenames":"","latitude":"51.4660500","longitude":"-0.1304600","fclass":"P","fcode":"PPL","country":"GB","cc2":"","admin1":"ENG","admin2":"GLA","admin3":"H1","admin4":"","population":0,"elevation":0,"gtopo30":16,"timezone":"Europe/London","moddate":"2012-04-04T00:00:00.000Z"},{"geonameid":12048075,"name":"Clapham Town","asciiname":"Clapham Town","alternatenames":"","latitude":"51.4652200","longitude":"-0.1416800","fclass":"P","fcode":"PPLX","country":"GB","cc2":"","admin1":"ENG","admin2":"GLA","admin3":"H1","admin4":"","population":0,"elevation":0,"gtopo30":20,"timezone":"Europe/London","moddate":"2019-06-07T00:00:00.000Z"},{"geonameid":12048340,"name":"Clayhall","asciiname":"Clayhall","alternatenames":"","latitude":"51.5850500","longitude":"0.0521100","fclass":"P","fcode":"PPLX","country":"GB","cc2":"","admin1":"ENG","admin2":"GLA","admin3":"K8","admin4":"","population":0,"elevation":0,"gtopo30":32,"timezone":"Europe/London","moddate":"2019-06-07T00:00:00.000Z"},{"geonameid":12048334,"name":"Clementswood","asciiname":"Clementswood","alternatenames":"","latitude":"51.5570000","longitude":"0.0812600","fclass":"P","fcode":"PPLX","country":"GB","cc2":"","admin1":"ENG","admin2":"GLA","admin3":"K8","admin4":"","population":0,"elevation":0,"gtopo30":12,"timezone":"Europe/London","moddate":"2019-06-07T00:00:00.000Z"},{"geonameid":6690574,"name":"Clerkenwell","asciiname":"Clerkenwell","alternatenames":"Klarkenuehll,klarkanavela,klrknwyl  lndn,Кларкенуэлл,کلرکنویل، لندن,क्लर्कनवेल","latitude":"51.5243800","longitude":"-0.1102200","fclass":"P","fcode":"PPL","country":"GB","cc2":"","admin1":"ENG","admin2":"GLA","admin3":"G3","admin4":"","population":4934,"elevation":0,"gtopo30":25,"timezone":"Europe/London","moddate":"2011-03-03T00:00:00.000Z"},{"geonameid":12047981,"name":"Cleveland","asciiname":"Cleveland","alternatenames":"","latitude":"51.5236100","longitude":"-0.3227100","fclass":"P","fcode":"PPLX","country":"GB","cc2":"","admin1":"ENG","admin2":"GLA","admin3":"D9","admin4":"","population":0,"elevation":0,"gtopo30":34,"timezone":"Europe/London","moddate":"2019-06-07T00:00:00.000Z"},{"geonameid":12047988,"name":"Clissold","asciiname":"Clissold","alternatenames":"","latitude":"51.5566600","longitude":"-0.0837800","fclass":"P","fcode":"PPLX","country":"GB","cc2":"","admin1":"ENG","admin2":"GLA","admin3":"E8","admin4":"","population":0,"elevation":0,"gtopo30":28,"timezone":"Europe/London","moddate":"2019-06-07T00:00:00.000Z"},{"geonameid":12047938,"name":"Clock House","asciiname":"Clock House","alternatenames":"","latitude":"51.4049700","longitude":"-0.0478400","fclass":"P","fcode":"PPLX","country":"GB","cc2":"","admin1":"ENG","admin2":"GLA","admin3":"B8","admin4":"","population":0,"elevation":0,"gtopo30":35,"timezone":"Europe/London","moddate":"2019-06-07T00:00:00.000Z"},{"geonameid":2652672,"name":"Cockfosters","asciiname":"Cockfosters","alternatenames":"kokafostarsa,kokkufosutazu,کوکفوسٹرز، لندن,कॉकफ़ॉस्टर्स,コックフォスターズ","latitude":"51.6492600","longitude":"-0.1482300","fclass":"P","fcode":"PPLX","country":"GB","cc2":"","admin1":"ENG","admin2":"GLA","admin3":"E3","admin4":"","population":0,"elevation":0,"gtopo30":98,"timezone":"Europe/London","moddate":"2010-05-24T00:00:00.000Z"},{"geonameid":11552485,"name":"Coldblow","asciiname":"Coldblow","alternatenames":"","latitude":"51.4363800","longitude":"0.1662500","fclass":"P","fcode":"PPL","country":"GB","cc2":"","admin1":"ENG","admin2":"GLA","admin3":"A6","admin4":"","population":0,"elevation":0,"gtopo30":33,"timezone":"Europe/London","moddate":"2017-06-08T00:00:00.000Z"},{"geonameid":12048154,"name":"Coldharbour","asciiname":"Coldharbour","alternatenames":"","latitude":"51.4637200","longitude":"-0.1085100","fclass":"P","fcode":"PPLX","country":"GB","cc2":"","admin1":"ENG","admin2":"GLA","admin3":"H1","admin4":"","population":0,"elevation":0,"gtopo30":14,"timezone":"Europe/London","moddate":"2019-06-07T00:00:00.000Z"},{"geonameid":12048113,"name":"Coldharbour and New Eltham","asciiname":"Coldharbour and New Eltham","alternatenames":"","latitude":"51.4336000","longitude":"0.0596400","fclass":"P","fcode":"PPLX","country":"GB","cc2":"","admin1":"ENG","admin2":"GLA","admin3":"E7","admin4":"","population":0,"elevation":0,"gtopo30":55,"timezone":"Europe/London","moddate":"2019-06-07T00:00:00.000Z"},{"geonameid":12048175,"name":"Coleman Street","asciiname":"Coleman Street","alternatenames":"","latitude":"51.5180200","longitude":"-0.0886900","fclass":"P","fcode":"PPLX","country":"GB","cc2":"","admin1":"ENG","admin2":"GLA","admin3":"H9","admin4":"","population":0,"elevation":0,"gtopo30":35,"timezone":"Europe/London","moddate":"2019-06-07T00:00:00.000Z"},{"geonameid":8394367,"name":"Colindale","asciiname":"Colindale","alternatenames":"kolinadela,کولنڈیل، لندن,कॉलिनडेल","latitude":"51.5960500","longitude":"-0.2480500","fclass":"P","fcode":"PPL","country":"GB","cc2":"","admin1":"ENG","admin2":"GLA","admin3":"A2","admin4":"","population":0,"elevation":0,"gtopo30":47,"timezone":"Europe/London","moddate":"2012-09-28T00:00:00.000Z"},{"geonameid":12048082,"name":"College","asciiname":"College","alternatenames":"","latitude":"51.4359900","longitude":"-0.0771200","fclass":"P","fcode":"PPLX","country":"GB","cc2":"","admin1":"ENG","admin2":"GLA","admin3":"M8","admin4":"","population":0,"elevation":0,"gtopo30":70,"timezone":"Europe/London","moddate":"2019-06-07T00:00:00.000Z"},{"geonameid":12048266,"name":"College Park and Old Oak","asciiname":"College Park and Old Oak","alternatenames":"","latitude":"51.5220300","longitude":"-0.2377000","fclass":"P","fcode":"PPLX","country":"GB","cc2":"","admin1":"ENG","admin2":"GLA","admin3":"F1","admin4":"","population":0,"elevation":0,"gtopo30":20,"timezone":"Europe/London","moddate":"2019-10-01T00:00:00.000Z"},{"geonameid":6690802,"name":"Collier Row","asciiname":"Collier Row","alternatenames":"","latitude":"51.5989300","longitude":"0.1660000","fclass":"P","fcode":"PPLX","country":"GB","cc2":"","admin1":"ENG","admin2":"GLA","admin3":"F6","admin4":"","population":10100,"elevation":0,"gtopo30":37,"timezone":"Europe/London","moddate":"2010-05-25T00:00:00.000Z"},{"geonameid":6691837,"name":"Colliers Wood","asciiname":"Colliers Wood","alternatenames":"","latitude":"51.4163400","longitude":"-0.1761200","fclass":"P","fcode":"PPL","country":"GB","cc2":"","admin1":"ENG","admin2":"GLA","admin3":"I4","admin4":"","population":0,"elevation":0,"gtopo30":17,"timezone":"Europe/London","moddate":"2010-05-25T00:00:00.000Z"},{"geonameid":12048264,"name":"Colville","asciiname":"Colville","alternatenames":"","latitude":"51.5163200","longitude":"-0.2048400","fclass":"P","fcode":"PPLX","country":"GB","cc2":"","admin1":"ENG","admin2":"GLA","admin3":"G4","admin4":"","population":0,"elevation":0,"gtopo30":22,"timezone":"Europe/London","moddate":"2019-06-07T00:00:00.000Z"},{"geonameid":12048150,"name":"Colyers","asciiname":"Colyers","alternatenames":"","latitude":"51.4700000","longitude":"0.1703800","fclass":"P","fcode":"PPLX","country":"GB","cc2":"","admin1":"ENG","admin2":"GLA","admin3":"A6","admin4":"","population":0,"elevation":0,"gtopo30":51,"timezone":"Europe/London","moddate":"2019-06-07T00:00:00.000Z"},{"geonameid":12047915,"name":"Coombe Hill","asciiname":"Coombe Hill","alternatenames":"","latitude":"51.4217700","longitude":"-0.2646800","fclass":"P","fcode":"PPLX","country":"GB","cc2":"","admin1":"ENG","admin2":"GLA","admin3":"G7","admin4":"","population":0,"elevation":0,"gtopo30":57,"timezone":"Europe/London","moddate":"2019-06-07T00:00:00.000Z"},{"geonameid":12048428,"name":"Coombe Vale","asciiname":"Coombe Vale","alternatenames":"","latitude":"51.4092400","longitude":"-0.2673900","fclass":"P","fcode":"PPLX","country":"GB","cc2":"","admin1":"ENG","admin2":"GLA","admin3":"G7","admin4":"","population":0,"elevation":0,"gtopo30":16,"timezone":"Europe/London","moddate":"2019-06-07T00:00:00.000Z"},{"geonameid":12047949,"name":"Copers Cope","asciiname":"Copers Cope","alternatenames":"","latitude":"51.4118100","longitude":"-0.0194200","fclass":"P","fcode":"PPLX","country":"GB","cc2":"","admin1":"ENG","admin2":"GLA","admin3":"B8","admin4":"","population":0,"elevation":0,"gtopo30":46,"timezone":"Europe/London","moddate":"2019-06-07T00:00:00.000Z"},{"geonameid":12048139,"name":"Coppetts","asciiname":"Coppetts","alternatenames":"","latitude":"51.6111900","longitude":"-0.1518500","fclass":"P","fcode":"PPLX","country":"GB","cc2":"","admin1":"ENG","admin2":"GLA","admin3":"A2","admin4":"","population":0,"elevation":0,"gtopo30":58,"timezone":"Europe/London","moddate":"2019-06-07T00:00:00.000Z"},{"geonameid":12048015,"name":"Cordwainer","asciiname":"Cordwainer","alternatenames":"","latitude":"51.5129900","longitude":"-0.0925100","fclass":"P","fcode":"PPLX","country":"GB","cc2":"","admin1":"ENG","admin2":"GLA","admin3":"H9","admin4":"","population":0,"elevation":0,"gtopo30":31,"timezone":"Europe/London","moddate":"2019-06-07T00:00:00.000Z"},{"geonameid":12048351,"name":"Cornhill","asciiname":"Cornhill","alternatenames":"","latitude":"51.5144700","longitude":"-0.0847400","fclass":"P","fcode":"PPLX","country":"GB","cc2":"","admin1":"ENG","admin2":"GLA","admin3":"H9","admin4":"","population":0,"elevation":0,"gtopo30":34,"timezone":"Europe/London","moddate":"2019-06-07T00:00:00.000Z"},{"geonameid":2652249,"name":"Coulsdon","asciiname":"Coulsdon","alternatenames":"Coulsdon,kwlsdwn,کولسدون","latitude":"51.3200200","longitude":"-0.1408800","fclass":"P","fcode":"PPL","country":"GB","cc2":"","admin1":"ENG","admin2":"GLA","admin3":"C8","admin4":"","population":25500,"elevation":0,"gtopo30":82,"timezone":"Europe/London","moddate":"2012-06-01T00:00:00.000Z"},{"geonameid":12047918,"name":"Coulsdon East","asciiname":"Coulsdon East","alternatenames":"","latitude":"51.3049800","longitude":"-0.1235100","fclass":"P","fcode":"PPLX","country":"GB","cc2":"","admin1":"ENG","admin2":"GLA","admin3":"C8","admin4":"","population":0,"elevation":0,"gtopo30":158,"timezone":"Europe/London","moddate":"2019-06-07T00:00:00.000Z"},{"geonameid":12047920,"name":"Coulsdon West","asciiname":"Coulsdon West","alternatenames":"","latitude":"51.3220100","longitude":"-0.1424300","fclass":"P","fcode":"PPLX","country":"GB","cc2":"","admin1":"ENG","admin2":"GLA","admin3":"C8","admin4":"","population":0,"elevation":0,"gtopo30":98,"timezone":"Europe/London","moddate":"2019-06-07T00:00:00.000Z"},{"geonameid":12048226,"name":"Courtfield","asciiname":"Courtfield","alternatenames":"","latitude":"51.4920600","longitude":"-0.1832200","fclass":"P","fcode":"PPLX","country":"GB","cc2":"","admin1":"ENG","admin2":"GLA","admin3":"G4","admin4":"","population":0,"elevation":0,"gtopo30":15,"timezone":"Europe/London","moddate":"2019-06-07T00:00:00.000Z"},{"geonameid":2652222,"name":"Covent Garden","asciiname":"Covent Garden","alternatenames":"Barrio de Covent Garden,Covent Garden,Kovent-Garden,Kovent-Qarden,Theatre District,kawnt gardn,ke wen te hua yuan,kobeonteu gadeun,kovanta gardana,qwbnt grdn,Ковент-Гарден,קובנט גרדן,کاونت گاردن,کوونٹ گارڈن,कॉवंट गार्डन,კოვენტ-გარდენი,コヴェント・ガーデン,科文特花园,코번트 가든","latitude":"51.5142400","longitude":"-0.1247100","fclass":"P","fcode":"PPLX","country":"GB","cc2":"","admin1":"ENG","admin2":"GLA","admin3":"C4","admin4":"","population":0,"elevation":0,"gtopo30":32,"timezone":"Europe/London","moddate":"2015-04-24T00:00:00.000Z"},{"geonameid":2652192,"name":"Cowley","asciiname":"Cowley","alternatenames":"","latitude":"51.5312000","longitude":"-0.4823700","fclass":"P","fcode":"PPL","country":"GB","cc2":"","admin1":"ENG","admin2":"GLA","admin3":"F9","admin4":"","population":0,"elevation":0,"gtopo30":34,"timezone":"Europe/London","moddate":"2010-05-24T00:00:00.000Z"},{"geonameid":12048197,"name":"Cranbrook","asciiname":"Cranbrook","alternatenames":"","latitude":"51.5706900","longitude":"0.0591500","fclass":"P","fcode":"PPLX","country":"GB","cc2":"","admin1":"ENG","admin2":"GLA","admin3":"K8","admin4":"","population":0,"elevation":0,"gtopo30":25,"timezone":"Europe/London","moddate":"2019-10-01T00:00:00.000Z"},{"geonameid":2652085,"name":"Cranford","asciiname":"Cranford","alternatenames":"Cranford","latitude":"51.4769500","longitude":"-0.4134500","fclass":"P","fcode":"PPL","country":"GB","cc2":"","admin1":"ENG","admin2":"GLA","admin3":"G1","admin4":"","population":0,"elevation":0,"gtopo30":25,"timezone":"Europe/London","moddate":"2019-10-01T00:00:00.000Z"},{"geonameid":6690806,"name":"Cranham","asciiname":"Cranham","alternatenames":"","latitude":"51.5656500","longitude":"0.2659000","fclass":"P","fcode":"PPLX","country":"GB","cc2":"","admin1":"ENG","admin2":"GLA","admin3":"F6","admin4":"","population":2836,"elevation":0,"gtopo30":23,"timezone":"Europe/London","moddate":"2010-05-25T00:00:00.000Z"},{"geonameid":12048221,"name":"Cray Meadows","asciiname":"Cray Meadows","alternatenames":"","latitude":"51.4235200","longitude":"0.1335100","fclass":"P","fcode":"PPLX","country":"GB","cc2":"","admin1":"ENG","admin2":"GLA","admin3":"A6","admin4":"","population":0,"elevation":0,"gtopo30":33,"timezone":"Europe/London","moddate":"2019-06-07T00:00:00.000Z"},{"geonameid":12047917,"name":"Cray Valley East","asciiname":"Cray Valley East","alternatenames":"","latitude":"51.3916700","longitude":"0.1316600","fclass":"P","fcode":"PPLX","country":"GB","cc2":"","admin1":"ENG","admin2":"GLA","admin3":"B8","admin4":"","population":0,"elevation":0,"gtopo30":81,"timezone":"Europe/London","moddate":"2019-06-07T00:00:00.000Z"},{"geonameid":12047960,"name":"Cray Valley West","asciiname":"Cray Valley West","alternatenames":"","latitude":"51.4003500","longitude":"0.1026500","fclass":"P","fcode":"PPLX","country":"GB","cc2":"","admin1":"ENG","admin2":"GLA","admin3":"B8","admin4":"","population":0,"elevation":0,"gtopo30":69,"timezone":"Europe/London","moddate":"2019-06-07T00:00:00.000Z"},{"geonameid":12048133,"name":"Crayford","asciiname":"Crayford","alternatenames":"Crecganford,کریفورڈ,ክሬይፎርድ","latitude":"51.4531600","longitude":"0.1819100","fclass":"P","fcode":"PPLX","country":"GB","cc2":"","admin1":"ENG","admin2":"GLA","admin3":"A6","admin4":"","population":0,"elevation":0,"gtopo30":12,"timezone":"Europe/London","moddate":"2019-06-07T00:00:00.000Z"},{"geonameid":12048358,"name":"Cremorne","asciiname":"Cremorne","alternatenames":"","latitude":"51.4816700","longitude":"-0.1763300","fclass":"P","fcode":"PPLX","country":"GB","cc2":"","admin1":"ENG","admin2":"GLA","admin3":"G4","admin4":"","population":0,"elevation":0,"gtopo30":9,"timezone":"Europe/London","moddate":"2019-06-07T00:00:00.000Z"},{"geonameid":12048241,"name":"Cricket Green","asciiname":"Cricket Green","alternatenames":"","latitude":"51.3977500","longitude":"-0.1640300","fclass":"P","fcode":"PPLX","country":"GB","cc2":"","admin1":"ENG","admin2":"GLA","admin3":"I4","admin4":"","population":0,"elevation":0,"gtopo30":25,"timezone":"Europe/London","moddate":"2019-06-07T00:00:00.000Z"},{"geonameid":2651984,"name":"Cricklewood","asciiname":"Cricklewood","alternatenames":"Cricklewood,krikalavuda,کرکلوڈ، لندن,क्रिकलवुड","latitude":"51.5567000","longitude":"-0.2154900","fclass":"P","fcode":"PPL","country":"GB","cc2":"","admin1":"ENG","admin2":"GLA","admin3":"B5","admin4":"","population":0,"elevation":0,"gtopo30":54,"timezone":"Europe/London","moddate":"2011-03-03T00:00:00.000Z"},{"geonameid":12048365,"name":"Cripplegate","asciiname":"Cripplegate","alternatenames":"","latitude":"51.5202700","longitude":"-0.0942600","fclass":"P","fcode":"PPLX","country":"GB","cc2":"","admin1":"ENG","admin2":"GLA","admin3":"H9","admin4":"","population":0,"elevation":0,"gtopo30":31,"timezone":"Europe/London","moddate":"2019-06-07T00:00:00.000Z"},{"geonameid":11551042,"name":"Crofton Park","asciiname":"Crofton Park","alternatenames":"","latitude":"51.4514700","longitude":"-0.0343800","fclass":"P","fcode":"PPL","country":"GB","cc2":"","admin1":"ENG","admin2":"GLA","admin3":"H6","admin4":"","population":0,"elevation":0,"gtopo30":26,"timezone":"Europe/London","moddate":"2017-06-08T00:00:00.000Z"},{"geonameid":12047930,"name":"Croham","asciiname":"Croham","alternatenames":"","latitude":"51.3551900","longitude":"-0.0884400","fclass":"P","fcode":"PPLX","country":"GB","cc2":"","admin1":"ENG","admin2":"GLA","admin3":"C8","admin4":"","population":0,"elevation":0,"gtopo30":88,"timezone":"Europe/London","moddate":"2019-06-07T00:00:00.000Z"},{"geonameid":6690565,"name":"Crouch End","asciiname":"Crouch End","alternatenames":"","latitude":"51.5797100","longitude":"-0.1237300","fclass":"P","fcode":"PPLX","country":"GB","cc2":"","admin1":"ENG","admin2":"GLA","admin3":"F3","admin4":"","population":10075,"elevation":0,"gtopo30":49,"timezone":"Europe/London","moddate":"2010-05-25T00:00:00.000Z"},{"geonameid":2651817,"name":"Croydon","asciiname":"Croydon","alternatenames":"Croydon,Croydon Grants,Croydon  London,Krojdun,Kroydon,ke luo yi deng,krwydwn,kuroidon,Кройдън,کرویدون,クロイドン,克羅伊登","latitude":"51.3833300","longitude":"-0.1000000","fclass":"P","fcode":"PPLA3","country":"GB","cc2":"","admin1":"ENG","admin2":"GLA","admin3":"C8","admin4":"","population":173314,"elevation":0,"gtopo30":54,"timezone":"Europe/London","moddate":"2017-03-01T00:00:00.000Z"},{"geonameid":6693937,"name":"Crystal Palace","asciiname":"Crystal Palace","alternatenames":"Kristal palas,kristala pailasa,Кристал палас,کرسٹل پیلس، لندن,क्रिस्टल पैलस,クリスタル・パレス","latitude":"51.4193400","longitude":"-0.0785400","fclass":"P","fcode":"PPL","country":"GB","cc2":"","admin1":"ENG","admin2":"GLA","admin3":"B8","admin4":"","population":0,"elevation":0,"gtopo30":110,"timezone":"Europe/London","moddate":"2010-05-25T00:00:00.000Z"},{"geonameid":2651790,"name":"Cubitt Town","asciiname":"Cubitt Town","alternatenames":"","latitude":"51.4968800","longitude":"-0.0087100","fclass":"P","fcode":"PPL","country":"GB","cc2":"","admin1":"ENG","admin2":"GLA","admin3":"O5","admin4":"","population":0,"elevation":0,"gtopo30":4,"timezone":"Europe/London","moddate":"2013-07-16T00:00:00.000Z"},{"geonameid":2651779,"name":"Cudham","asciiname":"Cudham","alternatenames":"","latitude":"51.3162600","longitude":"0.0738600","fclass":"P","fcode":"PPL","country":"GB","cc2":"","admin1":"ENG","admin2":"GLA","admin3":"B8","admin4":"","population":362,"elevation":0,"gtopo30":184,"timezone":"Europe/London","moddate":"2017-06-12T00:00:00.000Z"},{"geonameid":12048335,"name":"Custom House","asciiname":"Custom House","alternatenames":"","latitude":"51.5120800","longitude":"0.0352100","fclass":"P","fcode":"PPLX","country":"GB","cc2":"","admin1":"ENG","admin2":"GLA","admin3":"I8","admin4":"","population":0,"elevation":0,"gtopo30":3,"timezone":"Europe/London","moddate":"2019-10-01T00:00:00.000Z"},{"geonameid":2651621,"name":"Dagenham","asciiname":"Dagenham","alternatenames":"da gen lin,daegeoneom,dagenamu,dagnham,dajnham,deganahama,داجنهام,داگنهام,डेगनहम,ダゲナム,達根林,대거넘","latitude":"51.5500000","longitude":"0.1666700","fclass":"P","fcode":"PPLA3","country":"GB","cc2":"","admin1":"ENG","admin2":"GLA","admin3":"A1","admin4":"","population":108368,"elevation":0,"gtopo30":13,"timezone":"Europe/London","moddate":"2012-04-27T00:00:00.000Z"},{"geonameid":12048306,"name":"Dalston","asciiname":"Dalston","alternatenames":"","latitude":"51.5484700","longitude":"-0.0712100","fclass":"P","fcode":"PPLX","country":"GB","cc2":"","admin1":"ENG","admin2":"GLA","admin3":"E8","admin4":"","population":0,"elevation":0,"gtopo30":20,"timezone":"Europe/London","moddate":"2019-06-07T00:00:00.000Z"},{"geonameid":6695926,"name":"Dalston","asciiname":"Dalston","alternatenames":"Dalston,Dalston Test,da er si dun,Далстон,達爾斯頓","latitude":"51.5459900","longitude":"-0.0757900","fclass":"P","fcode":"PPLX","country":"GB","cc2":"","admin1":"ENG","admin2":"GLA","admin3":"E8","admin4":"","population":0,"elevation":0,"gtopo30":22,"timezone":"Europe/London","moddate":"2010-05-25T00:00:00.000Z"},{"geonameid":12048141,"name":"Danson Park","asciiname":"Danson Park","alternatenames":"","latitude":"51.4571100","longitude":"0.1181600","fclass":"P","fcode":"PPLX","country":"GB","cc2":"","admin1":"ENG","admin2":"GLA","admin3":"A6","admin4":"","population":0,"elevation":0,"gtopo30":52,"timezone":"Europe/London","moddate":"2019-06-07T00:00:00.000Z"},{"geonameid":12047941,"name":"Darwin","asciiname":"Darwin","alternatenames":"","latitude":"51.3271500","longitude":"0.0572200","fclass":"P","fcode":"PPLX","country":"GB","cc2":"","admin1":"ENG","admin2":"GLA","admin3":"B8","admin4":"","population":0,"elevation":0,"gtopo30":175,"timezone":"Europe/London","moddate":"2019-06-07T00:00:00.000Z"},{"geonameid":12048403,"name":"De Beauvoir","asciiname":"De Beauvoir","alternatenames":"","latitude":"51.5396200","longitude":"-0.0810900","fclass":"P","fcode":"PPLX","country":"GB","cc2":"","admin1":"ENG","admin2":"GLA","admin3":"E8","admin4":"","population":0,"elevation":0,"gtopo30":20,"timezone":"Europe/London","moddate":"2019-06-07T00:00:00.000Z"},{"geonameid":2651349,"name":"Deptford","asciiname":"Deptford","alternatenames":"Deptford,dtfwrd,Дептфорд,دتفورد","latitude":"51.4776400","longitude":"-0.0260900","fclass":"P","fcode":"PPL","country":"GB","cc2":"","admin1":"ENG","admin2":"GLA","admin3":"H6","admin4":"","population":0,"elevation":0,"gtopo30":7,"timezone":"Europe/London","moddate":"2012-03-23T00:00:00.000Z"},{"geonameid":2651149,"name":"Dollis Hill","asciiname":"Dollis Hill","alternatenames":"","latitude":"51.5649400","longitude":"-0.2311800","fclass":"P","fcode":"PPL","country":"GB","cc2":"","admin1":"ENG","admin2":"GLA","admin3":"B5","admin4":"","population":0,"elevation":0,"gtopo30":67,"timezone":"Europe/London","moddate":"2011-03-03T00:00:00.000Z"},{"geonameid":12047947,"name":"Dormers Wells","asciiname":"Dormers Wells","alternatenames":"","latitude":"51.5158600","longitude":"-0.3616000","fclass":"P","fcode":"PPLX","country":"GB","cc2":"","admin1":"ENG","admin2":"GLA","admin3":"D9","admin4":"","population":0,"elevation":0,"gtopo30":29,"timezone":"Europe/London","moddate":"2019-10-01T00:00:00.000Z"},{"geonameid":12048323,"name":"Dowgate","asciiname":"Dowgate","alternatenames":"","latitude":"51.5099200","longitude":"-0.0902800","fclass":"P","fcode":"PPLX","country":"GB","cc2":"","admin1":"ENG","admin2":"GLA","admin3":"H9","admin4":"","population":0,"elevation":0,"gtopo30":31,"timezone":"Europe/London","moddate":"2019-06-07T00:00:00.000Z"},{"geonameid":2651033,"name":"Downe","asciiname":"Downe","alternatenames":"","latitude":"51.3359200","longitude":"0.0539000","fclass":"P","fcode":"PPL","country":"GB","cc2":"","admin1":"ENG","admin2":"GLA","admin3":"B8","admin4":"","population":327,"elevation":0,"gtopo30":158,"timezone":"Europe/London","moddate":"2017-06-12T00:00:00.000Z"},{"geonameid":12048102,"name":"Downham","asciiname":"Downham","alternatenames":"","latitude":"51.4243600","longitude":"0.0016500","fclass":"P","fcode":"PPLX","country":"GB","cc2":"","admin1":"ENG","admin2":"GLA","admin3":"H6","admin4":"","population":0,"elevation":0,"gtopo30":36,"timezone":"Europe/London","moddate":"2019-10-01T00:00:00.000Z"},{"geonameid":12048065,"name":"Dudden Hill","asciiname":"Dudden Hill","alternatenames":"","latitude":"51.5542200","longitude":"-0.2415800","fclass":"P","fcode":"PPLX","country":"GB","cc2":"","admin1":"ENG","admin2":"GLA","admin3":"B5","admin4":"","population":0,"elevation":0,"gtopo30":46,"timezone":"Europe/London","moddate":"2019-06-07T00:00:00.000Z"},{"geonameid":2650803,"name":"Dulwich","asciiname":"Dulwich","alternatenames":"Dulwich,dalica vuda,ڈل وچ,डलिच वुड","latitude":"51.4500000","longitude":"-0.0833300","fclass":"P","fcode":"PPLX","country":"GB","cc2":"","admin1":"ENG","admin2":"GLA","admin3":"M8","admin4":"","population":0,"elevation":0,"gtopo30":34,"timezone":"Europe/London","moddate":"2012-01-17T00:00:00.000Z"},{"geonameid":12048167,"name":"Dundonald","asciiname":"Dundonald","alternatenames":"","latitude":"51.4135100","longitude":"-0.2132400","fclass":"P","fcode":"PPLX","country":"GB","cc2":"","admin1":"ENG","admin2":"GLA","admin3":"I4","admin4":"","population":0,"elevation":0,"gtopo30":16,"timezone":"Europe/London","moddate":"2019-06-07T00:00:00.000Z"},{"geonameid":2650567,"name":"Ealing","asciiname":"Ealing","alternatenames":"Barrio de Ealing,Borgo londinese di Ealing,Ealing,Ealing keruelet,Ealing kerület,London Borough of Ealing,aylng  lndn,aylyng,ilinga,illing,iringu,yi ling,אילינג,ایلنگ، لندن,ایلینگ,ईलिंग,イーリング,伊灵,일링","latitude":"51.5121600","longitude":"-0.3020400","fclass":"P","fcode":"PPLA3","country":"GB","cc2":"","admin1":"ENG","admin2":"GLA","admin3":"D9","admin4":"","population":0,"elevation":0,"gtopo30":38,"timezone":"Europe/London","moddate":"2015-05-23T00:00:00.000Z"},{"geonameid":12047989,"name":"Ealing Broadway","asciiname":"Ealing Broadway","alternatenames":"","latitude":"51.5170700","longitude":"-0.3096200","fclass":"P","fcode":"PPLX","country":"GB","cc2":"","admin1":"ENG","admin2":"GLA","admin3":"D9","admin4":"","population":0,"elevation":0,"gtopo30":40,"timezone":"Europe/London","moddate":"2019-06-07T00:00:00.000Z"},{"geonameid":9409254,"name":"Ealing Broadway","asciiname":"Ealing Broadway","alternatenames":"","latitude":"51.5156600","longitude":"-0.3007900","fclass":"P","fcode":"PPLA4","country":"GB","cc2":"","admin1":"ENG","admin2":"GLA","admin3":"D9","admin4":"","population":0,"elevation":0,"gtopo30":36,"timezone":"Europe/London","moddate":"2014-08-27T00:00:00.000Z"},{"geonameid":12047925,"name":"Ealing Common","asciiname":"Ealing Common","alternatenames":"","latitude":"51.5068600","longitude":"-0.2954600","fclass":"P","fcode":"PPLX","country":"GB","cc2":"","admin1":"ENG","admin2":"GLA","admin3":"D9","admin4":"","population":0,"elevation":0,"gtopo30":31,"timezone":"Europe/London","moddate":"2019-06-07T00:00:00.000Z"},{"geonameid":2650549,"name":"Earls Court","asciiname":"Earls Court","alternatenames":"Earls Court,arlsa korta,ארלז קורט,अर्ल्स कोर्ट,アールズ・コート","latitude":"51.4915900","longitude":"-0.1980100","fclass":"P","fcode":"PPLX","country":"GB","cc2":"","admin1":"ENG","admin2":"GLA","admin3":"G4","admin4":"","population":0,"elevation":0,"gtopo30":13,"timezone":"Europe/London","moddate":"2014-07-28T00:00:00.000Z"},{"geonameid":8063096,"name":"Earlsfield","asciiname":"Earlsfield","alternatenames":"","latitude":"51.4439000","longitude":"-0.1854000","fclass":"P","fcode":"PPL","country":"GB","cc2":"","admin1":"ENG","admin2":"GLA","admin3":"P1","admin4":"","population":15562,"elevation":0,"gtopo30":13,"timezone":"Europe/London","moddate":"2011-11-14T00:00:00.000Z"},