{"pageProps":{"locale":"ro","admin2":{"geonameid":683660,"name":"Comuna Brodina","country":"RO","admin1":"34","admin2":"147241","admin3":"","latitude":"47.8514700","longitude":"25.3926200"},"admin1":{"geonameid":665849,"name":"Suceava","admin1":"34"},"locations":[{"geonameid":683662,"name":"Brodina","asciiname":"Brodina","alternatenames":"Brodina","latitude":"47.8833300","longitude":"25.4166700","fclass":"P","fcode":"PPLA2","country":"RO","cc2":"","admin1":"34","admin2":"147241","admin3":"","admin4":"","population":3654,"elevation":0,"gtopo30":594,"timezone":"Europe/Bucharest","moddate":"2012-06-12T00:00:00.000Z"},{"geonameid":683659,"name":"Brodina de Jos","asciiname":"Brodina de Jos","alternatenames":"","latitude":"47.8112600","longitude":"25.3805600","fclass":"P","fcode":"PPL","country":"RO","cc2":"","admin1":"34","admin2":"147241","admin3":"","admin4":"","population":439,"elevation":0,"gtopo30":714,"timezone":"Europe/Bucharest","moddate":"2013-04-21T00:00:00.000Z"},{"geonameid":680727,"name":"Cornu","asciiname":"Cornu","alternatenames":"","latitude":"47.8833300","longitude":"25.4166700","fclass":"P","fcode":"PPLX","country":"RO","cc2":"","admin1":"34","admin2":"147241","admin3":"","admin4":"","population":0,"elevation":0,"gtopo30":594,"timezone":"Europe/Bucharest","moddate":"2016-02-07T00:00:00.000Z"},{"geonameid":679954,"name":"Cununschi","asciiname":"Cununschi","alternatenames":"","latitude":"47.7892300","longitude":"25.3516200","fclass":"P","fcode":"PPL","country":"RO","cc2":"","admin1":"34","admin2":"147241","admin3":"","admin4":"","population":134,"elevation":0,"gtopo30":1071,"timezone":"Europe/Bucharest","moddate":"2013-04-21T00:00:00.000Z"},{"geonameid":678798,"name":"Dubiușca","asciiname":"Dubiusca","alternatenames":"","latitude":"47.7949100","longitude":"25.4135300","fclass":"P","fcode":"PPL","country":"RO","cc2":"","admin1":"34","admin2":"147241","admin3":"","admin4":"","population":74,"elevation":0,"gtopo30":1040,"timezone":"Europe/Bucharest","moddate":"2015-12-30T00:00:00.000Z"},{"geonameid":678584,"name":"Ehrește","asciiname":"Ehreste","alternatenames":"Ehreste,Ehresti,Ehreşte,Ehreşti","latitude":"47.8242100","longitude":"25.3442000","fclass":"P","fcode":"PPL","country":"RO","cc2":"RO","admin1":"34","admin2":"147241","admin3":"","admin4":"","population":218,"elevation":0,"gtopo30":1098,"timezone":"Europe/Bucharest","moddate":"2013-04-21T00:00:00.000Z"},{"geonameid":678467,"name":"Falcău","asciiname":"Falcau","alternatenames":"","latitude":"47.9108700","longitude":"25.4690800","fclass":"P","fcode":"PPL","country":"RO","cc2":"","admin1":"34","admin2":"147241","admin3":"","admin4":"","population":1202,"elevation":0,"gtopo30":565,"timezone":"Europe/Bucharest","moddate":"2013-04-21T00:00:00.000Z"},{"geonameid":677963,"name":"Frasin","asciiname":"Frasin","alternatenames":"Frasin,Herghelia Frasin","latitude":"47.9000000","longitude":"25.4333300","fclass":"P","fcode":"PPLX","country":"RO","cc2":"","admin1":"34","admin2":"147241","admin3":"","admin4":"","population":0,"elevation":0,"gtopo30":709,"timezone":"Europe/Bucharest","moddate":"2016-02-07T00:00:00.000Z"},{"geonameid":676246,"name":"Hepa","asciiname":"Hepa","alternatenames":"","latitude":"47.8500000","longitude":"25.4000000","fclass":"P","fcode":"PPLX","country":"RO","cc2":"","admin1":"34","admin2":"147241","admin3":"","admin4":"","population":0,"elevation":0,"gtopo30":939,"timezone":"Europe/Bucharest","moddate":"2016-02-07T00:00:00.000Z"},{"geonameid":672169,"name":"Norocu","asciiname":"Norocu","alternatenames":"","latitude":"47.9038800","longitude":"25.3977400","fclass":"P","fcode":"PPL","country":"RO","cc2":"","admin1":"34","admin2":"147241","admin3":"","admin4":"","population":60,"elevation":0,"gtopo30":967,"timezone":"Europe/Bucharest","moddate":"2013-04-21T00:00:00.000Z"},{"geonameid":671442,"name":"Paltin","asciiname":"Paltin","alternatenames":"","latitude":"47.8671900","longitude":"25.3442300","fclass":"P","fcode":"PPL","country":"RO","cc2":"","admin1":"34","admin2":"147241","admin3":"","admin4":"","population":180,"elevation":0,"gtopo30":652,"timezone":"Europe/Bucharest","moddate":"2013-04-21T00:00:00.000Z"},{"geonameid":668591,"name":"Roşusnei","asciiname":"Rosusnei","alternatenames":"","latitude":"47.8833300","longitude":"25.4166700","fclass":"P","fcode":"PPLX","country":"RO","cc2":"","admin1":"34","admin2":"147241","admin3":"","admin4":"","population":0,"elevation":0,"gtopo30":594,"timezone":"Europe/Bucharest","moddate":"2016-02-07T00:00:00.000Z"},{"geonameid":668289,"name":"Sadău","asciiname":"Sadau","alternatenames":"","latitude":"47.8756700","longitude":"25.4014700","fclass":"P","fcode":"PPL","country":"RO","cc2":"","admin1":"34","admin2":"147241","admin3":"","admin4":"","population":379,"elevation":0,"gtopo30":603,"timezone":"Europe/Bucharest","moddate":"2013-04-21T00:00:00.000Z"},{"geonameid":664576,"name":"Tubinsca","asciiname":"Tubinsca","alternatenames":"","latitude":"47.8833300","longitude":"25.4166700","fclass":"P","fcode":"PPLX","country":"RO","cc2":"","admin1":"34","admin2":"147241","admin3":"","admin4":"","population":0,"elevation":0,"gtopo30":594,"timezone":"Europe/Bucharest","moddate":"2016-02-07T00:00:00.000Z"},{"geonameid":666494,"name":"Zalomestra","asciiname":"Zalomestra","alternatenames":"","latitude":"47.8333300","longitude":"25.3666700","fclass":"P","fcode":"PPL","country":"RO","cc2":"","admin1":"34","admin2":"147241","admin3":"","admin4":"","population":104,"elevation":0,"gtopo30":1020,"timezone":"Europe/Bucharest","moddate":"2015-12-30T00:00:00.000Z"}],"admin3":[],"alternateNames":[{"alternatenameId":393492,"geonameid":665849,"isoLanguage":"en","alternateName":"Suceava","isPreferredName":true,"isShortName":true,"isColloquial":false,"isHistoric":false}]},"__N_SSG":true}