{"pageProps":{"locale":"ro","admin2":{"geonameid":663862,"name":"Comuna Valea Călugărească","country":"RO","admin1":"30","admin2":"135949","admin3":"","latitude":"44.9552700","longitude":"26.1612200"},"admin1":{"geonameid":669737,"name":"Prahova","admin1":"30"},"locations":[{"geonameid":686099,"name":"Arva","asciiname":"Arva","alternatenames":"","latitude":"44.9593700","longitude":"26.1608100","fclass":"P","fcode":"PPL","country":"RO","cc2":"","admin1":"30","admin2":"135949","admin3":"","admin4":"","population":563,"elevation":0,"gtopo30":158,"timezone":"Europe/Bucharest","moddate":"2013-04-21T00:00:00.000Z"},{"geonameid":680628,"name":"Coslegi","asciiname":"Coslegi","alternatenames":"Coslegi,Coslegiu,Coslegiul","latitude":"44.9042400","longitude":"26.1592500","fclass":"P","fcode":"PPL","country":"RO","cc2":"RO","admin1":"30","admin2":"135949","admin3":"","admin4":"","population":673,"elevation":0,"gtopo30":110,"timezone":"Europe/Bucharest","moddate":"2013-04-21T00:00:00.000Z"},{"geonameid":679317,"name":"Dârvari","asciiname":"Darvari","alternatenames":"Darvari,Dirvari,Dârvari,Dîrvari","latitude":"44.9166300","longitude":"26.1585400","fclass":"P","fcode":"PPL","country":"RO","cc2":"RO","admin1":"30","admin2":"135949","admin3":"","admin4":"","population":586,"elevation":0,"gtopo30":114,"timezone":"Europe/Bucharest","moddate":"2013-04-21T00:00:00.000Z"},{"geonameid":672242,"name":"Nicovanii Mari","asciiname":"Nicovanii Mari","alternatenames":"","latitude":"44.9500000","longitude":"26.1833300","fclass":"P","fcode":"PPLX","country":"RO","cc2":"","admin1":"30","admin2":"135949","admin3":"","admin4":"","population":0,"elevation":0,"gtopo30":136,"timezone":"Europe/Bucharest","moddate":"2016-02-07T00:00:00.000Z"},{"geonameid":672241,"name":"Nicovanii Mici","asciiname":"Nicovanii Mici","alternatenames":"","latitude":"44.9500000","longitude":"26.1833300","fclass":"P","fcode":"PPLX","country":"RO","cc2":"","admin1":"30","admin2":"135949","admin3":"","admin4":"","population":0,"elevation":0,"gtopo30":136,"timezone":"Europe/Bucharest","moddate":"2016-02-07T00:00:00.000Z"},{"geonameid":671384,"name":"Pantazi","asciiname":"Pantazi","alternatenames":"","latitude":"44.9349200","longitude":"26.1402000","fclass":"P","fcode":"PPL","country":"RO","cc2":"","admin1":"30","admin2":"135949","admin3":"","admin4":"","population":1221,"elevation":0,"gtopo30":126,"timezone":"Europe/Bucharest","moddate":"2013-04-21T00:00:00.000Z"},{"geonameid":669386,"name":"Rachieri","asciiname":"Rachieri","alternatenames":"","latitude":"44.9543800","longitude":"26.1284100","fclass":"P","fcode":"PPL","country":"RO","cc2":"","admin1":"30","admin2":"135949","admin3":"","admin4":"","population":1199,"elevation":0,"gtopo30":139,"timezone":"Europe/Bucharest","moddate":"2013-04-21T00:00:00.000Z"},{"geonameid":669265,"name":"Radila","asciiname":"Radila","alternatenames":"","latitude":"44.9220900","longitude":"26.1762900","fclass":"P","fcode":"PPL","country":"RO","cc2":"","admin1":"30","admin2":"135949","admin3":"","admin4":"","population":328,"elevation":0,"gtopo30":110,"timezone":"Europe/Bucharest","moddate":"2013-04-21T00:00:00.000Z"},{"geonameid":667685,"name":"Schiau","asciiname":"Schiau","alternatenames":"Scheau,Scheia,Schiau,Schiaul","latitude":"44.9926900","longitude":"26.1793400","fclass":"P","fcode":"PPL","country":"RO","cc2":"RO","admin1":"30","admin2":"135949","admin3":"","admin4":"","population":56,"elevation":0,"gtopo30":304,"timezone":"Europe/Bucharest","moddate":"2013-04-21T00:00:00.000Z"},{"geonameid":663863,"name":"Valea Călugărească","asciiname":"Valea Calugareasca","alternatenames":"Valea Calugareasca,Valea Călugărească","latitude":"44.9666700","longitude":"26.1500000","fclass":"P","fcode":"PPLA2","country":"RO","cc2":"","admin1":"30","admin2":"135949","admin3":"","admin4":"","population":10378,"elevation":0,"gtopo30":199,"timezone":"Europe/Bucharest","moddate":"2012-06-12T00:00:00.000Z"},{"geonameid":663719,"name":"Valea Largă","asciiname":"Valea Larga","alternatenames":"","latitude":"44.9637100","longitude":"26.1982000","fclass":"P","fcode":"PPL","country":"RO","cc2":"","admin1":"30","admin2":"135949","admin3":"","admin4":"","population":747,"elevation":0,"gtopo30":160,"timezone":"Europe/Bucharest","moddate":"2013-04-20T00:00:00.000Z"},{"geonameid":663639,"name":"Valea Mantei","asciiname":"Valea Mantei","alternatenames":"","latitude":"44.9763200","longitude":"26.1632900","fclass":"P","fcode":"PPL","country":"RO","cc2":"","admin1":"30","admin2":"135949","admin3":"","admin4":"","population":322,"elevation":0,"gtopo30":213,"timezone":"Europe/Bucharest","moddate":"2013-04-20T00:00:00.000Z"},{"geonameid":663549,"name":"Valea Nicovani","asciiname":"Valea Nicovani","alternatenames":"Nicovani,Valea Nicovanei,Valea Nicovani","latitude":"44.9624800","longitude":"26.1898700","fclass":"P","fcode":"PPL","country":"RO","cc2":"RO","admin1":"30","admin2":"135949","admin3":"","admin4":"","population":679,"elevation":0,"gtopo30":167,"timezone":"Europe/Bucharest","moddate":"2013-04-20T00:00:00.000Z"},{"geonameid":663514,"name":"Valea Poienii","asciiname":"Valea Poienii","alternatenames":"Valea Poenei,Valea Poenii","latitude":"44.9638200","longitude":"26.1658700","fclass":"P","fcode":"PPL","country":"RO","cc2":"RO","admin1":"30","admin2":"135949","admin3":"","admin4":"","population":382,"elevation":0,"gtopo30":178,"timezone":"Europe/Bucharest","moddate":"2013-04-20T00:00:00.000Z"},{"geonameid":663502,"name":"Valea Popii","asciiname":"Valea Popii","alternatenames":"","latitude":"44.9644700","longitude":"26.1307700","fclass":"P","fcode":"PPL","country":"RO","cc2":"","admin1":"30","admin2":"135949","admin3":"","admin4":"","population":876,"elevation":0,"gtopo30":157,"timezone":"Europe/Bucharest","moddate":"2013-04-20T00:00:00.000Z"},{"geonameid":663337,"name":"Valea Ursoii","asciiname":"Valea Ursoii","alternatenames":"","latitude":"44.9584700","longitude":"26.1750000","fclass":"P","fcode":"PPL","country":"RO","cc2":"","admin1":"30","admin2":"135949","admin3":"","admin4":"","population":419,"elevation":0,"gtopo30":148,"timezone":"Europe/Bucharest","moddate":"2013-04-20T00:00:00.000Z"},{"geonameid":662770,"name":"Vârfurile","asciiname":"Varfurile","alternatenames":"Dosurile,Virfurile,Vîrfurile","latitude":"44.9926500","longitude":"26.1520600","fclass":"P","fcode":"PPL","country":"RO","cc2":"RO","admin1":"30","admin2":"135949","admin3":"","admin4":"","population":91,"elevation":0,"gtopo30":252,"timezone":"Europe/Bucharest","moddate":"2013-04-20T00:00:00.000Z"}],"admin3":[],"alternateNames":[{"alternatenameId":8326236,"geonameid":669737,"isoLanguage":"en","alternateName":"Prahova","isPreferredName":true,"isShortName":true,"isColloquial":false,"isHistoric":false}]},"__N_SSG":true}