{"pageProps":{"locale":"ro","admin2":{"geonameid":684330,"name":"Comuna Boianu Mare","country":"RO","admin1":"05","admin2":"27506","admin3":"","latitude":"47.3748100","longitude":"22.5250700"},"admin1":{"geonameid":684878,"name":"Bihor","admin1":"05"},"locations":[{"geonameid":684331,"name":"Boianu Mare","asciiname":"Boianu Mare","alternatenames":"Boianu Mare,Boianul-Mare","latitude":"47.3833300","longitude":"22.5333300","fclass":"P","fcode":"PPLA2","country":"RO","cc2":"","admin1":"05","admin2":"27506","admin3":"","admin4":"","population":1403,"elevation":0,"gtopo30":185,"timezone":"Europe/Bucharest","moddate":"2012-06-12T00:00:00.000Z"},{"geonameid":680872,"name":"Corboaia","asciiname":"Corboaia","alternatenames":"","latitude":"47.3610600","longitude":"22.5310300","fclass":"P","fcode":"PPL","country":"RO","cc2":"","admin1":"05","admin2":"27506","admin3":"","admin4":"","population":88,"elevation":0,"gtopo30":224,"timezone":"Europe/Bucharest","moddate":"2013-04-21T00:00:00.000Z"},{"geonameid":675883,"name":"Huta","asciiname":"Huta","alternatenames":"","latitude":"47.3677600","longitude":"22.5713100","fclass":"P","fcode":"PPL","country":"RO","cc2":"","admin1":"05","admin2":"27506","admin3":"","admin4":"","population":29,"elevation":0,"gtopo30":226,"timezone":"Europe/Bucharest","moddate":"2013-04-21T00:00:00.000Z"},{"geonameid":671496,"name":"Păgaia","asciiname":"Pagaia","alternatenames":"Pagaia,Păgaia,Usztato,Usztató","latitude":"47.4074000","longitude":"22.5015700","fclass":"P","fcode":"PPL","country":"RO","cc2":"RO","admin1":"05","admin2":"27506","admin3":"","admin4":"","population":742,"elevation":0,"gtopo30":164,"timezone":"Europe/Bucharest","moddate":"2013-04-21T00:00:00.000Z"},{"geonameid":668508,"name":"Rugea","asciiname":"Rugea","alternatenames":"","latitude":"47.3550900","longitude":"22.4990000","fclass":"P","fcode":"PPL","country":"RO","cc2":"","admin1":"05","admin2":"27506","admin3":"","admin4":"","population":10,"elevation":0,"gtopo30":205,"timezone":"Europe/Bucharest","moddate":"2013-04-21T00:00:00.000Z"}],"admin3":[],"alternateNames":[]},"__N_SSG":true}