{"pageProps":{"locale":"ro","admin2":{"geonameid":8334808,"name":"Comuna Colţi","country":"RO","admin1":"11","admin2":"46439","admin3":"","latitude":"45.3910500","longitude":"26.4072300"},"admin1":{"geonameid":683121,"name":"Buzău","admin1":"11"},"locations":[{"geonameid":686421,"name":"Aluniș","asciiname":"Alunis","alternatenames":"Alunis,Alunisu,Aluniş,Alunişu","latitude":"45.4086000","longitude":"26.4163200","fclass":"P","fcode":"PPL","country":"RO","cc2":"RO","admin1":"11","admin2":"46439","admin3":"","admin4":"","population":178,"elevation":0,"gtopo30":632,"timezone":"Europe/Bucharest","moddate":"2013-04-21T00:00:00.000Z"},{"geonameid":684703,"name":"Bâsca-Colţi","asciiname":"Basca-Colti","alternatenames":"Basca Colti,Basca-Colti,Bisca-Colti,Bâsca Colţi,Bâsca-Colţi,Bîsca-Colţi","latitude":"45.4166700","longitude":"26.4000000","fclass":"P","fcode":"PPLX","country":"RO","cc2":"RO","admin1":"11","admin2":"46439","admin3":"","admin4":"","population":0,"elevation":0,"gtopo30":811,"timezone":"Europe/Bucharest","moddate":"2020-03-08T00:00:00.000Z"},{"geonameid":682888,"name":"Călugăriţele","asciiname":"Calugaritele","alternatenames":"","latitude":"45.3833300","longitude":"26.3833300","fclass":"P","fcode":"PPLX","country":"RO","cc2":"","admin1":"11","admin2":"46439","admin3":"","admin4":"","population":0,"elevation":0,"gtopo30":539,"timezone":"Europe/Bucharest","moddate":"2016-02-07T00:00:00.000Z"},{"geonameid":682861,"name":"Camburu","asciiname":"Camburu","alternatenames":"Camburu,Camburul","latitude":"45.3833300","longitude":"26.4166700","fclass":"P","fcode":"PPLX","country":"RO","cc2":"","admin1":"11","admin2":"46439","admin3":"","admin4":"","population":0,"elevation":0,"gtopo30":663,"timezone":"Europe/Bucharest","moddate":"2016-02-07T00:00:00.000Z"},{"geonameid":681047,"name":"Colţi","asciiname":"Colti","alternatenames":"Colti,Colţi,Intre Sibicii,Între Sibicii","latitude":"45.3833300","longitude":"26.3833300","fclass":"P","fcode":"PPLA2","country":"RO","cc2":"","admin1":"11","admin2":"46439","admin3":"","admin4":"","population":1313,"elevation":0,"gtopo30":539,"timezone":"Europe/Bucharest","moddate":"2012-06-12T00:00:00.000Z"},{"geonameid":681046,"name":"Colții de Jos","asciiname":"Coltii de Jos","alternatenames":"Colti,Coltii de Jos,Colţi,Colţii de Jos","latitude":"45.3930500","longitude":"26.3875200","fclass":"P","fcode":"PPL","country":"RO","cc2":"RO","admin1":"11","admin2":"46439","admin3":"","admin4":"","population":463,"elevation":0,"gtopo30":522,"timezone":"Europe/Bucharest","moddate":"2013-04-21T00:00:00.000Z"},{"geonameid":681045,"name":"Colţii de Sus","asciiname":"Coltii de Sus","alternatenames":"","latitude":"45.4166700","longitude":"26.3833300","fclass":"P","fcode":"PPLX","country":"RO","cc2":"","admin1":"11","admin2":"46439","admin3":"","admin4":"","population":0,"elevation":0,"gtopo30":751,"timezone":"Europe/Bucharest","moddate":"2016-02-07T00:00:00.000Z"},{"geonameid":681003,"name":"Comarnici","asciiname":"Comarnici","alternatenames":"","latitude":"45.4000000","longitude":"26.4166700","fclass":"P","fcode":"PPLX","country":"RO","cc2":"","admin1":"11","admin2":"46439","admin3":"","admin4":"","population":0,"elevation":0,"gtopo30":546,"timezone":"Europe/Bucharest","moddate":"2016-02-07T00:00:00.000Z"},{"geonameid":678279,"name":"Figireşti","asciiname":"Figiresti","alternatenames":"Figeresti,Figereşti,Figiresti,Figireşti","latitude":"45.3833300","longitude":"26.3833300","fclass":"P","fcode":"PPLX","country":"RO","cc2":"","admin1":"11","admin2":"46439","admin3":"","admin4":"","population":0,"elevation":0,"gtopo30":539,"timezone":"Europe/Bucharest","moddate":"2016-02-07T00:00:00.000Z"},{"geonameid":675593,"name":"În Poiană","asciiname":"In Poiana","alternatenames":"In Poena,In Poiana,În Poiană","latitude":"45.4000000","longitude":"26.3833300","fclass":"P","fcode":"PPLX","country":"RO","cc2":"","admin1":"11","admin2":"46439","admin3":"","admin4":"","population":0,"elevation":0,"gtopo30":526,"timezone":"Europe/Bucharest","moddate":"2020-06-10T00:00:00.000Z"},{"geonameid":674772,"name":"Lingureşti","asciiname":"Linguresti","alternatenames":"","latitude":"45.4000000","longitude":"26.3833300","fclass":"P","fcode":"PPLX","country":"RO","cc2":"","admin1":"11","admin2":"46439","admin3":"","admin4":"","population":0,"elevation":0,"gtopo30":526,"timezone":"Europe/Bucharest","moddate":"2016-02-07T00:00:00.000Z"},{"geonameid":674281,"name":"Lupoaia","asciiname":"Lupoaia","alternatenames":"","latitude":"45.4166700","longitude":"26.4000000","fclass":"P","fcode":"PPLX","country":"RO","cc2":"","admin1":"11","admin2":"46439","admin3":"","admin4":"","population":0,"elevation":0,"gtopo30":811,"timezone":"Europe/Bucharest","moddate":"2016-02-07T00:00:00.000Z"},{"geonameid":674192,"name":"Măgădan","asciiname":"Magadan","alternatenames":"","latitude":"45.4000000","longitude":"26.3833300","fclass":"P","fcode":"PPLX","country":"RO","cc2":"","admin1":"11","admin2":"46439","admin3":"","admin4":"","population":0,"elevation":0,"gtopo30":526,"timezone":"Europe/Bucharest","moddate":"2016-02-07T00:00:00.000Z"},{"geonameid":673696,"name":"Măţaru","asciiname":"Mataru","alternatenames":"","latitude":"45.3833300","longitude":"26.4000000","fclass":"P","fcode":"PPLX","country":"RO","cc2":"","admin1":"11","admin2":"46439","admin3":"","admin4":"","population":0,"elevation":0,"gtopo30":439,"timezone":"Europe/Bucharest","moddate":"2016-02-07T00:00:00.000Z"},{"geonameid":672682,"name":"Muscelu Cărămănești","asciiname":"Muscelu Caramanesti","alternatenames":"","latitude":"45.3839300","longitude":"26.4321100","fclass":"P","fcode":"PPL","country":"RO","cc2":"","admin1":"11","admin2":"46439","admin3":"","admin4":"","population":223,"elevation":0,"gtopo30":665,"timezone":"Europe/Bucharest","moddate":"2013-04-21T00:00:00.000Z"},{"geonameid":671446,"name":"Paltenu","asciiname":"Paltenu","alternatenames":"Paltenu,Paltinul","latitude":"45.4166700","longitude":"26.4166700","fclass":"P","fcode":"PPLX","country":"RO","cc2":"","admin1":"11","admin2":"46439","admin3":"","admin4":"","population":0,"elevation":0,"gtopo30":784,"timezone":"Europe/Bucharest","moddate":"2016-02-07T00:00:00.000Z"},{"geonameid":667485,"name":"Seciu","asciiname":"Seciu","alternatenames":"Seciu,Seciul","latitude":"45.3833300","longitude":"26.4166700","fclass":"P","fcode":"PPLX","country":"RO","cc2":"","admin1":"11","admin2":"46439","admin3":"","admin4":"","population":0,"elevation":0,"gtopo30":663,"timezone":"Europe/Bucharest","moddate":"2016-02-07T00:00:00.000Z"},{"geonameid":665973,"name":"Strâmba","asciiname":"Stramba","alternatenames":"Stramba,Strimba,Strâmba,Strîmba","latitude":"45.4000000","longitude":"26.4166700","fclass":"P","fcode":"PPLX","country":"RO","cc2":"RO","admin1":"11","admin2":"46439","admin3":"","admin4":"","population":0,"elevation":0,"gtopo30":546,"timezone":"Europe/Bucharest","moddate":"2020-03-08T00:00:00.000Z"},{"geonameid":663886,"name":"Valea Boului","asciiname":"Valea Boului","alternatenames":"","latitude":"45.3833300","longitude":"26.4000000","fclass":"P","fcode":"PPLX","country":"RO","cc2":"","admin1":"11","admin2":"46439","admin3":"","admin4":"","population":0,"elevation":0,"gtopo30":439,"timezone":"Europe/Bucharest","moddate":"2016-02-07T00:00:00.000Z"}],"admin3":[],"alternateNames":[]},"__N_SSG":true}