{"pageProps":{"locale":"ro","admin2":{"geonameid":8299670,"name":"Comuna Merișani","country":"RO","admin1":"03","admin2":"17101","admin3":"","latitude":"44.9667400","longitude":"24.7448200"},"admin1":{"geonameid":686192,"name":"Argeş","admin1":"03"},"locations":[{"geonameid":684192,"name":"Borlești","asciiname":"Borlesti","alternatenames":"","latitude":"44.9479400","longitude":"24.7638600","fclass":"P","fcode":"PPL","country":"RO","cc2":"","admin1":"03","admin2":"17101","admin3":"","admin4":"","population":558,"elevation":0,"gtopo30":317,"timezone":"Europe/Bucharest","moddate":"2013-04-21T00:00:00.000Z"},{"geonameid":683833,"name":"Brăteasca","asciiname":"Brateasca","alternatenames":"","latitude":"44.9948500","longitude":"24.7120300","fclass":"P","fcode":"PPL","country":"RO","cc2":"","admin1":"03","admin2":"17101","admin3":"","admin4":"","population":0,"elevation":0,"gtopo30":350,"timezone":"Europe/Bucharest","moddate":"2016-02-07T00:00:00.000Z"},{"geonameid":682819,"name":"Căpăţâneşti","asciiname":"Capatanesti","alternatenames":"Capatanesti,Capatinesti,Căpătâneşti,Căpăţâneşti,Căpăţîneşti","latitude":"44.9166700","longitude":"24.7833300","fclass":"P","fcode":"PPLX","country":"RO","cc2":"RO","admin1":"03","admin2":"17101","admin3":"","admin4":"","population":0,"elevation":0,"gtopo30":352,"timezone":"Europe/Bucharest","moddate":"2020-03-08T00:00:00.000Z"},{"geonameid":682762,"name":"Capu Piscului","asciiname":"Capu Piscului","alternatenames":"Capu Piscului,Capul-Piscului","latitude":"45.0007800","longitude":"24.7343600","fclass":"P","fcode":"PPL","country":"RO","cc2":"RO","admin1":"03","admin2":"17101","admin3":"","admin4":"","population":88,"elevation":0,"gtopo30":328,"timezone":"Europe/Bucharest","moddate":"2013-04-21T00:00:00.000Z"},{"geonameid":680234,"name":"Crâmpotani","asciiname":"Crampotani","alternatenames":"Crimpoteni,Crîmpoteni","latitude":"45.0166700","longitude":"24.7000000","fclass":"P","fcode":"PPL","country":"RO","cc2":"","admin1":"03","admin2":"17101","admin3":"","admin4":"","population":613,"elevation":0,"gtopo30":347,"timezone":"Europe/Bucharest","moddate":"2015-11-11T00:00:00.000Z"},{"geonameid":10941904,"name":"Dobrogostea","asciiname":"Dobrogostea","alternatenames":"","latitude":"44.9294100","longitude":"24.7835500","fclass":"P","fcode":"PPL","country":"RO","cc2":"","admin1":"03","admin2":"17101","admin3":"","admin4":"","population":812,"elevation":0,"gtopo30":304,"timezone":"Europe/Bucharest","moddate":"2015-11-11T00:00:00.000Z"},{"geonameid":673960,"name":"Malu Vânăt","asciiname":"Malu Vanat","alternatenames":"Malu Vinat,Malu Vînăt,Malul Vanat,Malul Vânat","latitude":"44.9857500","longitude":"24.7257600","fclass":"P","fcode":"PPL","country":"RO","cc2":"RO","admin1":"03","admin2":"17101","admin3":"","admin4":"","population":0,"elevation":0,"gtopo30":340,"timezone":"Europe/Bucharest","moddate":"2016-02-07T00:00:00.000Z"},{"geonameid":673553,"name":"Merişani","asciiname":"Merisani","alternatenames":"Merisani,Merisanii,Merişani,Merişanii","latitude":"44.9682000","longitude":"24.7432700","fclass":"P","fcode":"PPLA2","country":"RO","cc2":"","admin1":"03","admin2":"17101","admin3":"","admin4":"","population":4390,"elevation":0,"gtopo30":329,"timezone":"Europe/Bucharest","moddate":"2012-06-12T00:00:00.000Z"},{"geonameid":664941,"name":"Târşeşti","asciiname":"Tarsesti","alternatenames":"Tarsesti,Tirsesti,Târseşti,Târşeşti,Tîrşeşti","latitude":"44.9500000","longitude":"24.7166700","fclass":"P","fcode":"PPLX","country":"RO","cc2":"RO","admin1":"03","admin2":"17101","admin3":"","admin4":"","population":0,"elevation":0,"gtopo30":461,"timezone":"Europe/Bucharest","moddate":"2020-03-08T00:00:00.000Z"},{"geonameid":665142,"name":"Ţiganca","asciiname":"Tiganca","alternatenames":"","latitude":"44.9666700","longitude":"24.7333300","fclass":"P","fcode":"PPLX","country":"RO","cc2":"","admin1":"03","admin2":"17101","admin3":"","admin4":"","population":0,"elevation":0,"gtopo30":388,"timezone":"Europe/Bucharest","moddate":"2016-02-07T00:00:00.000Z"},{"geonameid":662875,"name":"Vâlcelele","asciiname":"Valcelele","alternatenames":"Vilcelele,Vîlcelele","latitude":"45.0036500","longitude":"24.7045600","fclass":"P","fcode":"PPL","country":"RO","cc2":"","admin1":"03","admin2":"17101","admin3":"","admin4":"","population":266,"elevation":0,"gtopo30":351,"timezone":"Europe/Bucharest","moddate":"2015-11-14T00:00:00.000Z"},{"geonameid":663895,"name":"Valea Boierească","asciiname":"Valea Boiereasca","alternatenames":"Valea Boereasca,Valea Boereaşca,Valea Boiereasca,Valea Boierească","latitude":"44.9810700","longitude":"24.7291900","fclass":"P","fcode":"PPLX","country":"RO","cc2":"RO","admin1":"03","admin2":"17101","admin3":"","admin4":"","population":0,"elevation":0,"gtopo30":380,"timezone":"Europe/Bucharest","moddate":"2016-02-07T00:00:00.000Z"},{"geonameid":663140,"name":"Vărzaru","asciiname":"Varzaru","alternatenames":"Varzaru,Varzarul,Vărzaru,Vărzarul","latitude":"44.9379500","longitude":"24.7767000","fclass":"P","fcode":"PPL","country":"RO","cc2":"RO","admin1":"03","admin2":"17101","admin3":"","admin4":"","population":445,"elevation":0,"gtopo30":303,"timezone":"Europe/Bucharest","moddate":"2013-04-20T00:00:00.000Z"}],"admin3":[],"alternateNames":[]},"__N_SSG":true}