{"pageProps":{"locale":"ro","admin2":{"geonameid":682458,"name":"Comuna Ceuaşu De Câmpie","country":"RO","admin1":"27","admin2":"115959","admin3":"","latitude":"46.6459000","longitude":"24.4865400"},"admin1":{"geonameid":672628,"name":"Mureş","admin1":"27"},"locations":[{"geonameid":684009,"name":"Bozed","asciiname":"Bozed","alternatenames":"Bazed,Bazèd,Bozed","latitude":"46.6873600","longitude":"24.4622600","fclass":"P","fcode":"PPL","country":"RO","cc2":"RO","admin1":"27","admin2":"115959","admin3":"","admin4":"","population":261,"elevation":0,"gtopo30":343,"timezone":"Europe/Bucharest","moddate":"2013-04-21T00:00:00.000Z"},{"geonameid":681869,"name":"Câmpeniţa","asciiname":"Campenita","alternatenames":"Campenita,Câmpeniţa,Mezofele,Mezöfele","latitude":"46.6504400","longitude":"24.4870700","fclass":"P","fcode":"PPL","country":"RO","cc2":"RO","admin1":"27","admin2":"115959","admin3":"","admin4":"","population":0,"elevation":0,"gtopo30":358,"timezone":"Europe/Bucharest","moddate":"2016-02-07T00:00:00.000Z"},{"geonameid":682459,"name":"Ceuașu de Câmpie","asciiname":"Ceuasu de Campie","alternatenames":"Ceuasu de Cimpie,Ceuaşu de Cîmpie,Mezocsavas,Mezőcsávás","latitude":"46.6333300","longitude":"24.5166700","fclass":"P","fcode":"PPLA2","country":"RO","cc2":"","admin1":"27","admin2":"115959","admin3":"","admin4":"","population":1656,"elevation":0,"gtopo30":347,"timezone":"Europe/Bucharest","moddate":"2015-12-15T00:00:00.000Z"},{"geonameid":679969,"name":"Culpiu","asciiname":"Culpiu","alternatenames":"Culpiu,Culpiul,Mezokolpeny,Mezökölpèny","latitude":"46.6396100","longitude":"24.4325800","fclass":"P","fcode":"PPL","country":"RO","cc2":"RO","admin1":"27","admin2":"115959","admin3":"","admin4":"","population":410,"elevation":0,"gtopo30":331,"timezone":"Europe/Bucharest","moddate":"2013-04-21T00:00:00.000Z"},{"geonameid":676229,"name":"Herghelia","asciiname":"Herghelia","alternatenames":"Mezomenes,Mezömènes","latitude":"46.6332900","longitude":"24.4796800","fclass":"P","fcode":"PPL","country":"RO","cc2":"RO","admin1":"27","admin2":"115959","admin3":"","admin4":"","population":0,"elevation":0,"gtopo30":375,"timezone":"Europe/Bucharest","moddate":"2016-02-07T00:00:00.000Z"},{"geonameid":669814,"name":"Porumbeni","asciiname":"Porumbeni","alternatenames":"Galambod,Galambòd","latitude":"46.6352300","longitude":"24.5451700","fclass":"P","fcode":"PPL","country":"RO","cc2":"RO","admin1":"27","admin2":"115959","admin3":"","admin4":"","population":0,"elevation":0,"gtopo30":363,"timezone":"Europe/Bucharest","moddate":"2016-02-07T00:00:00.000Z"},{"geonameid":668359,"name":"Săbed","asciiname":"Sabed","alternatenames":"Sabed,Szabed,Szabèd,Săbed","latitude":"46.6645000","longitude":"24.4463200","fclass":"P","fcode":"PPL","country":"RO","cc2":"RO","admin1":"27","admin2":"115959","admin3":"","admin4":"","population":712,"elevation":0,"gtopo30":349,"timezone":"Europe/Bucharest","moddate":"2013-04-21T00:00:00.000Z"},{"geonameid":662513,"name":"Voiniceni","asciiname":"Voiniceni","alternatenames":"Mezoszabad,Mezöszabad","latitude":"46.6150200","longitude":"24.5252600","fclass":"P","fcode":"PPL","country":"RO","cc2":"RO","admin1":"27","admin2":"115959","admin3":"","admin4":"","population":0,"elevation":0,"gtopo30":339,"timezone":"Europe/Bucharest","moddate":"2016-02-07T00:00:00.000Z"}],"admin3":[],"alternateNames":[]},"__N_SSG":true}