{"pageProps":{"locale":"ro","admin2":{"geonameid":674196,"name":"Comuna Măerişte","country":"RO","admin1":"31","admin2":"142006","admin3":"","latitude":"47.2989300","longitude":"22.7544400"},"admin1":{"geonameid":668248,"name":"Sălaj","admin1":"31"},"locations":[{"geonameid":685082,"name":"Berc","asciiname":"Berc","alternatenames":"","latitude":"47.3000000","longitude":"22.8000000","fclass":"P","fcode":"PPLX","country":"RO","cc2":"","admin1":"31","admin2":"142006","admin3":"","admin4":"","population":0,"elevation":0,"gtopo30":186,"timezone":"Europe/Bucharest","moddate":"2016-02-07T00:00:00.000Z"},{"geonameid":680185,"name":"Criștelec","asciiname":"Cristelec","alternatenames":"Cristelec,Criştelec,Uileac-Cristelec","latitude":"47.2637500","longitude":"22.7231700","fclass":"P","fcode":"PPL","country":"RO","cc2":"RO","admin1":"31","admin2":"142006","admin3":"","admin4":"","population":659,"elevation":0,"gtopo30":203,"timezone":"Europe/Bucharest","moddate":"2013-04-21T00:00:00.000Z"},{"geonameid":679157,"name":"Doh","asciiname":"Doh","alternatenames":"Doh,Doli","latitude":"47.3297800","longitude":"22.7185800","fclass":"P","fcode":"PPL","country":"RO","cc2":"RO","admin1":"31","admin2":"142006","admin3":"","admin4":"","population":351,"elevation":0,"gtopo30":239,"timezone":"Europe/Bucharest","moddate":"2013-04-21T00:00:00.000Z"},{"geonameid":677097,"name":"Giurtelecu Șimleului","asciiname":"Giurtelecu Simleului","alternatenames":"Giurletecu-Simleului,Giurtelecu-Simleului,Giurtelecu-Şimleului,Giurtelecul Simleului,Giurtelecul Şimleului,Giurtelecul-Simeului,Giurtelecul-Şimeului","latitude":"47.2968000","longitude":"22.7955700","fclass":"P","fcode":"PPL","country":"RO","cc2":"RO","admin1":"31","admin2":"142006","admin3":"","admin4":"","population":1149,"elevation":0,"gtopo30":204,"timezone":"Europe/Bucharest","moddate":"2013-04-21T00:00:00.000Z"},{"geonameid":674197,"name":"Măerişte","asciiname":"Maeriste","alternatenames":"Maeriste,Maieriste,Măerişte,Măierişte","latitude":"47.3166700","longitude":"22.8000000","fclass":"P","fcode":"PPLA2","country":"RO","cc2":"","admin1":"31","admin2":"142006","admin3":"","admin4":"","population":3436,"elevation":0,"gtopo30":171,"timezone":"Europe/Bucharest","moddate":"2012-06-12T00:00:00.000Z"},{"geonameid":674050,"name":"Mălădia","asciiname":"Maladia","alternatenames":"","latitude":"47.2986200","longitude":"22.7418600","fclass":"P","fcode":"PPL","country":"RO","cc2":"","admin1":"31","admin2":"142006","admin3":"","admin4":"","population":309,"elevation":0,"gtopo30":226,"timezone":"Europe/Bucharest","moddate":"2013-04-21T00:00:00.000Z"},{"geonameid":666416,"name":"Soruşa","asciiname":"Sorusa","alternatenames":"","latitude":"47.2833300","longitude":"22.7666700","fclass":"P","fcode":"PPLX","country":"RO","cc2":"","admin1":"31","admin2":"142006","admin3":"","admin4":"","population":0,"elevation":0,"gtopo30":183,"timezone":"Europe/Bucharest","moddate":"2016-02-07T00:00:00.000Z"},{"geonameid":664348,"name":"Uileacu Șimleului","asciiname":"Uileacu Simleului","alternatenames":"Uileac-Simleului,Uileacu Simleului,Uileacu Şimleului,Uileacul-Simleului,Uileacul-Şimleului","latitude":"47.2791400","longitude":"22.7536000","fclass":"P","fcode":"PPL","country":"RO","cc2":"RO","admin1":"31","admin2":"142006","admin3":"","admin4":"","population":516,"elevation":0,"gtopo30":193,"timezone":"Europe/Bucharest","moddate":"2013-04-21T00:00:00.000Z"}],"admin3":[],"alternateNames":[]},"__N_SSG":true}