{"pageProps":{"locale":"ro","admin2":{"geonameid":672107,"name":"Comuna Oarja","country":"RO","admin1":"03","admin2":"17824","admin3":"","latitude":"44.7573000","longitude":"24.9693500"},"admin1":{"geonameid":686192,"name":"Argeş","admin1":"03"},"locations":[{"geonameid":682461,"name":"Ceauşeşti","asciiname":"Ceausesti","alternatenames":"Ceausesti,Ceauşeşti","latitude":"44.7441700","longitude":"24.9767300","fclass":"P","fcode":"PPL","country":"RO","cc2":"RO","admin1":"03","admin2":"17824","admin3":"","admin4":"","population":0,"elevation":0,"gtopo30":266,"timezone":"Europe/Bucharest","moddate":"2016-02-07T00:00:00.000Z"},{"geonameid":666281,"name":"Lăceni","asciiname":"Laceni","alternatenames":"","latitude":"44.7557500","longitude":"24.9842000","fclass":"P","fcode":"PPL","country":"RO","cc2":"","admin1":"03","admin2":"17824","admin3":"","admin4":"","population":0,"elevation":0,"gtopo30":261,"timezone":"Europe/Bucharest","moddate":"2016-02-07T00:00:00.000Z"},{"geonameid":10941906,"name":"Oarja","asciiname":"Oarja","alternatenames":"","latitude":"44.7605300","longitude":"24.9759600","fclass":"P","fcode":"PPLA2","country":"RO","cc2":"","admin1":"03","admin2":"17824","admin3":"","admin4":"","population":2341,"elevation":0,"gtopo30":269,"timezone":"Europe/Bucharest","moddate":"2015-11-11T00:00:00.000Z"},{"geonameid":672108,"name":"Oarja Sat","asciiname":"Oarja Sat","alternatenames":"","latitude":"44.7642900","longitude":"24.9714100","fclass":"P","fcode":"PPL","country":"RO","cc2":"","admin1":"03","admin2":"17824","admin3":"","admin4":"","population":2851,"elevation":0,"gtopo30":270,"timezone":"Europe/Bucharest","moddate":"2016-02-07T00:00:00.000Z"}],"admin3":[],"alternateNames":[]},"__N_SSG":true}