{"pageProps":{"locale":"ro","admin2":{"geonameid":676777,"name":"Comuna Greabănu","country":"RO","admin1":"11","admin2":"47006","admin3":"","latitude":"45.3879400","longitude":"26.9662800"},"admin1":{"geonameid":683121,"name":"Buzău","admin1":"11"},"locations":[{"geonameid":680162,"name":"Cristineşti","asciiname":"Cristinesti","alternatenames":"Cristinesci,Cristinesti,Cristineşci,Cristineşti","latitude":"45.3666700","longitude":"26.9833300","fclass":"P","fcode":"PPL","country":"RO","cc2":"","admin1":"11","admin2":"47006","admin3":"","admin4":"","population":0,"elevation":0,"gtopo30":213,"timezone":"Europe/Bucharest","moddate":"2016-02-07T00:00:00.000Z"},{"geonameid":676778,"name":"Grebănu","asciiname":"Grebanu","alternatenames":"Grebanul,Grebănul","latitude":"45.3833300","longitude":"26.9666700","fclass":"P","fcode":"PPLA2","country":"RO","cc2":"","admin1":"11","admin2":"47006","admin3":"","admin4":"","population":2178,"elevation":0,"gtopo30":251,"timezone":"Europe/Bucharest","moddate":"2015-11-12T00:00:00.000Z"},{"geonameid":676243,"name":"Herăşti","asciiname":"Herasti","alternatenames":"","latitude":"45.3833300","longitude":"26.9666700","fclass":"P","fcode":"PPL","country":"RO","cc2":"","admin1":"11","admin2":"47006","admin3":"","admin4":"","population":0,"elevation":0,"gtopo30":251,"timezone":"Europe/Bucharest","moddate":"2016-02-07T00:00:00.000Z"},{"geonameid":676066,"name":"Homești","asciiname":"Homesti","alternatenames":"","latitude":"45.3980500","longitude":"26.9587700","fclass":"P","fcode":"PPL","country":"RO","cc2":"","admin1":"11","admin2":"47006","admin3":"","admin4":"","population":915,"elevation":0,"gtopo30":297,"timezone":"Europe/Bucharest","moddate":"2013-04-21T00:00:00.000Z"},{"geonameid":674688,"name":"Livada","asciiname":"Livada","alternatenames":"Livada,Putreda Mare","latitude":"45.3818200","longitude":"26.9476400","fclass":"P","fcode":"PPL","country":"RO","cc2":"RO","admin1":"11","admin2":"47006","admin3":"","admin4":"","population":644,"elevation":0,"gtopo30":357,"timezone":"Europe/Bucharest","moddate":"2013-04-21T00:00:00.000Z"},{"geonameid":674670,"name":"Livada Mică","asciiname":"Livada Mica","alternatenames":"Livada Mica,Livada Mică,Putreda Mica,Putreda Mică","latitude":"45.3903200","longitude":"26.9217200","fclass":"P","fcode":"PPL","country":"RO","cc2":"RO","admin1":"11","admin2":"47006","admin3":"","admin4":"","population":178,"elevation":0,"gtopo30":501,"timezone":"Europe/Bucharest","moddate":"2013-04-21T00:00:00.000Z"},{"geonameid":670484,"name":"Plevna","asciiname":"Plevna","alternatenames":"","latitude":"45.3781500","longitude":"27.0131000","fclass":"P","fcode":"PPL","country":"RO","cc2":"","admin1":"11","admin2":"47006","admin3":"","admin4":"","population":1360,"elevation":0,"gtopo30":182,"timezone":"Europe/Bucharest","moddate":"2013-04-21T00:00:00.000Z"},{"geonameid":669421,"name":"Putreda de Deal","asciiname":"Putreda de Deal","alternatenames":"","latitude":"45.4000000","longitude":"26.9166700","fclass":"P","fcode":"PPLX","country":"RO","cc2":"","admin1":"11","admin2":"47006","admin3":"","admin4":"","population":0,"elevation":0,"gtopo30":502,"timezone":"Europe/Bucharest","moddate":"2016-02-07T00:00:00.000Z"},{"geonameid":662305,"name":"Zăplazi","asciiname":"Zaplazi","alternatenames":"Zaplaz,Zaplazi,Zăplaz,Zăplazi","latitude":"45.4028300","longitude":"26.9739600","fclass":"P","fcode":"PPL","country":"RO","cc2":"RO","admin1":"11","admin2":"47006","admin3":"","admin4":"","population":100,"elevation":0,"gtopo30":308,"timezone":"Europe/Bucharest","moddate":"2013-04-20T00:00:00.000Z"}],"admin3":[],"alternateNames":[]},"__N_SSG":true}