{"pageProps":{"locale":"ro","admin2":{"geonameid":682078,"name":"Comuna Chiojdeni","country":"RO","admin1":"40","admin2":"175509","admin3":"","latitude":"45.5611300","longitude":"26.8438900"},"admin1":{"geonameid":662447,"name":"Vrancea","admin1":"40","localeAltName":"Vrancea"},"locations":[{"geonameid":682561,"name":"Cătăuți","asciiname":"Catauti","alternatenames":"","latitude":"45.5404400","longitude":"26.8465800","fclass":"P","fcode":"PPL","country":"RO","cc2":"","admin1":"40","admin2":"175509","admin3":"","admin4":"","population":422,"elevation":0,"gtopo30":381,"timezone":"Europe/Bucharest","moddate":"2013-04-21T00:00:00.000Z"},{"geonameid":682079,"name":"Chiojdeni","asciiname":"Chiojdeni","alternatenames":"Chiojdeni","latitude":"45.5500000","longitude":"26.8666700","fclass":"P","fcode":"PPLA2","country":"RO","cc2":"","admin1":"40","admin2":"175509","admin3":"","admin4":"","population":2449,"elevation":0,"gtopo30":489,"timezone":"Europe/Bucharest","moddate":"2012-06-12T00:00:00.000Z"},{"geonameid":682077,"name":"Chiojdenii Mari","asciiname":"Chiojdenii Mari","alternatenames":"","latitude":"45.5666700","longitude":"26.8666700","fclass":"P","fcode":"PPLX","country":"RO","cc2":"","admin1":"40","admin2":"175509","admin3":"","admin4":"","population":0,"elevation":0,"gtopo30":399,"timezone":"Europe/Bucharest","moddate":"2016-02-07T00:00:00.000Z"},{"geonameid":677820,"name":"Fundătura","asciiname":"Fundatura","alternatenames":"","latitude":"45.5333300","longitude":"26.8333300","fclass":"P","fcode":"PPLX","country":"RO","cc2":"","admin1":"40","admin2":"175509","admin3":"","admin4":"","population":0,"elevation":0,"gtopo30":416,"timezone":"Europe/Bucharest","moddate":"2016-02-07T00:00:00.000Z"},{"geonameid":674623,"name":"Lojnița","asciiname":"Lojnita","alternatenames":"","latitude":"45.5856100","longitude":"26.8368900","fclass":"P","fcode":"PPL","country":"RO","cc2":"","admin1":"40","admin2":"175509","admin3":"","admin4":"","population":136,"elevation":0,"gtopo30":606,"timezone":"Europe/Bucharest","moddate":"2013-04-21T00:00:00.000Z"},{"geonameid":674343,"name":"Luncile","asciiname":"Luncile","alternatenames":"Luncile,Luneile","latitude":"45.5603700","longitude":"26.8142100","fclass":"P","fcode":"PPL","country":"RO","cc2":"RO","admin1":"40","admin2":"175509","admin3":"","admin4":"","population":723,"elevation":0,"gtopo30":384,"timezone":"Europe/Bucharest","moddate":"2013-04-21T00:00:00.000Z"},{"geonameid":673889,"name":"Mărăcineşti","asciiname":"Maracinesti","alternatenames":"Maracineni,Maracinesti,Mărăcineni,Mărăcineşti","latitude":"45.5500000","longitude":"26.8666700","fclass":"P","fcode":"PPL","country":"RO","cc2":"","admin1":"40","admin2":"175509","admin3":"","admin4":"","population":0,"elevation":0,"gtopo30":489,"timezone":"Europe/Bucharest","moddate":"2016-02-07T00:00:00.000Z"},{"geonameid":672934,"name":"Mărăcini","asciiname":"Maracini","alternatenames":"","latitude":"45.5833300","longitude":"26.8333300","fclass":"P","fcode":"PPL","country":"RO","cc2":"","admin1":"40","admin2":"175509","admin3":"","admin4":"","population":119,"elevation":0,"gtopo30":593,"timezone":"Europe/Bucharest","moddate":"2016-01-10T00:00:00.000Z"},{"geonameid":670314,"name":"Podu","asciiname":"Podu","alternatenames":"","latitude":"45.5500000","longitude":"26.8833300","fclass":"P","fcode":"PPLX","country":"RO","cc2":"","admin1":"40","admin2":"175509","admin3":"","admin4":"","population":0,"elevation":0,"gtopo30":377,"timezone":"Europe/Bucharest","moddate":"2016-02-07T00:00:00.000Z"},{"geonameid":670266,"name":"Podurile","asciiname":"Podurile","alternatenames":"","latitude":"45.5569300","longitude":"26.8628300","fclass":"P","fcode":"PPL","country":"RO","cc2":"","admin1":"40","admin2":"175509","admin3":"","admin4":"","population":335,"elevation":0,"gtopo30":412,"timezone":"Europe/Bucharest","moddate":"2013-04-21T00:00:00.000Z"},{"geonameid":668852,"name":"Râpa Lungă","asciiname":"Rapa Lunga","alternatenames":"Rapa Lunga,Ripa Lunga,Râpa Lungă,Rîpa Lungă","latitude":"45.5666700","longitude":"26.8500000","fclass":"P","fcode":"PPLX","country":"RO","cc2":"","admin1":"40","admin2":"175509","admin3":"","admin4":"","population":0,"elevation":0,"gtopo30":397,"timezone":"Europe/Bucharest","moddate":"2020-03-08T00:00:00.000Z"},{"geonameid":668578,"name":"Rotăria","asciiname":"Rotaria","alternatenames":"","latitude":"45.5666700","longitude":"26.8500000","fclass":"P","fcode":"PPLX","country":"RO","cc2":"","admin1":"40","admin2":"175509","admin3":"","admin4":"","population":0,"elevation":0,"gtopo30":397,"timezone":"Europe/Bucharest","moddate":"2016-02-07T00:00:00.000Z"},{"geonameid":667486,"name":"Seciu","asciiname":"Seciu","alternatenames":"","latitude":"45.5367100","longitude":"26.8353400","fclass":"P","fcode":"PPL","country":"RO","cc2":"","admin1":"40","admin2":"175509","admin3":"","admin4":"","population":127,"elevation":0,"gtopo30":381,"timezone":"Europe/Bucharest","moddate":"2013-04-21T00:00:00.000Z"},{"geonameid":664524,"name":"Tulburea","asciiname":"Tulburea","alternatenames":"Tulburea,Turburea","latitude":"45.5651100","longitude":"26.8439700","fclass":"P","fcode":"PPL","country":"RO","cc2":"RO","admin1":"40","admin2":"175509","admin3":"","admin4":"","population":295,"elevation":0,"gtopo30":385,"timezone":"Europe/Bucharest","moddate":"2013-04-21T00:00:00.000Z"}],"admin3":[],"alternateNames":[{"alternatenameId":391637,"geonameid":662447,"isoLanguage":"ro","alternateName":"Vrancea","isPreferredName":true,"isShortName":true,"isColloquial":false,"isHistoric":false}]},"__N_SSG":true}