{"pageProps":{"locale":"ro","admin2":{"geonameid":666499,"name":"Comuna Soleşti","country":"RO","admin1":"38","admin2":"165899","admin3":"","latitude":"46.7717400","longitude":"27.8061300"},"admin1":{"geonameid":663116,"name":"Vaslui","admin1":"38"},"locations":[{"geonameid":684013,"name":"Boușori","asciiname":"Bousori","alternatenames":"Bousori,Bousorii,Bouşori,Bouşorii","latitude":"46.7333500","longitude":"27.8252600","fclass":"P","fcode":"PPL","country":"RO","cc2":"RO","admin1":"38","admin2":"165899","admin3":"","admin4":"","population":385,"elevation":0,"gtopo30":253,"timezone":"Europe/Bucharest","moddate":"2013-04-21T00:00:00.000Z"},{"geonameid":675802,"name":"Iaz","asciiname":"Iaz","alternatenames":"","latitude":"46.8192400","longitude":"27.7601100","fclass":"P","fcode":"PPL","country":"RO","cc2":"","admin1":"38","admin2":"165899","admin3":"","admin4":"","population":322,"elevation":0,"gtopo30":136,"timezone":"Europe/Bucharest","moddate":"2013-04-21T00:00:00.000Z"},{"geonameid":667816,"name":"Satu Nou","asciiname":"Satu Nou","alternatenames":"","latitude":"46.7840800","longitude":"27.8004500","fclass":"P","fcode":"PPL","country":"RO","cc2":"","admin1":"38","admin2":"165899","admin3":"","admin4":"","population":270,"elevation":0,"gtopo30":132,"timezone":"Europe/Bucharest","moddate":"2013-04-21T00:00:00.000Z"},{"geonameid":667351,"name":"Șerbotești","asciiname":"Serbotesti","alternatenames":"","latitude":"46.8094400","longitude":"27.7777000","fclass":"P","fcode":"PPL","country":"RO","cc2":"","admin1":"38","admin2":"165899","admin3":"","admin4":"","population":769,"elevation":0,"gtopo30":131,"timezone":"Europe/Bucharest","moddate":"2013-04-21T00:00:00.000Z"},{"geonameid":666500,"name":"Soleşti","asciiname":"Solesti","alternatenames":"Solesti,Soleşti","latitude":"46.7666700","longitude":"27.7833300","fclass":"P","fcode":"PPLA2","country":"RO","cc2":"","admin1":"38","admin2":"165899","admin3":"","admin4":"","population":3862,"elevation":0,"gtopo30":108,"timezone":"Europe/Bucharest","moddate":"2012-06-12T00:00:00.000Z"},{"geonameid":666107,"name":"Știoborăni","asciiname":"Stioborani","alternatenames":"Stioborani,Stioboreni,Stirboreni,Ştioboreni,Ştioborăni,Ştirboreni","latitude":"46.7463600","longitude":"27.8576500","fclass":"P","fcode":"PPL","country":"RO","cc2":"RO","admin1":"38","admin2":"165899","admin3":"","admin4":"","population":521,"elevation":0,"gtopo30":255,"timezone":"Europe/Bucharest","moddate":"2013-04-21T00:00:00.000Z"},{"geonameid":663397,"name":"Valea Siliștei","asciiname":"Valea Silistei","alternatenames":"","latitude":"46.7452900","longitude":"27.8311800","fclass":"P","fcode":"PPL","country":"RO","cc2":"","admin1":"38","admin2":"165899","admin3":"","admin4":"","population":345,"elevation":0,"gtopo30":279,"timezone":"Europe/Bucharest","moddate":"2013-04-20T00:00:00.000Z"}],"admin3":[],"alternateNames":[]},"__N_SSG":true}