{"pageProps":{"locale":"ro","admin2":{"geonameid":662708,"name":"Comuna Vişani","country":"RO","admin1":"08","admin2":"44462","admin3":"","latitude":"45.1849500","longitude":"27.3061100"},"admin1":{"geonameid":683901,"name":"Brăila","admin1":"08"},"locations":[{"geonameid":681926,"name":"Câineni","asciiname":"Caineni","alternatenames":"Caineni,Ciineni,Câineni,Cîineni","latitude":"45.2000000","longitude":"27.3333300","fclass":"P","fcode":"PPL","country":"RO","cc2":"RO","admin1":"08","admin2":"44462","admin3":"","admin4":"","population":0,"elevation":0,"gtopo30":30,"timezone":"Europe/Bucharest","moddate":"2020-03-08T00:00:00.000Z"},{"geonameid":681924,"name":"Câineni Băi","asciiname":"Caineni Bai","alternatenames":"Baile Ciineni,Băile Cîineni,Caineni Bai,Ciineni Bai,Câineni Băi,Cîineni Băi","latitude":"45.2000000","longitude":"27.3166700","fclass":"P","fcode":"PPL","country":"RO","cc2":"RO","admin1":"08","admin2":"44462","admin3":"","admin4":"","population":0,"elevation":0,"gtopo30":31,"timezone":"Europe/Bucharest","moddate":"2020-03-08T00:00:00.000Z"},{"geonameid":681919,"name":"Câinenii Noi","asciiname":"Cainenii Noi","alternatenames":"Cainenii Noi,Ciinenii Noi,Câinenii Noi,Cîinenii Noi","latitude":"45.1833300","longitude":"27.3333300","fclass":"P","fcode":"PPLX","country":"RO","cc2":"","admin1":"08","admin2":"44462","admin3":"","admin4":"","population":0,"elevation":0,"gtopo30":29,"timezone":"Europe/Bucharest","moddate":"2020-03-08T00:00:00.000Z"},{"geonameid":681918,"name":"Câinenii Vechi","asciiname":"Cainenii Vechi","alternatenames":"Cainenii Vechi,Ciinenii Vechi,Câinenii Vechi,Cîinenii Vechi","latitude":"45.1833300","longitude":"27.3333300","fclass":"P","fcode":"PPLX","country":"RO","cc2":"","admin1":"08","admin2":"44462","admin3":"","admin4":"","population":0,"elevation":0,"gtopo30":29,"timezone":"Europe/Bucharest","moddate":"2020-03-08T00:00:00.000Z"},{"geonameid":670491,"name":"Plăsoiu","asciiname":"Plasoiu","alternatenames":"","latitude":"45.2087600","longitude":"27.3027400","fclass":"P","fcode":"PPL","country":"RO","cc2":"","admin1":"08","admin2":"44462","admin3":"","admin4":"","population":218,"elevation":0,"gtopo30":51,"timezone":"Europe/Bucharest","moddate":"2015-11-19T00:00:00.000Z"},{"geonameid":662709,"name":"Vişani","asciiname":"Visani","alternatenames":"","latitude":"45.1500000","longitude":"27.2833300","fclass":"P","fcode":"PPLA2","country":"RO","cc2":"","admin1":"08","admin2":"44462","admin3":"","admin4":"","population":2819,"elevation":0,"gtopo30":37,"timezone":"Europe/Bucharest","moddate":"2012-06-12T00:00:00.000Z"}],"admin3":[],"alternateNames":[]},"__N_SSG":true}