{"pageProps":{"locale":"ro","admin2":{"geonameid":665088,"name":"Comuna Timişeşti","country":"RO","admin1":"28","admin2":"124661","admin3":"","latitude":"47.2293900","longitude":"26.5198200"},"admin1":{"geonameid":672460,"name":"Neamţ","admin1":"28"},"locations":[{"geonameid":678736,"name":"Dumbrava","asciiname":"Dumbrava","alternatenames":"Dumbrava,Grasi,Graşi","latitude":"47.2162000","longitude":"26.4630900","fclass":"P","fcode":"PPL","country":"RO","cc2":"RO","admin1":"28","admin2":"124661","admin3":"","admin4":"","population":1132,"elevation":0,"gtopo30":316,"timezone":"Europe/Bucharest","moddate":"2013-04-21T00:00:00.000Z"},{"geonameid":670581,"name":"Plăieșu","asciiname":"Plaiesu","alternatenames":"","latitude":"47.2333300","longitude":"26.5000000","fclass":"P","fcode":"PPL","country":"RO","cc2":"","admin1":"28","admin2":"124661","admin3":"","admin4":"","population":619,"elevation":0,"gtopo30":297,"timezone":"Europe/Bucharest","moddate":"2015-12-18T00:00:00.000Z"},{"geonameid":669666,"name":"Preutești","asciiname":"Preutesti","alternatenames":"Preotesti,Preoţeşti,Preutesti,Preuteşti","latitude":"47.2561300","longitude":"26.5149300","fclass":"P","fcode":"PPL","country":"RO","cc2":"RO","admin1":"28","admin2":"124661","admin3":"","admin4":"","population":588,"elevation":0,"gtopo30":283,"timezone":"Europe/Bucharest","moddate":"2013-04-21T00:00:00.000Z"},{"geonameid":665089,"name":"Timişeşti","asciiname":"Timisesti","alternatenames":"Timisesti,Timişeşti","latitude":"47.2333300","longitude":"26.5500000","fclass":"P","fcode":"PPLA2","country":"RO","cc2":"","admin1":"28","admin2":"124661","admin3":"","admin4":"","population":4004,"elevation":0,"gtopo30":277,"timezone":"Europe/Bucharest","moddate":"2012-06-12T00:00:00.000Z"},{"geonameid":662119,"name":"Zvorănești","asciiname":"Zvoranesti","alternatenames":"","latitude":"47.2131200","longitude":"26.5683700","fclass":"P","fcode":"PPL","country":"RO","cc2":"","admin1":"28","admin2":"124661","admin3":"","admin4":"","population":142,"elevation":0,"gtopo30":273,"timezone":"Europe/Bucharest","moddate":"2013-04-20T00:00:00.000Z"}],"admin3":[],"alternateNames":[]},"__N_SSG":true}