{"pageProps":{"locale":"en","admin2":{"geonameid":3333139,"name":"Coventry","country":"GB","admin1":"ENG","admin2":"C7","admin3":"","latitude":"52.4166700","longitude":"-1.5000000","localeAltName":"Coventry"},"admin1":{"geonameid":6269131,"name":"England","admin1":"ENG","localeAltName":"England"},"locations":[{"geonameid":2657480,"name":"Allesley","asciiname":"Allesley","alternatenames":"Allesley","latitude":"52.4260500","longitude":"-1.5715700","fclass":"P","fcode":"PPL","country":"GB","cc2":"","admin1":"ENG","admin2":"C7","admin3":"00CQ001","admin4":"","population":0,"elevation":0,"gtopo30":129,"timezone":"Europe/London","moddate":"2011-03-03T00:00:00.000Z"},{"geonameid":9883983,"name":"Binley","asciiname":"Binley","alternatenames":"","latitude":"52.4025800","longitude":"-1.4474500","fclass":"P","fcode":"PPLX","country":"GB","cc2":"","admin1":"ENG","admin2":"C7","admin3":"","admin4":"","population":0,"elevation":0,"gtopo30":82,"timezone":"Europe/London","moddate":"2014-12-31T00:00:00.000Z"},{"geonameid":2653890,"name":"Canley","asciiname":"Canley","alternatenames":"","latitude":"52.3916300","longitude":"-1.5588600","fclass":"P","fcode":"PPL","country":"GB","cc2":"","admin1":"ENG","admin2":"C7","admin3":"","admin4":"","population":0,"elevation":0,"gtopo30":94,"timezone":"Europe/London","moddate":"2010-04-08T00:00:00.000Z"},{"geonameid":2652243,"name":"Coundon","asciiname":"Coundon","alternatenames":"Coundon","latitude":"52.4333300","longitude":"-1.5333300","fclass":"P","fcode":"PPL","country":"GB","cc2":"","admin1":"ENG","admin2":"C7","admin3":"","admin4":"","population":0,"elevation":0,"gtopo30":124,"timezone":"Europe/London","moddate":"2019-02-21T00:00:00.000Z"},{"geonameid":2652221,"name":"Coventry","asciiname":"Coventry","alternatenames":"CVT,Coventria,Coventry,Koventri,Koventrija,Koventris,Koventry,Kovuntri,kao wen chui,kawntry,khx wen thri,kobeonteuli,kovhentri,kovu~entori,kwfntry,qwbntry,Κόβεντρι,Ковентри,Ковентры,Ковентрі,Ковънтри,קובנטרי,كوفنتري,کاونتری,کونٹری,कॉव्हेंट्री,คอเวนทรี,ကိုဗင်ထရီမြို့,კოვენტრი,コヴェントリー,考文垂,코번트리","latitude":"52.4065600","longitude":"-1.5121700","fclass":"P","fcode":"PPLA2","country":"GB","cc2":"","admin1":"ENG","admin2":"C7","admin3":"","admin4":"","population":359262,"elevation":0,"gtopo30":89,"timezone":"Europe/London","moddate":"2019-09-05T00:00:00.000Z"},{"geonameid":2649259,"name":"Foleshill","asciiname":"Foleshill","alternatenames":"","latitude":"52.4393000","longitude":"-1.4830300","fclass":"P","fcode":"PPL","country":"GB","cc2":"","admin1":"ENG","admin2":"C7","admin3":"44UC","admin4":"","population":0,"elevation":0,"gtopo30":94,"timezone":"Europe/London","moddate":"2011-03-03T00:00:00.000Z"},{"geonameid":2645778,"name":"Keresley","asciiname":"Keresley","alternatenames":"Keresley","latitude":"52.4515600","longitude":"-1.5331900","fclass":"P","fcode":"PPLA3","country":"GB","cc2":"","admin1":"ENG","admin2":"C7","admin3":"00CQ002","admin4":"","population":2432,"elevation":0,"gtopo30":124,"timezone":"Europe/London","moddate":"2011-07-31T00:00:00.000Z"},{"geonameid":2643695,"name":"Longford","asciiname":"Longford","alternatenames":"Longford","latitude":"52.4333300","longitude":"-1.4833300","fclass":"P","fcode":"PPL","country":"GB","cc2":"","admin1":"ENG","admin2":"C7","admin3":"","admin4":"","population":0,"elevation":0,"gtopo30":91,"timezone":"Europe/London","moddate":"2018-07-04T00:00:00.000Z"},{"geonameid":2640603,"name":"Parkside","asciiname":"Parkside","alternatenames":"","latitude":"52.4000000","longitude":"-1.5000000","fclass":"P","fcode":"PPLX","country":"GB","cc2":"","admin1":"ENG","admin2":"C7","admin3":"","admin4":"","population":0,"elevation":0,"gtopo30":96,"timezone":"Europe/London","moddate":"2013-07-11T00:00:00.000Z"},{"geonameid":2637210,"name":"Spon End","asciiname":"Spon End","alternatenames":"","latitude":"52.4083400","longitude":"-1.5269600","fclass":"P","fcode":"PPLX","country":"GB","cc2":"","admin1":"ENG","admin2":"C7","admin3":"44UF","admin4":"","population":0,"elevation":0,"gtopo30":85,"timezone":"Europe/London","moddate":"2011-03-03T00:00:00.000Z"},{"geonameid":2636905,"name":"Stivichall","asciiname":"Stivichall","alternatenames":"","latitude":"52.3850300","longitude":"-1.5132000","fclass":"P","fcode":"PPL","country":"GB","cc2":"","admin1":"ENG","admin2":"C7","admin3":"","admin4":"","population":0,"elevation":0,"gtopo30":88,"timezone":"Europe/London","moddate":"2008-06-19T00:00:00.000Z"},{"geonameid":2635725,"name":"Tollbar End","asciiname":"Tollbar End","alternatenames":"Toll Bar,Tollbar End","latitude":"52.3833300","longitude":"-1.4666700","fclass":"P","fcode":"PPL","country":"GB","cc2":"GB","admin1":"ENG","admin2":"C7","admin3":"","admin4":"","population":0,"elevation":0,"gtopo30":85,"timezone":"Europe/London","moddate":"2013-07-11T00:00:00.000Z"},{"geonameid":2634034,"name":"Whitley","asciiname":"Whitley","alternatenames":"","latitude":"52.3950900","longitude":"-1.4934500","fclass":"P","fcode":"PPL","country":"GB","cc2":"","admin1":"ENG","admin2":"C7","admin3":"","admin4":"","population":0,"elevation":0,"gtopo30":73,"timezone":"Europe/London","moddate":"2010-04-02T00:00:00.000Z"},{"geonameid":2633455,"name":"Wyken","asciiname":"Wyken","alternatenames":"Wyken","latitude":"52.4166700","longitude":"-1.4666700","fclass":"P","fcode":"PPL","country":"GB","cc2":"","admin1":"ENG","admin2":"C7","admin3":"","admin4":"","population":0,"elevation":0,"gtopo30":94,"timezone":"Europe/London","moddate":"2013-07-11T00:00:00.000Z"}],"admin3":[{"geonameid":7300102,"name":"Allesley","admin3":"00CQ001"},{"geonameid":7294755,"name":"Keresley","admin3":"00CQ002"}],"alternateNames":[{"alternatenameId":8666490,"geonameid":3333139,"isoLanguage":"en","alternateName":"Coventry","isPreferredName":true,"isShortName":true,"isColloquial":false,"isHistoric":false},{"alternatenameId":1626647,"geonameid":6269131,"isoLanguage":"en","alternateName":"England","isPreferredName":true,"isShortName":true,"isColloquial":false,"isHistoric":false}]},"__N_SSG":true}