{"pageProps":{"locale":"ro","admin2":{"geonameid":679145,"name":"Oraş Dolhasca","country":"RO","admin1":"34","admin2":"148006","admin3":"","latitude":"47.4179000","longitude":"26.6108300"},"admin1":{"geonameid":665849,"name":"Suceava","admin1":"34"},"locations":[{"geonameid":683449,"name":"Budeni","asciiname":"Budeni","alternatenames":"","latitude":"47.4138300","longitude":"26.6592700","fclass":"P","fcode":"PPL","country":"RO","cc2":"","admin1":"34","admin2":"148006","admin3":"","admin4":"","population":1433,"elevation":0,"gtopo30":252,"timezone":"Europe/Bucharest","moddate":"2013-04-21T00:00:00.000Z"},{"geonameid":679146,"name":"Dolhasca","asciiname":"Dolhasca","alternatenames":"Dolhasca","latitude":"47.4333300","longitude":"26.6000000","fclass":"P","fcode":"PPLA2","country":"RO","cc2":"","admin1":"34","admin2":"148006","admin3":"","admin4":"","population":11025,"elevation":0,"gtopo30":231,"timezone":"Europe/Bucharest","moddate":"2012-06-12T00:00:00.000Z"},{"geonameid":676577,"name":"Gulia","asciiname":"Gulia","alternatenames":"","latitude":"47.4120300","longitude":"26.6085400","fclass":"P","fcode":"PPL","country":"RO","cc2":"","admin1":"34","admin2":"148006","admin3":"","admin4":"","population":1750,"elevation":0,"gtopo30":243,"timezone":"Europe/Bucharest","moddate":"2013-04-21T00:00:00.000Z"},{"geonameid":670126,"name":"Poiana","asciiname":"Poiana","alternatenames":"Corni-Poiana Raftivanului,Corni-Poiana Răftivanului,Poiana,Poiana Raftivanului,Poiana Răftivanului","latitude":"47.4604300","longitude":"26.5749200","fclass":"P","fcode":"PPL","country":"RO","cc2":"RO","admin1":"34","admin2":"148006","admin3":"","admin4":"","population":481,"elevation":0,"gtopo30":245,"timezone":"Europe/Bucharest","moddate":"2013-04-21T00:00:00.000Z"},{"geonameid":670007,"name":"Poienari","asciiname":"Poienari","alternatenames":"Lingurari,Poienari","latitude":"47.3881600","longitude":"26.6005900","fclass":"P","fcode":"PPL","country":"RO","cc2":"RO","admin1":"34","admin2":"148006","admin3":"","admin4":"","population":281,"elevation":0,"gtopo30":408,"timezone":"Europe/Bucharest","moddate":"2013-04-21T00:00:00.000Z"},{"geonameid":669586,"name":"Probota","asciiname":"Probota","alternatenames":"","latitude":"47.3758400","longitude":"26.6241500","fclass":"P","fcode":"PPL","country":"RO","cc2":"","admin1":"34","admin2":"148006","admin3":"","admin4":"","population":1813,"elevation":0,"gtopo30":289,"timezone":"Europe/Bucharest","moddate":"2013-04-21T00:00:00.000Z"},{"geonameid":668110,"name":"Săndeni","asciiname":"Sandeni","alternatenames":"","latitude":"47.4333300","longitude":"26.6000000","fclass":"P","fcode":"PPLX","country":"RO","cc2":"","admin1":"34","admin2":"148006","admin3":"","admin4":"","population":0,"elevation":0,"gtopo30":231,"timezone":"Europe/Bucharest","moddate":"2016-02-07T00:00:00.000Z"},{"geonameid":667167,"name":"Siliștea Nouă","asciiname":"Silistea Noua","alternatenames":"","latitude":"47.4501500","longitude":"26.6363600","fclass":"P","fcode":"PPL","country":"RO","cc2":"","admin1":"34","admin2":"148006","admin3":"","admin4":"","population":755,"elevation":0,"gtopo30":238,"timezone":"Europe/Bucharest","moddate":"2013-04-21T00:00:00.000Z"},{"geonameid":666446,"name":"Somuz","asciiname":"Somuz","alternatenames":"","latitude":"47.4333300","longitude":"26.6000000","fclass":"P","fcode":"PPL","country":"RO","cc2":"","admin1":"34","admin2":"148006","admin3":"","admin4":"","population":0,"elevation":0,"gtopo30":231,"timezone":"Europe/Bucharest","moddate":"2016-02-07T00:00:00.000Z"},{"geonameid":663512,"name":"Valea Poienei","asciiname":"Valea Poienei","alternatenames":"","latitude":"47.4166700","longitude":"26.5833300","fclass":"P","fcode":"PPL","country":"RO","cc2":"","admin1":"34","admin2":"148006","admin3":"","admin4":"","population":471,"elevation":0,"gtopo30":340,"timezone":"Europe/Bucharest","moddate":"2015-12-30T00:00:00.000Z"},{"geonameid":663215,"name":"Vămei","asciiname":"Vamei","alternatenames":"Vamei,Vameni,Vămei,Vămeni","latitude":"47.4333300","longitude":"26.5833300","fclass":"P","fcode":"PPL","country":"RO","cc2":"","admin1":"34","admin2":"148006","admin3":"","admin4":"","population":0,"elevation":0,"gtopo30":322,"timezone":"Europe/Bucharest","moddate":"2016-02-07T00:00:00.000Z"}],"admin3":[],"alternateNames":[{"alternatenameId":393492,"geonameid":665849,"isoLanguage":"en","alternateName":"Suceava","isPreferredName":true,"isShortName":true,"isColloquial":false,"isHistoric":false}]},"__N_SSG":true}