{"pageProps":{"locale":"ro","admin2":{"geonameid":8334930,"name":"Comuna Cernişoara","country":"RO","admin1":"39","admin2":"169039","admin3":"","latitude":"45.0343200","longitude":"24.0048700"},"admin1":{"geonameid":662892,"name":"Vâlcea","admin1":"39"},"locations":[{"geonameid":686144,"name":"Armășești","asciiname":"Armasesti","alternatenames":"","latitude":"45.0178800","longitude":"24.0135200","fclass":"P","fcode":"PPL","country":"RO","cc2":"","admin1":"39","admin2":"169039","admin3":"","admin4":"","population":743,"elevation":0,"gtopo30":364,"timezone":"Europe/Bucharest","moddate":"2013-04-21T00:00:00.000Z"},{"geonameid":682298,"name":"Cernişoara","asciiname":"Cernisoara","alternatenames":"Cernisoara,Cernişoara","latitude":"45.0333300","longitude":"23.9833300","fclass":"P","fcode":"PPLA2","country":"RO","cc2":"","admin1":"39","admin2":"169039","admin3":"","admin4":"","population":3948,"elevation":0,"gtopo30":392,"timezone":"Europe/Bucharest","moddate":"2012-06-12T00:00:00.000Z"},{"geonameid":676658,"name":"Groși","asciiname":"Grosi","alternatenames":"Grosi,Grosii,Groşi","latitude":"44.9973300","longitude":"24.0382700","fclass":"P","fcode":"PPL","country":"RO","cc2":"RO","admin1":"39","admin2":"169039","admin3":"","admin4":"","population":481,"elevation":0,"gtopo30":350,"timezone":"Europe/Bucharest","moddate":"2013-04-21T00:00:00.000Z"},{"geonameid":674200,"name":"Mădulari","asciiname":"Madulari","alternatenames":"Madulari,Madulari-Cernisoara,Madularii-Cernisoara,Mădulari,Mădulari-Cernişoara,Mădularii-Cernişoara","latitude":"45.0333300","longitude":"24.0000000","fclass":"P","fcode":"PPL","country":"RO","cc2":"","admin1":"39","admin2":"169039","admin3":"","admin4":"","population":1718,"elevation":0,"gtopo30":428,"timezone":"Europe/Bucharest","moddate":"2016-02-07T00:00:00.000Z"},{"geonameid":674089,"name":"Mahalaua Ghiţuleşti","asciiname":"Mahalaua Ghitulesti","alternatenames":"","latitude":"45.0666700","longitude":"23.9833300","fclass":"P","fcode":"PPLX","country":"RO","cc2":"","admin1":"39","admin2":"169039","admin3":"","admin4":"","population":0,"elevation":0,"gtopo30":439,"timezone":"Europe/Bucharest","moddate":"2016-02-07T00:00:00.000Z"},{"geonameid":674088,"name":"Mahalaua Machedoneşti","asciiname":"Mahalaua Machedonesti","alternatenames":"","latitude":"45.0333300","longitude":"24.0000000","fclass":"P","fcode":"PPLX","country":"RO","cc2":"","admin1":"39","admin2":"169039","admin3":"","admin4":"","population":0,"elevation":0,"gtopo30":428,"timezone":"Europe/Bucharest","moddate":"2016-02-07T00:00:00.000Z"},{"geonameid":674085,"name":"Mahalaua Murguleşti","asciiname":"Mahalaua Murgulesti","alternatenames":"","latitude":"45.0333300","longitude":"24.0000000","fclass":"P","fcode":"PPLX","country":"RO","cc2":"","admin1":"39","admin2":"169039","admin3":"","admin4":"","population":0,"elevation":0,"gtopo30":428,"timezone":"Europe/Bucharest","moddate":"2016-02-07T00:00:00.000Z"},{"geonameid":674084,"name":"Mahalaua Obârşia","asciiname":"Mahalaua Obarsia","alternatenames":"Mahalaua Obarsia,Mahalaua Obirsia,Mahalaua Obârşia,Mahalaua Obîrşia","latitude":"45.0333300","longitude":"24.0000000","fclass":"P","fcode":"PPLX","country":"RO","cc2":"","admin1":"39","admin2":"169039","admin3":"","admin4":"","population":0,"elevation":0,"gtopo30":428,"timezone":"Europe/Bucharest","moddate":"2020-03-08T00:00:00.000Z"},{"geonameid":674083,"name":"Mahalaua Oleşti","asciiname":"Mahalaua Olesti","alternatenames":"","latitude":"45.0333300","longitude":"24.0000000","fclass":"P","fcode":"PPLX","country":"RO","cc2":"","admin1":"39","admin2":"169039","admin3":"","admin4":"","population":0,"elevation":0,"gtopo30":428,"timezone":"Europe/Bucharest","moddate":"2016-02-07T00:00:00.000Z"},{"geonameid":674081,"name":"Mahalaua Şcoala","asciiname":"Mahalaua Scoala","alternatenames":"","latitude":"45.0333300","longitude":"24.0000000","fclass":"P","fcode":"PPLX","country":"RO","cc2":"","admin1":"39","admin2":"169039","admin3":"","admin4":"","population":0,"elevation":0,"gtopo30":428,"timezone":"Europe/Bucharest","moddate":"2016-02-07T00:00:00.000Z"},{"geonameid":672975,"name":"Modoia","asciiname":"Modoia","alternatenames":"","latitude":"44.9765000","longitude":"24.0584200","fclass":"P","fcode":"PPL","country":"RO","cc2":"","admin1":"39","admin2":"169039","admin3":"","admin4":"","population":552,"elevation":0,"gtopo30":344,"timezone":"Europe/Bucharest","moddate":"2013-04-21T00:00:00.000Z"},{"geonameid":672082,"name":"Obârșia","asciiname":"Obarsia","alternatenames":"Obarsia,Obirsia,Obârsia,Obîrşia","latitude":"45.0666700","longitude":"23.9833300","fclass":"P","fcode":"PPL","country":"RO","cc2":"","admin1":"39","admin2":"169039","admin3":"","admin4":"","population":500,"elevation":0,"gtopo30":439,"timezone":"Europe/Bucharest","moddate":"2015-11-13T00:00:00.000Z"},{"geonameid":671865,"name":"Oleşti","asciiname":"Olesti","alternatenames":"","latitude":"45.0333300","longitude":"23.9833300","fclass":"P","fcode":"PPLX","country":"RO","cc2":"","admin1":"39","admin2":"169039","admin3":"","admin4":"","population":0,"elevation":0,"gtopo30":392,"timezone":"Europe/Bucharest","moddate":"2016-02-07T00:00:00.000Z"},{"geonameid":667959,"name":"Sărsănești","asciiname":"Sarsanesti","alternatenames":"","latitude":"45.0752100","longitude":"23.9783100","fclass":"P","fcode":"PPL","country":"RO","cc2":"","admin1":"39","admin2":"169039","admin3":"","admin4":"","population":89,"elevation":0,"gtopo30":512,"timezone":"Europe/Bucharest","moddate":"2013-04-21T00:00:00.000Z"},{"geonameid":663537,"name":"Valea Orlii","asciiname":"Valea Orlii","alternatenames":"Valea Orli,Valea Orlii","latitude":"45.0333300","longitude":"23.9833300","fclass":"P","fcode":"PPLX","country":"RO","cc2":"","admin1":"39","admin2":"169039","admin3":"","admin4":"","population":0,"elevation":0,"gtopo30":392,"timezone":"Europe/Bucharest","moddate":"2016-02-07T00:00:00.000Z"}],"admin3":[],"alternateNames":[]},"__N_SSG":true}