{"pageProps":{"locale":"ro","admin2":{"geonameid":680590,"name":"Comuna Coşteiu","country":"RO","admin1":"36","admin2":"156473","admin3":"","latitude":"45.7524200","longitude":"21.8875600"},"admin1":{"geonameid":665091,"name":"Timiş","admin1":"36"},"locations":[{"geonameid":681075,"name":"Colonia Mare","asciiname":"Colonia Mare","alternatenames":"","latitude":"45.7666700","longitude":"21.9333300","fclass":"P","fcode":"PPLX","country":"RO","cc2":"","admin1":"36","admin2":"156473","admin3":"","admin4":"","population":0,"elevation":0,"gtopo30":152,"timezone":"Europe/Bucharest","moddate":"2016-02-07T00:00:00.000Z"},{"geonameid":681065,"name":"Colonia Ţigănească","asciiname":"Colonia Tiganeasca","alternatenames":"","latitude":"45.7666700","longitude":"21.9333300","fclass":"P","fcode":"PPLX","country":"RO","cc2":"","admin1":"36","admin2":"156473","admin3":"","admin4":"","population":0,"elevation":0,"gtopo30":152,"timezone":"Europe/Bucharest","moddate":"2016-02-07T00:00:00.000Z"},{"geonameid":680591,"name":"Coşteiu","asciiname":"Costeiu","alternatenames":"Checea Romana,Checea Română,Costei,Costeiu,Costeiul,Costeiul Mare,Costeiul Mic,Coştei,Coşteiu,Coşteiul,Coşteiul Mare,Coşteiul Mic,Kiskastely,Kiskastély,Nagykastely,Nagykastély,Nagykostely,Nagykostély,Salha,Salha Costei,Silha,Szilha,Sâlha,Sâlha Coştei,Sîlha","latitude":"45.7411100","longitude":"21.8491700","fclass":"P","fcode":"PPLA2","country":"RO","cc2":"","admin1":"36","admin2":"156473","admin3":"","admin4":"","population":3805,"elevation":0,"gtopo30":114,"timezone":"Europe/Bucharest","moddate":"2012-06-12T00:00:00.000Z"},{"geonameid":676214,"name":"Hezeriș","asciiname":"Hezeris","alternatenames":"Hezeres,Hezeris,Hezeriş,Lugosegres","latitude":"45.7278300","longitude":"21.9288300","fclass":"P","fcode":"PPL","country":"RO","cc2":"RO","admin1":"36","admin2":"156473","admin3":"","admin4":"","population":267,"elevation":0,"gtopo30":186,"timezone":"Europe/Bucharest","moddate":"2013-04-21T00:00:00.000Z"},{"geonameid":674791,"name":"Lighitiş","asciiname":"Lighitis","alternatenames":"Lichitis,Lichitiş,Lighitis,Lighitiş","latitude":"45.7666700","longitude":"21.9333300","fclass":"P","fcode":"PPL","country":"RO","cc2":"","admin1":"36","admin2":"156473","admin3":"","admin4":"","population":0,"elevation":0,"gtopo30":152,"timezone":"Europe/Bucharest","moddate":"2016-02-07T00:00:00.000Z"},{"geonameid":671313,"name":"Păru","asciiname":"Paru","alternatenames":"Paru,Parul,Păru,Părul","latitude":"45.7758100","longitude":"21.8454700","fclass":"P","fcode":"PPL","country":"RO","cc2":"RO","admin1":"36","admin2":"156473","admin3":"","admin4":"","population":285,"elevation":0,"gtopo30":111,"timezone":"Europe/Bucharest","moddate":"2013-04-21T00:00:00.000Z"},{"geonameid":667204,"name":"Sâlha","asciiname":"Salha","alternatenames":"Salha,Silha,Sâlha,Sîlha","latitude":"45.7333300","longitude":"21.8666700","fclass":"P","fcode":"PPL","country":"RO","cc2":"RO","admin1":"36","admin2":"156473","admin3":"","admin4":"","population":0,"elevation":0,"gtopo30":114,"timezone":"Europe/Bucharest","moddate":"2020-03-08T00:00:00.000Z"},{"geonameid":665041,"name":"Ţipari","asciiname":"Tipari","alternatenames":"Szaparyfalva,Szapáryfalva,Tipari,Ţipari","latitude":"45.7666700","longitude":"21.8500000","fclass":"P","fcode":"PPL","country":"RO","cc2":"","admin1":"36","admin2":"156473","admin3":"","admin4":"","population":0,"elevation":0,"gtopo30":145,"timezone":"Europe/Bucharest","moddate":"2016-02-07T00:00:00.000Z"},{"geonameid":663665,"name":"Valea Lungă Maghiară","asciiname":"Valea Lunga Maghiara","alternatenames":"Valea Lunga Maghiara,Valea Lungă Maghiară,Valea-Lunga,Valea-Lungă","latitude":"45.7500000","longitude":"21.9500000","fclass":"P","fcode":"PPL","country":"RO","cc2":"","admin1":"36","admin2":"156473","admin3":"","admin4":"","population":0,"elevation":0,"gtopo30":175,"timezone":"Europe/Bucharest","moddate":"2016-02-07T00:00:00.000Z"},{"geonameid":663661,"name":"Valea Lungă Română","asciiname":"Valea Lunga Romana","alternatenames":"Begahosszupatak,Bégahosszúpatak,Valea Lunga Romana,Valea Lunga-Romina,Valea Lungă Română,Valea Lungă-Romînă,Valealunga,Valelunga,Valialunga,Vallelunga","latitude":"45.7553300","longitude":"21.9547900","fclass":"P","fcode":"PPL","country":"RO","cc2":"RO","admin1":"36","admin2":"156473","admin3":"","admin4":"","population":152,"elevation":0,"gtopo30":190,"timezone":"Europe/Bucharest","moddate":"2013-04-20T00:00:00.000Z"}],"admin3":[],"alternateNames":[]},"__N_SSG":true}