{"pageProps":{"locale":"ro","admin2":{"geonameid":667264,"name":"Comuna Şibot","country":"RO","admin1":"01","admin2":"7810","admin3":"","latitude":"45.9409300","longitude":"23.3222600"},"admin1":{"geonameid":686581,"name":"Alba","admin1":"01"},"locations":[{"geonameid":685956,"name":"Băcăinți","asciiname":"Bacainti","alternatenames":"","latitude":"45.9421800","longitude":"23.2832200","fclass":"P","fcode":"PPL","country":"RO","cc2":"","admin1":"01","admin2":"7810","admin3":"","admin4":"","population":322,"elevation":0,"gtopo30":223,"timezone":"Europe/Bucharest","moddate":"2013-04-21T00:00:00.000Z"},{"geonameid":685601,"name":"Balomiru de Câmp","asciiname":"Balomiru de Camp","alternatenames":"Balomiru de Camp,Balomiru de Cimp,Balomiru de Cîmp,Balomirul-de-Camp,Balomirul-de-Câmp","latitude":"45.9387800","longitude":"23.3610900","fclass":"P","fcode":"PPL","country":"RO","cc2":"RO","admin1":"01","admin2":"7810","admin3":"","admin4":"","population":638,"elevation":0,"gtopo30":209,"timezone":"Europe/Bucharest","moddate":"2013-04-21T00:00:00.000Z"},{"geonameid":678998,"name":"Drăgăneşti","asciiname":"Draganesti","alternatenames":"","latitude":"45.9500000","longitude":"23.2833300","fclass":"P","fcode":"PPL","country":"RO","cc2":"","admin1":"01","admin2":"7810","admin3":"","admin4":"","population":0,"elevation":0,"gtopo30":329,"timezone":"Europe/Bucharest","moddate":"2016-02-07T00:00:00.000Z"},{"geonameid":668065,"name":"Sărăcsău","asciiname":"Saracsau","alternatenames":"Saracsau,Saracsaul,Sărăcsău,Sărăcsăul","latitude":"45.9441600","longitude":"23.3088400","fclass":"P","fcode":"PPL","country":"RO","cc2":"RO","admin1":"01","admin2":"7810","admin3":"","admin4":"","population":260,"elevation":0,"gtopo30":211,"timezone":"Europe/Bucharest","moddate":"2013-04-21T00:00:00.000Z"},{"geonameid":667265,"name":"Şibot","asciiname":"Sibot","alternatenames":"Sfoot,Sibot,Şfoot,Şibot","latitude":"45.9500000","longitude":"23.3333300","fclass":"P","fcode":"PPLA2","country":"RO","cc2":"","admin1":"01","admin2":"7810","admin3":"","admin4":"","population":2427,"elevation":0,"gtopo30":205,"timezone":"Europe/Bucharest","moddate":"2012-06-12T00:00:00.000Z"}],"admin3":[],"alternateNames":[]},"__N_SSG":true}