{"pageProps":{"locale":"en","admin2":{"geonameid":3333177,"name":"North Somerset","country":"GB","admin1":"ENG","admin2":"J4","admin3":"","latitude":"51.3333300","longitude":"-2.8333300"},"admin1":{"geonameid":6269131,"name":"England","admin1":"ENG","localeAltName":"England"},"locations":[{"geonameid":11593080,"name":"Abbots Leigh","asciiname":"Abbots Leigh","alternatenames":"","latitude":"51.4603700","longitude":"-2.6620400","fclass":"P","fcode":"PPL","country":"GB","cc2":"","admin1":"ENG","admin2":"J4","admin3":"00HC001","admin4":"","population":0,"elevation":0,"gtopo30":101,"timezone":"Europe/London","moddate":"2017-06-21T00:00:00.000Z"},{"geonameid":2656378,"name":"Banwell","asciiname":"Banwell","alternatenames":"","latitude":"51.3289400","longitude":"-2.8691400","fclass":"P","fcode":"PPL","country":"GB","cc2":"","admin1":"ENG","admin2":"J4","admin3":"00HC003","admin4":"","population":1956,"elevation":0,"gtopo30":13,"timezone":"Europe/London","moddate":"2017-06-12T00:00:00.000Z"},{"geonameid":6695719,"name":"Banwell Castle","asciiname":"Banwell Castle","alternatenames":"","latitude":"51.3240700","longitude":"-2.8605300","fclass":"P","fcode":"PPL","country":"GB","cc2":"","admin1":"ENG","admin2":"J4","admin3":"00HC003","admin4":"","population":0,"elevation":0,"gtopo30":63,"timezone":"Europe/London","moddate":"2016-06-22T00:00:00.000Z"},{"geonameid":10377124,"name":"Barton","asciiname":"Barton","alternatenames":"","latitude":"51.3085600","longitude":"-2.8655000","fclass":"P","fcode":"PPLX","country":"GB","cc2":"","admin1":"ENG","admin2":"J4","admin3":"00HC034","admin4":"","population":0,"elevation":0,"gtopo30":28,"timezone":"Europe/London","moddate":"2015-07-17T00:00:00.000Z"},{"geonameid":2655407,"name":"Blagdon","asciiname":"Blagdon","alternatenames":"","latitude":"51.3268800","longitude":"-2.7173100","fclass":"P","fcode":"PPLA3","country":"GB","cc2":"","admin1":"ENG","admin2":"J4","admin3":"00HC005","admin4":"","population":1001,"elevation":0,"gtopo30":121,"timezone":"Europe/London","moddate":"2017-06-12T00:00:00.000Z"},{"geonameid":2655367,"name":"Bleadon","asciiname":"Bleadon","alternatenames":"","latitude":"51.3086100","longitude":"-2.9475000","fclass":"P","fcode":"PPLA3","country":"GB","cc2":"","admin1":"ENG","admin2":"J4","admin3":"00HC006","admin4":"","population":900,"elevation":0,"gtopo30":19,"timezone":"Europe/London","moddate":"2017-06-12T00:00:00.000Z"},{"geonameid":2654608,"name":"Brockley","asciiname":"Brockley","alternatenames":"","latitude":"51.4000000","longitude":"-2.7666700","fclass":"P","fcode":"PPLA3","country":"GB","cc2":"","admin1":"ENG","admin2":"J4","admin3":"00HC007","admin4":"","population":458,"elevation":0,"gtopo30":25,"timezone":"Europe/London","moddate":"2017-06-12T00:00:00.000Z"},{"geonameid":2654234,"name":"Burrington","asciiname":"Burrington","alternatenames":"","latitude":"51.3288400","longitude":"-2.7486800","fclass":"P","fcode":"PPLA3","country":"GB","cc2":"","admin1":"ENG","admin2":"J4","admin3":"00HC008","admin4":"","population":237,"elevation":0,"gtopo30":84,"timezone":"Europe/London","moddate":"2017-06-12T00:00:00.000Z"},{"geonameid":2654169,"name":"Butcombe","asciiname":"Butcombe","alternatenames":"","latitude":"51.3519400","longitude":"-2.6977800","fclass":"P","fcode":"PPLA3","country":"GB","cc2":"","admin1":"ENG","admin2":"J4","admin3":"00HC009","admin4":"","population":0,"elevation":0,"gtopo30":85,"timezone":"Europe/London","moddate":"2011-07-31T00:00:00.000Z"},{"geonameid":2653259,"name":"Chelvey","asciiname":"Chelvey","alternatenames":"","latitude":"51.4113800","longitude":"-2.7687600","fclass":"P","fcode":"PPL","country":"GB","cc2":"","admin1":"ENG","admin2":"J4","admin3":"00HC007","admin4":"","population":0,"elevation":0,"gtopo30":13,"timezone":"Europe/London","moddate":"2011-03-03T00:00:00.000Z"},{"geonameid":6619752,"name":"Christon","asciiname":"Christon","alternatenames":"","latitude":"51.3108800","longitude":"-2.8940000","fclass":"P","fcode":"PPL","country":"GB","cc2":"","admin1":"ENG","admin2":"J4","admin3":"00HC024","admin4":"","population":202,"elevation":0,"gtopo30":43,"timezone":"Europe/London","moddate":"2011-03-03T00:00:00.000Z"},{"geonameid":2653034,"name":"Churchill","asciiname":"Churchill","alternatenames":"","latitude":"51.3429100","longitude":"-2.7833800","fclass":"P","fcode":"PPLA3","country":"GB","cc2":"","admin1":"ENG","admin2":"J4","admin3":"00HC010","admin4":"","population":1378,"elevation":0,"gtopo30":31,"timezone":"Europe/London","moddate":"2017-06-13T00:00:00.000Z"},{"geonameid":2652947,"name":"Clapton in Gordano","asciiname":"Clapton in Gordano","alternatenames":"Clapton,Clapton in Gordano","latitude":"51.4633300","longitude":"-2.7563900","fclass":"P","fcode":"PPL","country":"GB","cc2":"GB","admin1":"ENG","admin2":"J4","admin3":"00HC011","admin4":"","population":348,"elevation":0,"gtopo30":24,"timezone":"Europe/London","moddate":"2017-06-12T00:00:00.000Z"},{"geonameid":2652861,"name":"Clevedon","asciiname":"Clevedon","alternatenames":"Clevedon,Klijvdun,klywdwn,Клийвдън,کلیودون","latitude":"51.4422700","longitude":"-2.8578600","fclass":"P","fcode":"PPL","country":"GB","cc2":"","admin1":"ENG","admin2":"J4","admin3":"00HC013","admin4":"","population":21002,"elevation":0,"gtopo30":32,"timezone":"Europe/London","moddate":"2017-06-12T00:00:00.000Z"},{"geonameid":2652463,"name":"Congresbury","asciiname":"Congresbury","alternatenames":"","latitude":"51.3713500","longitude":"-2.8101800","fclass":"P","fcode":"PPLA3","country":"GB","cc2":"","admin1":"ENG","admin2":"J4","admin3":"00HC014","admin4":"","population":3078,"elevation":0,"gtopo30":6,"timezone":"Europe/London","moddate":"2011-07-31T00:00:00.000Z"},{"geonameid":6619757,"name":"Doleberrow","asciiname":"Doleberrow","alternatenames":"","latitude":"51.3278900","longitude":"-2.7971400","fclass":"P","fcode":"PPL","country":"GB","cc2":"","admin1":"ENG","admin2":"J4","admin3":"00HC010","admin4":"","population":100,"elevation":0,"gtopo30":96,"timezone":"Europe/London","moddate":"2016-06-22T00:00:00.000Z"},{"geonameid":2650737,"name":"Dundry","asciiname":"Dundry","alternatenames":"","latitude":"51.3988000","longitude":"-2.6396400","fclass":"P","fcode":"PPLA3","country":"GB","cc2":"","admin1":"ENG","admin2":"J4","admin3":"00HC015","admin4":"","population":269,"elevation":0,"gtopo30":219,"timezone":"Europe/London","moddate":"2017-06-12T00:00:00.000Z"},{"geonameid":9884032,"name":"East Dundry","asciiname":"East Dundry","alternatenames":"","latitude":"51.3974700","longitude":"-2.6194200","fclass":"P","fcode":"PPL","country":"GB","cc2":"","admin1":"ENG","admin2":"J4","admin3":"00HC015","admin4":"","population":0,"elevation":0,"gtopo30":188,"timezone":"Europe/London","moddate":"2014-12-31T00:00:00.000Z"},{"geonameid":3345403,"name":"Easton-in-Gordano","asciiname":"Easton-in-Gordano","alternatenames":"","latitude":"51.4759200","longitude":"-2.6998700","fclass":"P","fcode":"PPL","country":"GB","cc2":"","admin1":"ENG","admin2":"J4","admin3":"00HC016","admin4":"","population":4824,"elevation":0,"gtopo30":23,"timezone":"Europe/London","moddate":"2011-03-03T00:00:00.000Z"},{"geonameid":8063560,"name":"Failand","asciiname":"Failand","alternatenames":"","latitude":"51.4398200","longitude":"-2.6892400","fclass":"P","fcode":"PPL","country":"GB","cc2":"","admin1":"ENG","admin2":"J4","admin3":"00HC035","admin4":"","population":691,"elevation":0,"gtopo30":147,"timezone":"Europe/London","moddate":"2017-06-12T00:00:00.000Z"},{"geonameid":2649570,"name":"Felton","asciiname":"Felton","alternatenames":"","latitude":"51.3888900","longitude":"-2.6827800","fclass":"P","fcode":"PPL","country":"GB","cc2":"","admin1":"ENG","admin2":"J4","admin3":"00HC033","admin4":"","population":779,"elevation":0,"gtopo30":166,"timezone":"Europe/London","moddate":"2017-06-12T00:00:00.000Z"},{"geonameid":2649327,"name":"Flax Bourton","asciiname":"Flax Bourton","alternatenames":"Bourton,Flax Bourton","latitude":"51.4212200","longitude":"-2.7052200","fclass":"P","fcode":"PPL","country":"GB","cc2":"","admin1":"ENG","admin2":"J4","admin3":"00HC017","admin4":"","population":0,"elevation":0,"gtopo30":39,"timezone":"Europe/London","moddate":"2011-03-03T00:00:00.000Z"},{"geonameid":2646342,"name":"Hutton","asciiname":"Hutton","alternatenames":"","latitude":"51.3241700","longitude":"-2.9302800","fclass":"P","fcode":"PPLA3","country":"GB","cc2":"","admin1":"ENG","admin2":"J4","admin3":"00HC018","admin4":"","population":0,"elevation":0,"gtopo30":17,"timezone":"Europe/London","moddate":"2011-07-31T00:00:00.000Z"},{"geonameid":2645815,"name":"Kenn","asciiname":"Kenn","alternatenames":"","latitude":"51.4166700","longitude":"-2.8500000","fclass":"P","fcode":"PPLA3","country":"GB","cc2":"","admin1":"ENG","admin2":"J4","admin3":"00HC019","admin4":"","population":0,"elevation":0,"gtopo30":6,"timezone":"Europe/London","moddate":"2011-07-31T00:00:00.000Z"},{"geonameid":3345387,"name":"Kewstoke","asciiname":"Kewstoke","alternatenames":"","latitude":"51.3653000","longitude":"-2.9590100","fclass":"P","fcode":"PPLA3","country":"GB","cc2":"","admin1":"ENG","admin2":"J4","admin3":"00HC020","admin4":"","population":0,"elevation":0,"gtopo30":22,"timezone":"Europe/London","moddate":"2011-07-31T00:00:00.000Z"},{"geonameid":2645426,"name":"Kingston Seymour","asciiname":"Kingston Seymour","alternatenames":"","latitude":"51.3983300","longitude":"-2.8611100","fclass":"P","fcode":"PPLA3","country":"GB","cc2":"","admin1":"ENG","admin2":"J4","admin3":"00HC021","admin4":"","population":388,"elevation":0,"gtopo30":6,"timezone":"Europe/London","moddate":"2017-06-12T00:00:00.000Z"},{"geonameid":10377122,"name":"Langford Village","asciiname":"Langford Village","alternatenames":"","latitude":"51.3442900","longitude":"-2.7744300","fclass":"P","fcode":"PPL","country":"GB","cc2":"","admin1":"ENG","admin2":"J4","admin3":"00HC010","admin4":"","population":0,"elevation":0,"gtopo30":26,"timezone":"Europe/London","moddate":"2015-07-17T00:00:00.000Z"},{"geonameid":8063561,"name":"Leigh Woods","asciiname":"Leigh Woods","alternatenames":"Leigh Woods,Leigh Woods National Nature Reserve","latitude":"51.4519200","longitude":"-2.6386900","fclass":"P","fcode":"PPL","country":"GB","cc2":"","admin1":"ENG","admin2":"J4","admin3":"00HC023","admin4":"","population":0,"elevation":0,"gtopo30":112,"timezone":"Europe/London","moddate":"2015-02-18T00:00:00.000Z"},{"geonameid":2643790,"name":"Locking","asciiname":"Locking","alternatenames":"","latitude":"51.3332700","longitude":"-2.9138700","fclass":"P","fcode":"PPL","country":"GB","cc2":"","admin1":"ENG","admin2":"J4","admin3":"00HC022","admin4":"","population":1742,"elevation":0,"gtopo30":15,"timezone":"Europe/London","moddate":"2017-06-12T00:00:00.000Z"},{"geonameid":2643726,"name":"Long Ashton","asciiname":"Long Ashton","alternatenames":"","latitude":"51.4299700","longitude":"-2.6609800","fclass":"P","fcode":"PPL","country":"GB","cc2":"","admin1":"ENG","admin2":"J4","admin3":"00HC023","admin4":"","population":5254,"elevation":0,"gtopo30":56,"timezone":"Europe/London","moddate":"2017-06-12T00:00:00.000Z"},{"geonameid":2644940,"name":"Lower Langford","asciiname":"Lower Langford","alternatenames":"Langford","latitude":"51.3421700","longitude":"-2.7657700","fclass":"P","fcode":"PPL","country":"GB","cc2":"GB","admin1":"ENG","admin2":"J4","admin3":"00HC008","admin4":"","population":0,"elevation":0,"gtopo30":26,"timezone":"Europe/London","moddate":"2015-07-17T00:00:00.000Z"},{"geonameid":2643462,"name":"Loxton","asciiname":"Loxton","alternatenames":"","latitude":"51.2989100","longitude":"-2.9015900","fclass":"P","fcode":"PPL","country":"GB","cc2":"","admin1":"ENG","admin2":"J4","admin3":"00HC024","admin4":"","population":0,"elevation":0,"gtopo30":31,"timezone":"Europe/London","moddate":"2015-07-17T00:00:00.000Z"},{"geonameid":2643400,"name":"Lulsgate Bottom","asciiname":"Lulsgate Bottom","alternatenames":"","latitude":"51.3884700","longitude":"-2.7037700","fclass":"P","fcode":"PPL","country":"GB","cc2":"","admin1":"ENG","admin2":"J4","admin3":"00HC036","admin4":"","population":0,"elevation":0,"gtopo30":172,"timezone":"Europe/London","moddate":"2011-03-03T00:00:00.000Z"},{"geonameid":9884033,"name":"Maiden Head","asciiname":"Maiden Head","alternatenames":"","latitude":"51.3946000","longitude":"-2.6290400","fclass":"P","fcode":"PPL","country":"GB","cc2":"","admin1":"ENG","admin2":"J4","admin3":"00HC015","admin4":"","population":0,"elevation":0,"gtopo30":210,"timezone":"Europe/London","moddate":"2014-12-31T00:00:00.000Z"},{"geonameid":2641913,"name":"Nailsea","asciiname":"Nailsea","alternatenames":"Nailsea,naylsy,نایلسی","latitude":"51.4323900","longitude":"-2.7584700","fclass":"P","fcode":"PPL","country":"GB","cc2":"","admin1":"ENG","admin2":"J4","admin3":"00HC025","admin4":"","population":20543,"elevation":0,"gtopo30":31,"timezone":"Europe/London","moddate":"2017-06-12T00:00:00.000Z"},{"geonameid":11550751,"name":"Nailsea and Backwell","asciiname":"Nailsea and Backwell","alternatenames":"","latitude":"51.4304900","longitude":"-2.7584300","fclass":"P","fcode":"PPL","country":"GB","cc2":"","admin1":"ENG","admin2":"J4","admin3":"00HC025","admin4":"","population":0,"elevation":0,"gtopo30":31,"timezone":"Europe/London","moddate":"2017-06-06T00:00:00.000Z"},{"geonameid":2640294,"name":"Pill","asciiname":"Pill","alternatenames":"Pill","latitude":"51.4780600","longitude":"-2.6855600","fclass":"P","fcode":"PPL","country":"GB","cc2":"","admin1":"ENG","admin2":"J4","admin3":"00HC016","admin4":"","population":0,"elevation":0,"gtopo30":14,"timezone":"Europe/London","moddate":"2016-06-22T00:00:00.000Z"},{"geonameid":2640075,"name":"Portbury","asciiname":"Portbury","alternatenames":"","latitude":"51.4741300","longitude":"-2.7210100","fclass":"P","fcode":"PPL","country":"GB","cc2":"","admin1":"ENG","admin2":"J4","admin3":"00HC026","admin4":"","population":0,"elevation":0,"gtopo30":17,"timezone":"Europe/London","moddate":"2011-03-03T00:00:00.000Z"},{"geonameid":2640037,"name":"Portishead","asciiname":"Portishead","alternatenames":"Portishead,Portishead i Somerset,Portiskhed,potiseuhedeu,Портисхед,포티스헤드","latitude":"51.4819900","longitude":"-2.7697300","fclass":"P","fcode":"PPL","country":"GB","cc2":"","admin1":"ENG","admin2":"J4","admin3":"00HC027","admin4":"","population":23699,"elevation":0,"gtopo30":13,"timezone":"Europe/London","moddate":"2017-06-12T00:00:00.000Z"},{"geonameid":2639830,"name":"Puxton","asciiname":"Puxton","alternatenames":"","latitude":"51.3656100","longitude":"-2.8546800","fclass":"P","fcode":"PPL","country":"GB","cc2":"","admin1":"ENG","admin2":"J4","admin3":"00HC028","admin4":"","population":0,"elevation":0,"gtopo30":6,"timezone":"Europe/London","moddate":"2011-03-03T00:00:00.000Z"},{"geonameid":2639544,"name":"Redhill","asciiname":"Redhill","alternatenames":"Redhill","latitude":"51.3658300","longitude":"-2.7202800","fclass":"P","fcode":"PPL","country":"GB","cc2":"","admin1":"ENG","admin2":"J4","admin3":"00HC036","admin4":"","population":308,"elevation":0,"gtopo30":142,"timezone":"Europe/London","moddate":"2017-06-12T00:00:00.000Z"},{"geonameid":6619764,"name":"Rickford","asciiname":"Rickford","alternatenames":"","latitude":"51.3309300","longitude":"-2.7418200","fclass":"P","fcode":"PPL","country":"GB","cc2":"","admin1":"ENG","admin2":"J4","admin3":"00HC008","admin4":"","population":0,"elevation":0,"gtopo30":68,"timezone":"Europe/London","moddate":"2015-07-17T00:00:00.000Z"},{"geonameid":2638593,"name":"Sandford","asciiname":"Sandford","alternatenames":"","latitude":"51.3322800","longitude":"-2.8312200","fclass":"P","fcode":"PPL","country":"GB","cc2":"","admin1":"ENG","admin2":"J4","admin3":"00HC034","admin4":"","population":2135,"elevation":0,"gtopo30":23,"timezone":"Europe/London","moddate":"2016-06-22T00:00:00.000Z"},{"geonameid":2637862,"name":"Sidcot","asciiname":"Sidcot","alternatenames":"","latitude":"51.3138800","longitude":"-2.8226300","fclass":"P","fcode":"PPLX","country":"GB","cc2":"","admin1":"ENG","admin2":"J4","admin3":"00HC034","admin4":"","population":0,"elevation":0,"gtopo30":81,"timezone":"Europe/London","moddate":"2015-07-17T00:00:00.000Z"},{"geonameid":6693023,"name":"St. Georges","asciiname":"St. Georges","alternatenames":"","latitude":"51.3622400","longitude":"-2.8979900","fclass":"P","fcode":"PPLA3","country":"GB","cc2":"","admin1":"ENG","admin2":"J4","admin3":"00HC039","admin4":"","population":0,"elevation":0,"gtopo30":7,"timezone":"Europe/London","moddate":"2011-07-31T00:00:00.000Z"},{"geonameid":9538949,"name":"Tickenham","asciiname":"Tickenham","alternatenames":"","latitude":"51.4431200","longitude":"-2.8026800","fclass":"P","fcode":"PPL","country":"GB","cc2":"","admin1":"ENG","admin2":"J4","admin3":"00HC029","admin4":"","population":585,"elevation":0,"gtopo30":25,"timezone":"Europe/London","moddate":"2017-06-12T00:00:00.000Z"},{"geonameid":2635157,"name":"Uphill","asciiname":"Uphill","alternatenames":"","latitude":"51.3236500","longitude":"-2.9807000","fclass":"P","fcode":"PPL","country":"GB","cc2":"","admin1":"ENG","admin2":"J4","admin3":"00HC038","admin4":"","population":0,"elevation":0,"gtopo30":8,"timezone":"Europe/London","moddate":"2011-03-03T00:00:00.000Z"},{"geonameid":10377121,"name":"Upper Langford","asciiname":"Upper Langford","alternatenames":"","latitude":"51.3316600","longitude":"-2.7667500","fclass":"P","fcode":"PPL","country":"GB","cc2":"","admin1":"ENG","admin2":"J4","admin3":"00HC008","admin4":"","population":0,"elevation":0,"gtopo30":43,"timezone":"Europe/London","moddate":"2015-07-17T00:00:00.000Z"},{"geonameid":3345402,"name":"Walton Down","asciiname":"Walton Down","alternatenames":"","latitude":"51.4605600","longitude":"-2.8269400","fclass":"P","fcode":"PPL","country":"GB","cc2":"","admin1":"ENG","admin2":"J4","admin3":"00HC030","admin4":"","population":0,"elevation":0,"gtopo30":77,"timezone":"Europe/London","moddate":"2016-06-22T00:00:00.000Z"},{"geonameid":2634831,"name":"Walton in Gordano","asciiname":"Walton in Gordano","alternatenames":"Walton,Walton in Gordano","latitude":"51.4530600","longitude":"-2.8269400","fclass":"P","fcode":"PPL","country":"GB","cc2":"GB","admin1":"ENG","admin2":"J4","admin3":"00HC030","admin4":"","population":0,"elevation":0,"gtopo30":11,"timezone":"Europe/London","moddate":"2016-06-22T00:00:00.000Z"},{"geonameid":8063559,"name":"West Town","asciiname":"West Town","alternatenames":"","latitude":"51.4078000","longitude":"-2.7495400","fclass":"P","fcode":"PPL","country":"GB","cc2":"","admin1":"ENG","admin2":"J4","admin3":"00HC007","admin4":"","population":0,"elevation":0,"gtopo30":29,"timezone":"Europe/London","moddate":"2011-12-01T00:00:00.000Z"},{"geonameid":3345401,"name":"Weston Down","asciiname":"Weston Down","alternatenames":"","latitude":"51.4677800","longitude":"-2.8083300","fclass":"P","fcode":"PPL","country":"GB","cc2":"","admin1":"ENG","admin2":"J4","admin3":"00HC031","admin4":"","population":0,"elevation":0,"gtopo30":81,"timezone":"Europe/London","moddate":"2016-06-22T00:00:00.000Z"},{"geonameid":2634316,"name":"Weston in Gordano","asciiname":"Weston in Gordano","alternatenames":"Weston,Weston in Gordano","latitude":"51.4644400","longitude":"-2.7966700","fclass":"P","fcode":"PPL","country":"GB","cc2":"GB","admin1":"ENG","admin2":"J4","admin3":"00HC031","admin4":"","population":0,"elevation":0,"gtopo30":12,"timezone":"Europe/London","moddate":"2016-06-22T00:00:00.000Z"},{"geonameid":2634308,"name":"Weston-super-Mare","asciiname":"Weston-super-Mare","alternatenames":"Uehston-s'juper-Mehr,Uestn sjupr Mer,Uestun-Sjupur-Meur,Veston na Meru,Weston super Mare,Weston-super-Mare,u~esuton=supa=mea,weseuteonsyupeomeeo,wstwn-swpr-mar,Вестон на Меру,Уестън сюпър Меър,Уестън-Сюпър-Меър,Уэстон-сьюпер-Мэр,وستون-سوپر-مار,ウェストン＝スーパー＝メア,웨스턴슈퍼메어","latitude":"51.3460300","longitude":"-2.9766500","fclass":"P","fcode":"PPLA2","country":"GB","cc2":"","admin1":"ENG","admin2":"J4","admin3":"00HC038","admin4":"","population":82903,"elevation":0,"gtopo30":13,"timezone":"Europe/London","moddate":"2011-03-03T00:00:00.000Z"},{"geonameid":2633968,"name":"Wick Saint Lawrence","asciiname":"Wick Saint Lawrence","alternatenames":"Wick Saint Lawrence","latitude":"51.3847200","longitude":"-2.9102800","fclass":"P","fcode":"PPL","country":"GB","cc2":"","admin1":"ENG","admin2":"J4","admin3":"00HC032","admin4":"","population":0,"elevation":0,"gtopo30":6,"timezone":"Europe/London","moddate":"2016-06-22T00:00:00.000Z"},{"geonameid":2633834,"name":"Winford","asciiname":"Winford","alternatenames":"","latitude":"51.3833300","longitude":"-2.6611100","fclass":"P","fcode":"PPLA3","country":"GB","cc2":"","admin1":"ENG","admin2":"J4","admin3":"00HC033","admin4":"","population":1165,"elevation":0,"gtopo30":107,"timezone":"Europe/London","moddate":"2017-06-12T00:00:00.000Z"},{"geonameid":6695949,"name":"Winscombe","asciiname":"Winscombe","alternatenames":"","latitude":"51.3181000","longitude":"-2.8322400","fclass":"P","fcode":"PPL","country":"GB","cc2":"","admin1":"ENG","admin2":"J4","admin3":"00HC034","admin4":"","population":4546,"elevation":0,"gtopo30":40,"timezone":"Europe/London","moddate":"2017-06-12T00:00:00.000Z"},{"geonameid":6619735,"name":"Winterhead","asciiname":"Winterhead","alternatenames":"","latitude":"51.3155100","longitude":"-2.8109200","fclass":"P","fcode":"PPL","country":"GB","cc2":"","admin1":"ENG","admin2":"J4","admin3":"00HC034","admin4":"","population":50,"elevation":0,"gtopo30":91,"timezone":"Europe/London","moddate":"2011-03-03T00:00:00.000Z"},{"geonameid":2633548,"name":"Worle","asciiname":"Worle","alternatenames":"","latitude":"51.3603300","longitude":"-2.9259000","fclass":"P","fcode":"PPL","country":"GB","cc2":"","admin1":"ENG","admin2":"J4","admin3":"00HC038","admin4":"","population":0,"elevation":0,"gtopo30":7,"timezone":"Europe/London","moddate":"2011-03-03T00:00:00.000Z"},{"geonameid":2633498,"name":"Wraxall","asciiname":"Wraxall","alternatenames":"Wraxall","latitude":"51.4441700","longitude":"-2.7313900","fclass":"P","fcode":"PPL","country":"GB","cc2":"","admin1":"ENG","admin2":"J4","admin3":"00HC035","admin4":"","population":0,"elevation":0,"gtopo30":72,"timezone":"Europe/London","moddate":"2016-06-22T00:00:00.000Z"},{"geonameid":2633482,"name":"Wrington","asciiname":"Wrington","alternatenames":"","latitude":"51.3617300","longitude":"-2.7631900","fclass":"P","fcode":"PPL","country":"GB","cc2":"","admin1":"ENG","admin2":"J4","admin3":"00HC036","admin4":"","population":1918,"elevation":0,"gtopo30":24,"timezone":"Europe/London","moddate":"2017-06-12T00:00:00.000Z"},{"geonameid":2633404,"name":"Yatton","asciiname":"Yatton","alternatenames":"Jatton,Yatton,Яттон","latitude":"51.3883900","longitude":"-2.8235300","fclass":"P","fcode":"PPLA3","country":"GB","cc2":"","admin1":"ENG","admin2":"J4","admin3":"00HC037","admin4":"","population":10251,"elevation":0,"gtopo30":11,"timezone":"Europe/London","moddate":"2017-06-12T00:00:00.000Z"}],"admin3":[{"geonameid":7296936,"name":"Abbots Leigh","admin3":"00HC001"},{"geonameid":7293654,"name":"Backwell","admin3":"00HC002"},{"geonameid":7295036,"name":"Banwell","admin3":"00HC003"},{"geonameid":7296937,"name":"Barrow Gurney","admin3":"00HC004"},{"geonameid":7296938,"name":"Blagdon","admin3":"00HC005"},{"geonameid":7296939,"name":"Bleadon","admin3":"00HC006"},{"geonameid":7291919,"name":"Brockley","admin3":"00HC007"},{"geonameid":7293645,"name":"Burrington","admin3":"00HC008"},{"geonameid":7298886,"name":"Butcombe","admin3":"00HC009"},{"geonameid":7296940,"name":"Churchill","admin3":"00HC010"},{"geonameid":7296941,"name":"Clapton-in-Gordano","admin3":"00HC011"},{"geonameid":7291920,"name":"Cleeve","admin3":"00HC012"},{"geonameid":7295037,"name":"Clevedon","admin3":"00HC013"},{"geonameid":7296942,"name":"Congresbury","admin3":"00HC014"},{"geonameid":7291921,"name":"Dundry","admin3":"00HC015"},{"geonameid":7296943,"name":"Easton-in-Gordano","admin3":"00HC016"},{"geonameid":7295038,"name":"Flax Bourton","admin3":"00HC017"},{"geonameid":7291922,"name":"Hutton","admin3":"00HC018"},{"geonameid":7296935,"name":"Kenn","admin3":"00HC019"},{"geonameid":7298887,"name":"Kewstoke","admin3":"00HC020"},{"geonameid":7296944,"name":"Kingston Seymour","admin3":"00HC021"},{"geonameid":7293646,"name":"Locking","admin3":"00HC022"},{"geonameid":2643727,"name":"Long Ashton","admin3":"00HC023"},{"geonameid":7295039,"name":"Loxton","admin3":"00HC024"},{"geonameid":7298888,"name":"Nailsea","admin3":"00HC025"},{"geonameid":7296945,"name":"Portbury","admin3":"00HC026"},{"geonameid":7296946,"name":"Portishead and North Weston","admin3":"00HC027"},{"geonameid":7295040,"name":"Puxton","admin3":"00HC028"},{"geonameid":7298891,"name":"St. Georges","admin3":"00HC039"},{"geonameid":7300982,"name":"Tickenham","admin3":"00HC029"},{"geonameid":7298889,"name":"Walton-in-Gordano","admin3":"00HC030"},{"geonameid":7295041,"name":"Weston-in-Gordano","admin3":"00HC031"},{"geonameid":7295044,"name":"Weston-Super-Mare","admin3":"00HC038"},{"geonameid":7295042,"name":"Wick St. Lawrence","admin3":"00HC032"},{"geonameid":7298890,"name":"Winford","admin3":"00HC033"},{"geonameid":7293647,"name":"Winscombe and Sandford","admin3":"00HC034"},{"geonameid":7291923,"name":"Wraxall and Failand","admin3":"00HC035"},{"geonameid":7291926,"name":"Wrington","admin3":"00HC036"},{"geonameid":7295043,"name":"Yatton","admin3":"00HC037"}],"alternateNames":[{"alternatenameId":1626647,"geonameid":6269131,"isoLanguage":"en","alternateName":"England","isPreferredName":true,"isShortName":true,"isColloquial":false,"isHistoric":false}]},"__N_SSG":true}