{"pageProps":{"locale":"ro","admin2":{"geonameid":672550,"name":"Comuna Nadeş","country":"RO","admin1":"27","admin2":"118469","admin3":"","latitude":"46.3308900","longitude":"24.7285300"},"admin1":{"geonameid":672628,"name":"Mureş","admin1":"27"},"locations":[{"geonameid":674178,"name":"Măgheruș","asciiname":"Magherus","alternatenames":"Magherus,Magnerus,Măgheruş,Măgneruş","latitude":"46.3219600","longitude":"24.6894400","fclass":"P","fcode":"PPL","country":"RO","cc2":"RO","admin1":"27","admin2":"118469","admin3":"","admin4":"","population":155,"elevation":0,"gtopo30":386,"timezone":"Europe/Bucharest","moddate":"2013-04-21T00:00:00.000Z"},{"geonameid":672551,"name":"Nadeş","asciiname":"Nades","alternatenames":"Nades,Nadesu-Secuesc,Nadeş,Nadeşu-Secuesc","latitude":"46.3166700","longitude":"24.7333300","fclass":"P","fcode":"PPLA2","country":"RO","cc2":"","admin1":"27","admin2":"118469","admin3":"","admin4":"","population":2368,"elevation":0,"gtopo30":431,"timezone":"Europe/Bucharest","moddate":"2012-06-12T00:00:00.000Z"},{"geonameid":670779,"name":"Pipea","asciiname":"Pipea","alternatenames":"","latitude":"46.3257900","longitude":"24.7768500","fclass":"P","fcode":"PPL","country":"RO","cc2":"","admin1":"27","admin2":"118469","admin3":"","admin4":"","population":105,"elevation":0,"gtopo30":426,"timezone":"Europe/Bucharest","moddate":"2013-04-21T00:00:00.000Z"},{"geonameid":665116,"name":"Țigmandru","asciiname":"Tigmandru","alternatenames":"Ciucmandru,Ticmandru,Tigmandru,Tigmandrul,Ţigmandru,Ţigmandrul","latitude":"46.3551600","longitude":"24.7178800","fclass":"P","fcode":"PPL","country":"RO","cc2":"RO","admin1":"27","admin2":"118469","admin3":"","admin4":"","population":859,"elevation":0,"gtopo30":350,"timezone":"Europe/Bucharest","moddate":"2013-04-21T00:00:00.000Z"}],"admin3":[],"alternateNames":[]},"__N_SSG":true}