{"pageProps":{"locale":"ro","admin2":{"geonameid":684405,"name":"Comuna Bogdand","country":"RO","admin1":"32","admin2":"137130","admin3":"","latitude":"47.4182400","longitude":"22.9286800"},"admin1":{"geonameid":667869,"name":"Satu Mare","admin1":"32"},"locations":[{"geonameid":685962,"name":"Bab»õa","asciiname":"Babta","alternatenames":"","latitude":"47.4577800","longitude":"22.9428300","fclass":"P","fcode":"PPL","country":"RO","cc2":"","admin1":"32","admin2":"137130","admin3":"","admin4":"","population":1053,"elevation":0,"gtopo30":243,"timezone":"Europe/Bucharest","moddate":"2013-04-21T00:00:00.000Z"},{"geonameid":684406,"name":"Bogdand","asciiname":"Bogdand","alternatenames":"Bogdan,Bogdand","latitude":"47.4166700","longitude":"22.9333300","fclass":"P","fcode":"PPLA2","country":"RO","cc2":"","admin1":"32","admin2":"137130","admin3":"","admin4":"","population":3179,"elevation":0,"gtopo30":178,"timezone":"Europe/Bucharest","moddate":"2012-06-12T00:00:00.000Z"},{"geonameid":680673,"name":"Corund","asciiname":"Corund","alternatenames":"","latitude":"47.4221900","longitude":"22.8692200","fclass":"P","fcode":"PPL","country":"RO","cc2":"","admin1":"32","admin2":"137130","admin3":"","admin4":"","population":541,"elevation":0,"gtopo30":171,"timezone":"Europe/Bucharest","moddate":"2013-04-21T00:00:00.000Z"},{"geonameid":667386,"name":"Ser","asciiname":"Ser","alternatenames":"","latitude":"47.3783200","longitude":"22.9632900","fclass":"P","fcode":"PPL","country":"RO","cc2":"","admin1":"32","admin2":"137130","admin3":"","admin4":"","population":907,"elevation":0,"gtopo30":196,"timezone":"Europe/Bucharest","moddate":"2013-04-21T00:00:00.000Z"}],"admin3":[],"alternateNames":[]},"__N_SSG":true}