{"pageProps":{"locale":"ro","admin2":{"geonameid":678424,"name":"Comuna Fãrcaş","country":"RO","admin1":"17","admin2":"72276","admin3":"","latitude":"44.6126700","longitude":"23.7408100"},"admin1":{"geonameid":679134,"name":"jud. Dolj","admin1":"17"},"locations":[{"geonameid":686389,"name":"Amărăști","asciiname":"Amarasti","alternatenames":"","latitude":"44.5859700","longitude":"23.7276700","fclass":"P","fcode":"PPL","country":"RO","cc2":"","admin1":"17","admin2":"72276","admin3":"","admin4":"","population":601,"elevation":0,"gtopo30":169,"timezone":"Europe/Bucharest","moddate":"2013-04-21T00:00:00.000Z"},{"geonameid":685815,"name":"Băicanu","asciiname":"Baicanu","alternatenames":"Baicani,Baicanu,Băicani,Băicanu","latitude":"44.5833300","longitude":"23.7333300","fclass":"P","fcode":"PPL","country":"RO","cc2":"","admin1":"17","admin2":"72276","admin3":"","admin4":"","population":0,"elevation":0,"gtopo30":233,"timezone":"Europe/Bucharest","moddate":"2016-02-07T00:00:00.000Z"},{"geonameid":678425,"name":"Fărcaș","asciiname":"Farcas","alternatenames":"","latitude":"44.6000000","longitude":"23.7500000","fclass":"P","fcode":"PPLA2","country":"RO","cc2":"","admin1":"17","admin2":"72276","admin3":"","admin4":"","population":593,"elevation":0,"gtopo30":233,"timezone":"Europe/Bucharest","moddate":"2015-11-27T00:00:00.000Z"},{"geonameid":678433,"name":"Fărcăşanca","asciiname":"Farcasanca","alternatenames":"","latitude":"44.6166700","longitude":"23.7333300","fclass":"P","fcode":"PPL","country":"RO","cc2":"","admin1":"17","admin2":"72276","admin3":"","admin4":"","population":0,"elevation":0,"gtopo30":255,"timezone":"Europe/Bucharest","moddate":"2016-02-07T00:00:00.000Z"},{"geonameid":676928,"name":"Golumbelu","asciiname":"Golumbelu","alternatenames":"Columbelu,Golumbelu","latitude":"44.6271700","longitude":"23.7398700","fclass":"P","fcode":"PPL","country":"RO","cc2":"RO","admin1":"17","admin2":"72276","admin3":"","admin4":"","population":212,"elevation":0,"gtopo30":177,"timezone":"Europe/Bucharest","moddate":"2013-04-21T00:00:00.000Z"},{"geonameid":676927,"name":"Golumbu","asciiname":"Golumbu","alternatenames":"Columbul,Golumbu","latitude":"44.6337800","longitude":"23.7541100","fclass":"P","fcode":"PPL","country":"RO","cc2":"RO","admin1":"17","admin2":"72276","admin3":"","admin4":"","population":594,"elevation":0,"gtopo30":194,"timezone":"Europe/Bucharest","moddate":"2013-04-21T00:00:00.000Z"},{"geonameid":670416,"name":"Plopu Amărăști","asciiname":"Plopu Amarasti","alternatenames":"Plop,Plopu Amarasti,Plopu Amărăşti,Plopul","latitude":"44.6102800","longitude":"23.7367700","fclass":"P","fcode":"PPL","country":"RO","cc2":"RO","admin1":"17","admin2":"72276","admin3":"","admin4":"","population":118,"elevation":0,"gtopo30":171,"timezone":"Europe/Bucharest","moddate":"2013-04-21T00:00:00.000Z"}],"admin3":[],"alternateNames":[]},"__N_SSG":true}