{"pageProps":{"locale":"ro","admin2":{"geonameid":8299637,"name":"Municipiul Aiud","country":"RO","admin1":"01","admin2":"1213","admin3":"","latitude":"46.3044000","longitude":"23.6975100"},"admin1":{"geonameid":686581,"name":"Alba","admin1":"01"},"locations":[{"geonameid":686590,"name":"Aiud","asciiname":"Aiud","alternatenames":"Aiud,Ajud,Ajudas,Ajuds,Egidiopolis,Nagyenyed,Opstina Aiud,Opština Aiud,Strassburg,a you de,ayw,Айуд,Аюд,Ајуд,ایو,阿尤德","latitude":"46.3100600","longitude":"23.7212800","fclass":"P","fcode":"PPLA2","country":"RO","cc2":"","admin1":"01","admin2":"1213","admin3":"","admin4":"","population":28341,"elevation":0,"gtopo30":254,"timezone":"Europe/Bucharest","moddate":"2012-06-12T00:00:00.000Z"},{"geonameid":686589,"name":"Aiudul de Sus","asciiname":"Aiudul de Sus","alternatenames":"Aiudu de Sus,Aiudul-de-Sus","latitude":"46.3165300","longitude":"23.6905300","fclass":"P","fcode":"PPL","country":"RO","cc2":"","admin1":"01","admin2":"1213","admin3":"","admin4":"","population":2276,"elevation":0,"gtopo30":288,"timezone":"Europe/Bucharest","moddate":"2020-03-16T00:00:00.000Z"},{"geonameid":681432,"name":"Ciumbrud","asciiname":"Ciumbrud","alternatenames":"","latitude":"46.3081000","longitude":"23.7622200","fclass":"P","fcode":"PPL","country":"RO","cc2":"","admin1":"01","admin2":"1213","admin3":"","admin4":"","population":1504,"elevation":0,"gtopo30":254,"timezone":"Europe/Bucharest","moddate":"2013-04-21T00:00:00.000Z"},{"geonameid":677260,"name":"Gâmbaş","asciiname":"Gambas","alternatenames":"Gambas,Gimbas,Gâmbaş,Gîmbaş","latitude":"46.3500000","longitude":"23.7166700","fclass":"P","fcode":"PPL","country":"RO","cc2":"","admin1":"01","admin2":"1213","admin3":"","admin4":"","population":0,"elevation":0,"gtopo30":241,"timezone":"Europe/Bucharest","moddate":"2020-03-08T00:00:00.000Z"},{"geonameid":677229,"name":"Gârbova de Jos","asciiname":"Garbova de Jos","alternatenames":"Garbova de Jos,Girbova de Jos,Gârbova de Jos,Gîrbova de Jos","latitude":"46.2590700","longitude":"23.6695800","fclass":"P","fcode":"PPL","country":"RO","cc2":"RO","admin1":"01","admin2":"1213","admin3":"","admin4":"","population":464,"elevation":0,"gtopo30":267,"timezone":"Europe/Bucharest","moddate":"2013-04-21T00:00:00.000Z"},{"geonameid":677228,"name":"Gârbova de Sus","asciiname":"Garbova de Sus","alternatenames":"Garbova-de-Sus,Girbova de Sus,Gârbova-de-Sus,Gîrbova de Sus","latitude":"46.2924000","longitude":"23.6236900","fclass":"P","fcode":"PPL","country":"RO","cc2":"RO","admin1":"01","admin2":"1213","admin3":"","admin4":"","population":357,"elevation":0,"gtopo30":376,"timezone":"Europe/Bucharest","moddate":"2013-04-21T00:00:00.000Z"},{"geonameid":677217,"name":"Gârboviţa","asciiname":"Garbovita","alternatenames":"Garbovita,Girbovita,Gârboviţa,Gîrboviţa","latitude":"46.2833300","longitude":"23.6333300","fclass":"P","fcode":"PPL","country":"RO","cc2":"RO","admin1":"01","admin2":"1213","admin3":"","admin4":"","population":0,"elevation":0,"gtopo30":385,"timezone":"Europe/Bucharest","moddate":"2020-03-08T00:00:00.000Z"},{"geonameid":674173,"name":"Măgina","asciiname":"Magina","alternatenames":"","latitude":"46.3406200","longitude":"23.6508000","fclass":"P","fcode":"PPL","country":"RO","cc2":"","admin1":"01","admin2":"1213","admin3":"","admin4":"","population":628,"elevation":0,"gtopo30":326,"timezone":"Europe/Bucharest","moddate":"2013-04-21T00:00:00.000Z"},{"geonameid":671495,"name":"Păgida","asciiname":"Pagida","alternatenames":"","latitude":"46.3407300","longitude":"23.7451800","fclass":"P","fcode":"PPL","country":"RO","cc2":"","admin1":"01","admin2":"1213","admin3":"","admin4":"","population":165,"elevation":0,"gtopo30":287,"timezone":"Europe/Bucharest","moddate":"2013-04-21T00:00:00.000Z"},{"geonameid":667071,"name":"Sâncrai","asciiname":"Sancrai","alternatenames":"Sancrai,Sincrai,Sâncrai,Sîncrai","latitude":"46.2939400","longitude":"23.7520900","fclass":"P","fcode":"PPL","country":"RO","cc2":"RO","admin1":"01","admin2":"1213","admin3":"","admin4":"","population":1023,"elevation":0,"gtopo30":247,"timezone":"Europe/Bucharest","moddate":"2013-04-21T00:00:00.000Z"},{"geonameid":665148,"name":"Țifra","asciiname":"Tifra","alternatenames":"","latitude":"46.2582400","longitude":"23.6945700","fclass":"P","fcode":"PPL","country":"RO","cc2":"","admin1":"01","admin2":"1213","admin3":"","admin4":"","population":116,"elevation":0,"gtopo30":240,"timezone":"Europe/Bucharest","moddate":"2013-04-21T00:00:00.000Z"}],"admin3":[],"alternateNames":[]},"__N_SSG":true}