{"pageProps":{"locale":"ro","admin2":{"geonameid":673390,"name":"Comuna Mihăileni","country":"RO","admin1":"33","admin2":"145042","admin3":"","latitude":"45.9999800","longitude":"24.3662100"},"admin1":{"geonameid":667267,"name":"Sibiu","admin1":"33"},"locations":[{"geonameid":673503,"name":"Metiș","asciiname":"Metis","alternatenames":"Metis,Metisdorf,Metiş,Metişdorf","latitude":"46.0199600","longitude":"24.4089500","fclass":"P","fcode":"PPL","country":"RO","cc2":"RO","admin1":"33","admin2":"145042","admin3":"","admin4":"","population":285,"elevation":0,"gtopo30":464,"timezone":"Europe/Bucharest","moddate":"2013-04-21T00:00:00.000Z"},{"geonameid":673396,"name":"Mihăileni","asciiname":"Mihaileni","alternatenames":"Mihaileni,Mihăileni,Saldorf,Şaldorf","latitude":"45.9833300","longitude":"24.3500000","fclass":"P","fcode":"PPLA2","country":"RO","cc2":"","admin1":"33","admin2":"145042","admin3":"","admin4":"","population":1050,"elevation":0,"gtopo30":455,"timezone":"Europe/Bucharest","moddate":"2012-06-12T00:00:00.000Z"},{"geonameid":672995,"name":"Moardăș","asciiname":"Moardas","alternatenames":"","latitude":"46.0085200","longitude":"24.3553000","fclass":"P","fcode":"PPL","country":"RO","cc2":"","admin1":"33","admin2":"145042","admin3":"","admin4":"","population":165,"elevation":0,"gtopo30":405,"timezone":"Europe/Bucharest","moddate":"2013-04-21T00:00:00.000Z"},{"geonameid":669092,"name":"Răvășel","asciiname":"Ravasel","alternatenames":"","latitude":"46.0096900","longitude":"24.3706900","fclass":"P","fcode":"PPL","country":"RO","cc2":"","admin1":"33","admin2":"145042","admin3":"","admin4":"","population":161,"elevation":0,"gtopo30":411,"timezone":"Europe/Bucharest","moddate":"2013-04-21T00:00:00.000Z"},{"geonameid":668220,"name":"Șalcău","asciiname":"Salcau","alternatenames":"Salcau,Salcaul,Salcăul,Şalcău","latitude":"45.9718500","longitude":"24.3478100","fclass":"P","fcode":"PPL","country":"RO","cc2":"RO","admin1":"33","admin2":"145042","admin3":"","admin4":"","population":119,"elevation":0,"gtopo30":458,"timezone":"Europe/Bucharest","moddate":"2013-04-21T00:00:00.000Z"}],"admin3":[],"alternateNames":[]},"__N_SSG":true}