{"pageProps":{"locale":"ro","admin2":{"geonameid":667918,"name":"Comuna Săsciori","country":"RO","admin1":"01","admin2":"7099","admin3":"","latitude":"45.8562900","longitude":"23.5689800"},"admin1":{"geonameid":686581,"name":"Alba","admin1":"01"},"locations":[{"geonameid":682813,"name":"Căpâlna","asciiname":"Capalna","alternatenames":"Capalna,Capilna,Căpâlna,Căpîlna","latitude":"45.8463200","longitude":"23.6041900","fclass":"P","fcode":"PPL","country":"RO","cc2":"RO","admin1":"01","admin2":"7099","admin3":"","admin4":"","population":942,"elevation":0,"gtopo30":381,"timezone":"Europe/Bucharest","moddate":"2013-04-21T00:00:00.000Z"},{"geonameid":678751,"name":"Dumbrava","asciiname":"Dumbrava","alternatenames":"Cacovita,Cacoviţa,Dumbrava,Marga","latitude":"45.8829500","longitude":"23.6049900","fclass":"P","fcode":"PPL","country":"RO","cc2":"RO","admin1":"01","admin2":"7099","admin3":"","admin4":"","population":116,"elevation":0,"gtopo30":429,"timezone":"Europe/Bucharest","moddate":"2013-04-21T00:00:00.000Z"},{"geonameid":674981,"name":"Laz","asciiname":"Laz","alternatenames":"","latitude":"45.8684000","longitude":"23.5812200","fclass":"P","fcode":"PPL","country":"RO","cc2":"","admin1":"01","admin2":"7099","admin3":"","admin4":"","population":466,"elevation":0,"gtopo30":343,"timezone":"Europe/Bucharest","moddate":"2013-04-21T00:00:00.000Z"},{"geonameid":674619,"name":"Loman","asciiname":"Loman","alternatenames":"","latitude":"45.8577200","longitude":"23.5531900","fclass":"P","fcode":"PPL","country":"RO","cc2":"","admin1":"01","admin2":"7099","admin3":"","admin4":"","population":617,"elevation":0,"gtopo30":572,"timezone":"Europe/Bucharest","moddate":"2013-04-21T00:00:00.000Z"},{"geonameid":670498,"name":"Pleși","asciiname":"Plesi","alternatenames":"","latitude":"45.8040100","longitude":"23.5839600","fclass":"P","fcode":"PPL","country":"RO","cc2":"","admin1":"01","admin2":"7099","admin3":"","admin4":"","population":150,"elevation":0,"gtopo30":983,"timezone":"Europe/Bucharest","moddate":"2013-04-21T00:00:00.000Z"},{"geonameid":669382,"name":"Răchita","asciiname":"Rachita","alternatenames":"","latitude":"45.8753300","longitude":"23.5170700","fclass":"P","fcode":"PPL","country":"RO","cc2":"","admin1":"01","admin2":"7099","admin3":"","admin4":"","population":737,"elevation":0,"gtopo30":440,"timezone":"Europe/Bucharest","moddate":"2013-04-21T00:00:00.000Z"},{"geonameid":667919,"name":"Săsciori","asciiname":"Sasciori","alternatenames":"Sasciori,Săsciori","latitude":"45.8666700","longitude":"23.5833300","fclass":"P","fcode":"PPLA2","country":"RO","cc2":"","admin1":"01","admin2":"7099","admin3":"","admin4":"","population":5822,"elevation":0,"gtopo30":460,"timezone":"Europe/Bucharest","moddate":"2012-06-12T00:00:00.000Z"},{"geonameid":667520,"name":"Sebeșel","asciiname":"Sebesel","alternatenames":"Sebesel,Sebeşel,Sebisel,Sebişel","latitude":"45.8877100","longitude":"23.5660600","fclass":"P","fcode":"PPL","country":"RO","cc2":"RO","admin1":"01","admin2":"7099","admin3":"","admin4":"","population":1094,"elevation":0,"gtopo30":304,"timezone":"Europe/Bucharest","moddate":"2013-04-21T00:00:00.000Z"},{"geonameid":11790936,"name":"Sebesláz","asciiname":"Sebeslaz","alternatenames":"","latitude":"45.8695900","longitude":"23.5791200","fclass":"P","fcode":"PPL","country":"RO","cc2":"","admin1":"01","admin2":"7099","admin3":"","admin4":"","population":0,"elevation":0,"gtopo30":451,"timezone":"Europe/Bucharest","moddate":"2018-01-05T00:00:00.000Z"},{"geonameid":664785,"name":"Tonea","asciiname":"Tonea","alternatenames":"","latitude":"45.8057100","longitude":"23.5336600","fclass":"P","fcode":"PPL","country":"RO","cc2":"","admin1":"01","admin2":"7099","admin3":"","admin4":"","population":317,"elevation":0,"gtopo30":909,"timezone":"Europe/Bucharest","moddate":"2013-04-21T00:00:00.000Z"}],"admin3":[],"alternateNames":[]},"__N_SSG":true}