{"pageProps":{"locale":"ro","admin2":{"geonameid":670228,"name":"Comuna Poienarii Burchii","country":"RO","admin1":"30","admin2":"134559","admin3":"","latitude":"44.7499500","longitude":"25.9978400"},"admin1":{"geonameid":669737,"name":"Prahova","admin1":"30"},"locations":[{"geonameid":682701,"name":"Cărbunari","asciiname":"Carbunari","alternatenames":"Carbunari,Carbunarii,Cărbunari,Cărbunarii","latitude":"44.7582700","longitude":"25.9832700","fclass":"P","fcode":"PPL","country":"RO","cc2":"RO","admin1":"30","admin2":"134559","admin3":"","admin4":"","population":141,"elevation":0,"gtopo30":120,"timezone":"Europe/Bucharest","moddate":"2013-04-21T00:00:00.000Z"},{"geonameid":671864,"name":"Ologeni","asciiname":"Ologeni","alternatenames":"","latitude":"44.7337000","longitude":"25.9505900","fclass":"P","fcode":"PPL","country":"RO","cc2":"","admin1":"30","admin2":"134559","admin3":"","admin4":"","population":1934,"elevation":0,"gtopo30":120,"timezone":"Europe/Bucharest","moddate":"2013-04-21T00:00:00.000Z"},{"geonameid":670780,"name":"Piorești","asciiname":"Pioresti","alternatenames":"Pioresti,Piorestii,Pioreşti,Pioreştii","latitude":"44.7623300","longitude":"26.0200100","fclass":"P","fcode":"PPL","country":"RO","cc2":"RO","admin1":"30","admin2":"134559","admin3":"","admin4":"","population":459,"elevation":0,"gtopo30":116,"timezone":"Europe/Bucharest","moddate":"2013-04-21T00:00:00.000Z"},{"geonameid":670252,"name":"Podu Văleni","asciiname":"Podu Valeni","alternatenames":"Podu Valeni,Podu Văleni,Podul Valeni,Podul Văleni","latitude":"44.7467000","longitude":"25.9788000","fclass":"P","fcode":"PPL","country":"RO","cc2":"RO","admin1":"30","admin2":"134559","admin3":"","admin4":"","population":314,"elevation":0,"gtopo30":117,"timezone":"Europe/Bucharest","moddate":"2013-04-21T00:00:00.000Z"},{"geonameid":670232,"name":"Poienarii Burchii","asciiname":"Poienarii Burchii","alternatenames":"Burchi","latitude":"44.7500000","longitude":"26.0166700","fclass":"P","fcode":"PPLA2","country":"RO","cc2":"","admin1":"30","admin2":"134559","admin3":"","admin4":"","population":1269,"elevation":0,"gtopo30":113,"timezone":"Europe/Bucharest","moddate":"2015-12-20T00:00:00.000Z"},{"geonameid":670224,"name":"Poienarii Vechi","asciiname":"Poienarii Vechi","alternatenames":"Poenari Vechi,Poenarii Vechi","latitude":"44.7529100","longitude":"26.0658500","fclass":"P","fcode":"PPL","country":"RO","cc2":"RO","admin1":"30","admin2":"134559","admin3":"","admin4":"","population":131,"elevation":0,"gtopo30":106,"timezone":"Europe/Bucharest","moddate":"2013-04-21T00:00:00.000Z"},{"geonameid":670225,"name":"Poienarii-Rali","asciiname":"Poienarii-Rali","alternatenames":"","latitude":"44.7500000","longitude":"26.0333300","fclass":"P","fcode":"PPL","country":"RO","cc2":"","admin1":"30","admin2":"134559","admin3":"","admin4":"","population":963,"elevation":0,"gtopo30":114,"timezone":"Europe/Bucharest","moddate":"2015-12-20T00:00:00.000Z"},{"geonameid":665462,"name":"Tătărăi","asciiname":"Tatarai","alternatenames":"","latitude":"44.7374600","longitude":"25.9298500","fclass":"P","fcode":"PPL","country":"RO","cc2":"","admin1":"30","admin2":"134559","admin3":"","admin4":"","population":814,"elevation":0,"gtopo30":124,"timezone":"Europe/Bucharest","moddate":"2013-04-21T00:00:00.000Z"}],"admin3":[],"alternateNames":[{"alternatenameId":8326236,"geonameid":669737,"isoLanguage":"en","alternateName":"Prahova","isPreferredName":true,"isShortName":true,"isColloquial":false,"isHistoric":false}]},"__N_SSG":true}