{"pageProps":{"locale":"ro","admin2":{"geonameid":683549,"name":"Comuna Bucoşniţa","country":"RO","admin1":"12","admin2":"51751","admin3":"","latitude":"45.3065200","longitude":"22.2685600"},"admin1":{"geonameid":682714,"name":"Caraş-Severin","admin1":"12"},"locations":[{"geonameid":683550,"name":"Bucoşniţa","asciiname":"Bucosnita","alternatenames":"Bucosnita,Bucoşniţa","latitude":"45.3000000","longitude":"22.2666700","fclass":"P","fcode":"PPLA2","country":"RO","cc2":"","admin1":"12","admin2":"51751","admin3":"","admin4":"","population":3025,"elevation":0,"gtopo30":283,"timezone":"Europe/Bucharest","moddate":"2012-06-12T00:00:00.000Z"},{"geonameid":676938,"name":"Goleț","asciiname":"Golet","alternatenames":"Golet,Goleti,Goleţ,Goleţi","latitude":"45.2833900","longitude":"22.2566600","fclass":"P","fcode":"PPL","country":"RO","cc2":"RO","admin1":"12","admin2":"51751","admin3":"","admin4":"","population":655,"elevation":0,"gtopo30":308,"timezone":"Europe/Bucharest","moddate":"2013-04-21T00:00:00.000Z"},{"geonameid":670935,"name":"Petroșnița","asciiname":"Petrosnita","alternatenames":"","latitude":"45.3235100","longitude":"22.2592000","fclass":"P","fcode":"PPL","country":"RO","cc2":"","admin1":"12","admin2":"51751","admin3":"","admin4":"","population":1050,"elevation":0,"gtopo30":254,"timezone":"Europe/Bucharest","moddate":"2013-04-21T00:00:00.000Z"},{"geonameid":663245,"name":"Vălișoara","asciiname":"Valisoara","alternatenames":"","latitude":"45.3179000","longitude":"22.2880500","fclass":"P","fcode":"PPL","country":"RO","cc2":"","admin1":"12","admin2":"51751","admin3":"","admin4":"","population":797,"elevation":0,"gtopo30":290,"timezone":"Europe/Bucharest","moddate":"2013-04-20T00:00:00.000Z"}],"admin3":[],"alternateNames":[]},"__N_SSG":true}