{"pageProps":{"locale":"ro","admin2":{"geonameid":8334967,"name":"Comuna Livezi","country":"RO","admin1":"39","admin2":"170872","admin3":"","latitude":"44.8370000","longitude":"23.8320900"},"admin1":{"geonameid":662892,"name":"Vâlcea","admin1":"39"},"locations":[{"geonameid":680101,"name":"Croitori","asciiname":"Croitori","alternatenames":"","latitude":"44.8666700","longitude":"23.8666700","fclass":"P","fcode":"PPLX","country":"RO","cc2":"","admin1":"39","admin2":"170872","admin3":"","admin4":"","population":0,"elevation":0,"gtopo30":400,"timezone":"Europe/Bucharest","moddate":"2016-02-07T00:00:00.000Z"},{"geonameid":675473,"name":"Istrăteşti","asciiname":"Istratesti","alternatenames":"","latitude":"44.8500000","longitude":"23.8833300","fclass":"P","fcode":"PPLX","country":"RO","cc2":"","admin1":"39","admin2":"170872","admin3":"","admin4":"","population":0,"elevation":0,"gtopo30":378,"timezone":"Europe/Bucharest","moddate":"2016-02-07T00:00:00.000Z"},{"geonameid":674651,"name":"Livezi","asciiname":"Livezi","alternatenames":"Livezi,Mahalaua Veaca,Veaca,Veaca de Gradistea,Veaca de Grădiştea","latitude":"44.8402900","longitude":"23.8250500","fclass":"P","fcode":"PPLA2","country":"RO","cc2":"","admin1":"39","admin2":"170872","admin3":"","admin4":"","population":2586,"elevation":0,"gtopo30":254,"timezone":"Europe/Bucharest","moddate":"2012-06-12T00:00:00.000Z"},{"geonameid":670762,"name":"Pârâienii de Jos","asciiname":"Paraienii de Jos","alternatenames":"Piriienii de Jos,Pîrîienii de Jos","latitude":"44.8000000","longitude":"23.8333300","fclass":"P","fcode":"PPL","country":"RO","cc2":"","admin1":"39","admin2":"170872","admin3":"","admin4":"","population":444,"elevation":0,"gtopo30":239,"timezone":"Europe/Bucharest","moddate":"2016-01-08T00:00:00.000Z"},{"geonameid":670761,"name":"Pârâienii de Mijloc","asciiname":"Paraienii de Mijloc","alternatenames":"Piriienii de Mijloc,Pîrîienii de Mijloc","latitude":"44.8166700","longitude":"23.8500000","fclass":"P","fcode":"PPL","country":"RO","cc2":"","admin1":"39","admin2":"170872","admin3":"","admin4":"","population":327,"elevation":0,"gtopo30":327,"timezone":"Europe/Bucharest","moddate":"2016-01-08T00:00:00.000Z"},{"geonameid":670760,"name":"Pârâienii de Sus","asciiname":"Paraienii de Sus","alternatenames":"Piriienii de Sus,Pîrîienii de Sus","latitude":"44.8166700","longitude":"23.8166700","fclass":"P","fcode":"PPL","country":"RO","cc2":"","admin1":"39","admin2":"170872","admin3":"","admin4":"","population":353,"elevation":0,"gtopo30":316,"timezone":"Europe/Bucharest","moddate":"2016-01-08T00:00:00.000Z"},{"geonameid":671353,"name":"Părăușani","asciiname":"Parausani","alternatenames":"Parausani,Parauseni,Părăuşani,Părăuşeni","latitude":"44.8650000","longitude":"23.8495700","fclass":"P","fcode":"PPL","country":"RO","cc2":"RO","admin1":"39","admin2":"170872","admin3":"","admin4":"","population":328,"elevation":0,"gtopo30":331,"timezone":"Europe/Bucharest","moddate":"2013-04-21T00:00:00.000Z"},{"geonameid":670546,"name":"Plăvaia","asciiname":"Plavaia","alternatenames":"","latitude":"44.8666700","longitude":"23.8666700","fclass":"P","fcode":"PPLX","country":"RO","cc2":"","admin1":"39","admin2":"170872","admin3":"","admin4":"","population":0,"elevation":0,"gtopo30":400,"timezone":"Europe/Bucharest","moddate":"2016-02-07T00:00:00.000Z"},{"geonameid":670493,"name":"Pleșoiu","asciiname":"Plesoiu","alternatenames":"Plesoiu,Plesoiul,Pleşoiu,Pleşoiul","latitude":"44.8484400","longitude":"23.8431300","fclass":"P","fcode":"PPL","country":"RO","cc2":"RO","admin1":"39","admin2":"170872","admin3":"","admin4":"","population":316,"elevation":0,"gtopo30":265,"timezone":"Europe/Bucharest","moddate":"2013-04-21T00:00:00.000Z"},{"geonameid":665075,"name":"Tina","asciiname":"Tina","alternatenames":"","latitude":"44.8605900","longitude":"23.8241300","fclass":"P","fcode":"PPL","country":"RO","cc2":"","admin1":"39","admin2":"170872","admin3":"","admin4":"","population":402,"elevation":0,"gtopo30":265,"timezone":"Europe/Bucharest","moddate":"2013-04-21T00:00:00.000Z"}],"admin3":[],"alternateNames":[]},"__N_SSG":true}