{"pageProps":{"locale":"ro","admin2":{"geonameid":677670,"name":"Comuna Gălbinaşi","country":"RO","admin1":"11","admin2":"46769","admin3":"","latitude":"45.0743900","longitude":"26.9436300"},"admin1":{"geonameid":683121,"name":"Buzău","admin1":"11"},"locations":[{"geonameid":685093,"name":"Bentu","asciiname":"Bentu","alternatenames":"","latitude":"45.0673400","longitude":"26.9744300","fclass":"P","fcode":"PPL","country":"RO","cc2":"","admin1":"11","admin2":"46769","admin3":"","admin4":"","population":869,"elevation":0,"gtopo30":63,"timezone":"Europe/Bucharest","moddate":"2013-04-21T00:00:00.000Z"},{"geonameid":679759,"name":"Dăneşti","asciiname":"Danesti","alternatenames":"Danesti,Danestii,Dăneşti,Dăneştii","latitude":"45.0166700","longitude":"26.9833300","fclass":"P","fcode":"PPL","country":"RO","cc2":"","admin1":"11","admin2":"46769","admin3":"","admin4":"","population":0,"elevation":0,"gtopo30":63,"timezone":"Europe/Bucharest","moddate":"2016-02-07T00:00:00.000Z"},{"geonameid":677672,"name":"Gălbinaşi","asciiname":"Galbinasi","alternatenames":"","latitude":"45.0833300","longitude":"26.9166700","fclass":"P","fcode":"PPLA2","country":"RO","cc2":"","admin1":"11","admin2":"46769","admin3":"","admin4":"","population":4013,"elevation":0,"gtopo30":73,"timezone":"Europe/Bucharest","moddate":"2012-06-12T00:00:00.000Z"},{"geonameid":665642,"name":"Tăbărăști","asciiname":"Tabarasti","alternatenames":"Tabarasti,Tabarastii Vechi,Tăbărăşti,Tăbărăştii Vechi","latitude":"45.0794800","longitude":"26.9194300","fclass":"P","fcode":"PPL","country":"RO","cc2":"RO","admin1":"11","admin2":"46769","admin3":"","admin4":"","population":1793,"elevation":0,"gtopo30":72,"timezone":"Europe/Bucharest","moddate":"2013-04-21T00:00:00.000Z"},{"geonameid":665640,"name":"Tăbărăştii Noi","asciiname":"Tabarastii Noi","alternatenames":"Tabarasti Noui,Tabarastii Noi,Tăbărăşti Noui,Tăbărăştii Noi","latitude":"45.0833300","longitude":"26.9166700","fclass":"P","fcode":"PPL","country":"RO","cc2":"","admin1":"11","admin2":"46769","admin3":"","admin4":"","population":0,"elevation":0,"gtopo30":73,"timezone":"Europe/Bucharest","moddate":"2016-02-07T00:00:00.000Z"}],"admin3":[],"alternateNames":[]},"__N_SSG":true}