{"pageProps":{"locale":"ro","admin2":{"geonameid":664723,"name":"Comuna Toporu","country":"RO","admin1":"42","admin2":"154709","admin3":"","latitude":"43.9958800","longitude":"25.6473700"},"admin1":{"geonameid":677104,"name":"Giurgiu","admin1":"42"},"locations":[{"geonameid":676800,"name":"Grăjdăneşti","asciiname":"Grajdanesti","alternatenames":"","latitude":"43.9833300","longitude":"25.6500000","fclass":"P","fcode":"PPLX","country":"RO","cc2":"","admin1":"42","admin2":"154709","admin3":"","admin4":"","population":0,"elevation":0,"gtopo30":78,"timezone":"Europe/Bucharest","moddate":"2016-02-07T00:00:00.000Z"},{"geonameid":664793,"name":"Tomulești","asciiname":"Tomulesti","alternatenames":"","latitude":"43.9769500","longitude":"25.6374500","fclass":"P","fcode":"PPL","country":"RO","cc2":"","admin1":"42","admin2":"154709","admin3":"","admin4":"","population":964,"elevation":0,"gtopo30":82,"timezone":"Europe/Bucharest","moddate":"2013-04-21T00:00:00.000Z"},{"geonameid":664724,"name":"Toporu","asciiname":"Toporu","alternatenames":"Toporu,Toporul","latitude":"44.0105600","longitude":"25.6527800","fclass":"P","fcode":"PPLA2","country":"RO","cc2":"","admin1":"42","admin2":"154709","admin3":"","admin4":"","population":2536,"elevation":0,"gtopo30":87,"timezone":"Europe/Bucharest","moddate":"2012-06-12T00:00:00.000Z"},{"geonameid":664639,"name":"Trestenicu","asciiname":"Trestenicu","alternatenames":"Trestenciu-Tomulesti,Trestenciu-Tomuleşti,Trestenicu,Trestenicul,Trestenicul-Tomulesti,Trestenicul-Tomuleşti","latitude":"43.9666700","longitude":"25.6166700","fclass":"P","fcode":"PPL","country":"RO","cc2":"","admin1":"42","admin2":"154709","admin3":"","admin4":"","population":0,"elevation":0,"gtopo30":86,"timezone":"Europe/Bucharest","moddate":"2016-02-07T00:00:00.000Z"},{"geonameid":664638,"name":"Trestenicu Nou","asciiname":"Trestenicu Nou","alternatenames":"","latitude":"43.9666700","longitude":"25.6166700","fclass":"P","fcode":"PPLX","country":"RO","cc2":"","admin1":"42","admin2":"154709","admin3":"","admin4":"","population":0,"elevation":0,"gtopo30":86,"timezone":"Europe/Bucharest","moddate":"2016-02-07T00:00:00.000Z"},{"geonameid":664637,"name":"Trestenicu Vechi","asciiname":"Trestenicu Vechi","alternatenames":"","latitude":"43.9666700","longitude":"25.6166700","fclass":"P","fcode":"PPLX","country":"RO","cc2":"","admin1":"42","admin2":"154709","admin3":"","admin4":"","population":0,"elevation":0,"gtopo30":86,"timezone":"Europe/Bucharest","moddate":"2016-02-07T00:00:00.000Z"}],"admin3":[],"alternateNames":[]},"__N_SSG":true}