{"pageProps":{"locale":"ro","admin2":{"geonameid":8334649,"name":"Comuna Hereclean","country":"RO","admin1":"31","admin2":"141376","admin3":"","latitude":"47.2629700","longitude":"23.0070400"},"admin1":{"geonameid":668248,"name":"Sălaj","admin1":"31"},"locations":[{"geonameid":685882,"name":"Badon","asciiname":"Badon","alternatenames":"","latitude":"47.2500100","longitude":"22.9779700","fclass":"P","fcode":"PPL","country":"RO","cc2":"","admin1":"31","admin2":"141376","admin3":"","admin4":"","population":660,"elevation":0,"gtopo30":223,"timezone":"Europe/Bucharest","moddate":"2013-04-21T00:00:00.000Z"},{"geonameid":684478,"name":"Bocșița","asciiname":"Bocsita","alternatenames":"","latitude":"47.3058700","longitude":"23.0519800","fclass":"P","fcode":"PPL","country":"RO","cc2":"","admin1":"31","admin2":"141376","admin3":"","admin4":"","population":157,"elevation":0,"gtopo30":221,"timezone":"Europe/Bucharest","moddate":"2013-04-21T00:00:00.000Z"},{"geonameid":679338,"name":"Dioșod","asciiname":"Diosod","alternatenames":"","latitude":"47.2923800","longitude":"23.0209900","fclass":"P","fcode":"PPL","country":"RO","cc2":"","admin1":"31","admin2":"141376","admin3":"","admin4":"","population":1129,"elevation":0,"gtopo30":267,"timezone":"Europe/Bucharest","moddate":"2013-04-21T00:00:00.000Z"},{"geonameid":676429,"name":"Guruslău","asciiname":"Guruslau","alternatenames":"","latitude":"47.2781300","longitude":"22.9832400","fclass":"P","fcode":"PPL","country":"RO","cc2":"","admin1":"31","admin2":"141376","admin3":"","admin4":"","population":637,"elevation":0,"gtopo30":239,"timezone":"Europe/Bucharest","moddate":"2013-04-21T00:00:00.000Z"},{"geonameid":676237,"name":"Hereclean","asciiname":"Hereclean","alternatenames":"Hereclean","latitude":"47.2500000","longitude":"23.0166700","fclass":"P","fcode":"PPLA2","country":"RO","cc2":"","admin1":"31","admin2":"141376","admin3":"","admin4":"","population":3685,"elevation":0,"gtopo30":270,"timezone":"Europe/Bucharest","moddate":"2012-06-12T00:00:00.000Z"},{"geonameid":671388,"name":"Panic","asciiname":"Panic","alternatenames":"","latitude":"47.2049700","longitude":"22.9932800","fclass":"P","fcode":"PPL","country":"RO","cc2":"","admin1":"31","admin2":"141376","admin3":"","admin4":"","population":892,"elevation":0,"gtopo30":217,"timezone":"Europe/Bucharest","moddate":"2013-04-21T00:00:00.000Z"}],"admin3":[],"alternateNames":[]},"__N_SSG":true}