{"pageProps":{"locale":"ro","admin2":{"geonameid":8334988,"name":"Comuna Plãieşii De Jos","country":"RO","admin1":"20","admin2":"85289","admin3":"","latitude":"46.2162600","longitude":"26.0943600"},"admin1":{"geonameid":676309,"name":"Harghita","admin1":"20"},"locations":[{"geonameid":682600,"name":"Casinu Nou","asciiname":"Casinu Nou","alternatenames":"Casinu Nou,Casinul Nou,Caşinul Nou,Kaszonuifalu,Kàszonuifalù","latitude":"46.1972500","longitude":"26.0489400","fclass":"P","fcode":"PPL","country":"RO","cc2":"RO","admin1":"20","admin2":"85289","admin3":"","admin4":"","population":892,"elevation":0,"gtopo30":679,"timezone":"Europe/Bucharest","moddate":"2013-04-21T00:00:00.000Z"},{"geonameid":675867,"name":"Iacobeni","asciiname":"Iacobeni","alternatenames":"Iacobeni,Kaszon Jskabfluva,Kaszonjakabfalva,Kàszonjakabfalva","latitude":"46.2005700","longitude":"26.1071900","fclass":"P","fcode":"PPL","country":"RO","cc2":"RO","admin1":"20","admin2":"85289","admin3":"","admin4":"","population":435,"elevation":0,"gtopo30":681,"timezone":"Europe/Bucharest","moddate":"2013-04-21T00:00:00.000Z"},{"geonameid":675624,"name":"Imper","asciiname":"Imper","alternatenames":"Imper,Kaszoninper,Kàszoninper","latitude":"46.2166700","longitude":"26.1000000","fclass":"P","fcode":"PPL","country":"RO","cc2":"","admin1":"20","admin2":"85289","admin3":"","admin4":"","population":2936,"elevation":0,"gtopo30":720,"timezone":"Europe/Bucharest","moddate":"2016-02-07T00:00:00.000Z"},{"geonameid":670585,"name":"Plăieșii de Jos","asciiname":"Plaiesii de Jos","alternatenames":"Kaszonaltiz,Kàszonaltiz,Plaesii de Jos,Plaiesii-de-Jos,Plăeşii de Jos,Plăieşii-de-Jos","latitude":"46.2282700","longitude":"26.1003300","fclass":"P","fcode":"PPL","country":"RO","cc2":"RO","admin1":"20","admin2":"85289","admin3":"","admin4":"","population":493,"elevation":0,"gtopo30":698,"timezone":"Europe/Bucharest","moddate":"2013-04-21T00:00:00.000Z"},{"geonameid":670584,"name":"Plăieșii de Sus","asciiname":"Plaiesii de Sus","alternatenames":"Kaszon,Kaszonfeltiz,Kàszonfeltiz,Plaesii de Sus,Plaiesii-de-Sus,Plăeşii de Sus,Plăieşii-de-Sus","latitude":"46.2351500","longitude":"26.1074600","fclass":"P","fcode":"PPL","country":"RO","cc2":"RO","admin1":"20","admin2":"85289","admin3":"","admin4":"","population":850,"elevation":0,"gtopo30":712,"timezone":"Europe/Bucharest","moddate":"2013-04-21T00:00:00.000Z"}],"admin3":[],"alternateNames":[]},"__N_SSG":true}