{"pageProps":{"locale":"en","admin2":{"geonameid":3333192,"name":"Sefton","country":"GB","admin1":"ENG","admin2":"L8","admin3":"","latitude":"53.5000000","longitude":"-3.0000000","localeAltName":"Sefton"},"admin1":{"geonameid":6269131,"name":"England","admin1":"ENG","localeAltName":"England"},"locations":[{"geonameid":2657623,"name":"Ainsdale","asciiname":"Ainsdale","alternatenames":"","latitude":"53.6029400","longitude":"-3.0337400","fclass":"P","fcode":"PPL","country":"GB","cc2":"","admin1":"ENG","admin2":"L8","admin3":"30UP","admin4":"","population":0,"elevation":0,"gtopo30":13,"timezone":"Europe/London","moddate":"2011-03-03T00:00:00.000Z"},{"geonameid":2657621,"name":"Aintree","asciiname":"Aintree","alternatenames":"Aintree","latitude":"53.4753800","longitude":"-2.9520200","fclass":"P","fcode":"PPL","country":"GB","cc2":"","admin1":"ENG","admin2":"L8","admin3":"00CA001","admin4":"","population":0,"elevation":0,"gtopo30":31,"timezone":"Europe/London","moddate":"2011-03-03T00:00:00.000Z"},{"geonameid":10109417,"name":"Blowick","asciiname":"Blowick","alternatenames":"","latitude":"53.6416400","longitude":"-2.9673000","fclass":"P","fcode":"PPLX","country":"GB","cc2":"","admin1":"ENG","admin2":"L8","admin3":"","admin4":"","population":0,"elevation":0,"gtopo30":7,"timezone":"Europe/London","moddate":"2015-02-20T00:00:00.000Z"},{"geonameid":2655323,"name":"Blundellsands","asciiname":"Blundellsands","alternatenames":"Blundellsands","latitude":"53.4893000","longitude":"-3.0464100","fclass":"P","fcode":"PPL","country":"GB","cc2":"","admin1":"ENG","admin2":"L8","admin3":"00CA009","admin4":"","population":0,"elevation":0,"gtopo30":14,"timezone":"Europe/London","moddate":"2011-03-03T00:00:00.000Z"},{"geonameid":2655198,"name":"Bootle","asciiname":"Bootle","alternatenames":"Bootle,Butl,Butlis,bu te er,bwtl  anglstan,Бутл,بوتل، انگلستان,布特爾","latitude":"53.4666700","longitude":"-3.0166700","fclass":"P","fcode":"PPL","country":"GB","cc2":"","admin1":"ENG","admin2":"L8","admin3":"","admin4":"","population":57791,"elevation":0,"gtopo30":15,"timezone":"Europe/London","moddate":"2013-07-11T00:00:00.000Z"},{"geonameid":6693123,"name":"Churchtown","asciiname":"Churchtown","alternatenames":"","latitude":"53.6607100","longitude":"-2.9821000","fclass":"P","fcode":"PPL","country":"GB","cc2":"","admin1":"ENG","admin2":"L8","admin3":"","admin4":"","population":0,"elevation":0,"gtopo30":11,"timezone":"Europe/London","moddate":"2010-03-29T00:00:00.000Z"},{"geonameid":3209584,"name":"Crosby","asciiname":"Crosby","alternatenames":"Crosby","latitude":"53.4777800","longitude":"-3.0333300","fclass":"P","fcode":"PPL","country":"GB","cc2":"","admin1":"ENG","admin2":"L8","admin3":"","admin4":"","population":52140,"elevation":0,"gtopo30":14,"timezone":"Europe/London","moddate":"2018-07-04T00:00:00.000Z"},{"geonameid":2651881,"name":"Crossens","asciiname":"Crossens","alternatenames":"","latitude":"53.6701100","longitude":"-2.9490000","fclass":"P","fcode":"PPL","country":"GB","cc2":"","admin1":"ENG","admin2":"L8","admin3":"30UP","admin4":"","population":0,"elevation":0,"gtopo30":8,"timezone":"Europe/London","moddate":"2011-03-03T00:00:00.000Z"},{"geonameid":2649198,"name":"Formby","asciiname":"Formby","alternatenames":"","latitude":"53.5583800","longitude":"-3.0699900","fclass":"P","fcode":"PPLA3","country":"GB","cc2":"","admin1":"ENG","admin2":"L8","admin3":"00CA010","admin4":"","population":23329,"elevation":0,"gtopo30":12,"timezone":"Europe/London","moddate":"2017-06-12T00:00:00.000Z"},{"geonameid":10108178,"name":"Freshfield","asciiname":"Freshfield","alternatenames":"","latitude":"53.5631800","longitude":"-3.0718800","fclass":"P","fcode":"PPLX","country":"GB","cc2":"","admin1":"ENG","admin2":"L8","admin3":"00CA010","admin4":"","population":0,"elevation":0,"gtopo30":14,"timezone":"Europe/London","moddate":"2015-08-10T00:00:00.000Z"},{"geonameid":2648127,"name":"Great Crosby","asciiname":"Great Crosby","alternatenames":"Crosby,Great Crosby","latitude":"53.4905200","longitude":"-3.0308300","fclass":"P","fcode":"PPL","country":"GB","cc2":"","admin1":"ENG","admin2":"L8","admin3":"00CA008","admin4":"","population":0,"elevation":0,"gtopo30":13,"timezone":"Europe/London","moddate":"2011-03-03T00:00:00.000Z"},{"geonameid":2646922,"name":"Hightown","asciiname":"Hightown","alternatenames":"","latitude":"53.5245200","longitude":"-3.0619200","fclass":"P","fcode":"PPLA3","country":"GB","cc2":"","admin1":"ENG","admin2":"L8","admin3":"00CA009","admin4":"","population":2063,"elevation":0,"gtopo30":9,"timezone":"Europe/London","moddate":"2017-06-12T00:00:00.000Z"},{"geonameid":2646254,"name":"Ince Blundell","asciiname":"Ince Blundell","alternatenames":"","latitude":"53.5242900","longitude":"-3.0273300","fclass":"P","fcode":"PPLA3","country":"GB","cc2":"","admin1":"ENG","admin2":"L8","admin3":"00CA002","admin4":"","population":516,"elevation":0,"gtopo30":8,"timezone":"Europe/London","moddate":"2017-06-12T00:00:00.000Z"},{"geonameid":2644386,"name":"Litherland","asciiname":"Litherland","alternatenames":"Litherland","latitude":"53.4699300","longitude":"-2.9980900","fclass":"P","fcode":"PPL","country":"GB","cc2":"","admin1":"ENG","admin2":"L8","admin3":"00CA007","admin4":"","population":22971,"elevation":0,"gtopo30":22,"timezone":"Europe/London","moddate":"2011-03-03T00:00:00.000Z"},{"geonameid":10108186,"name":"Little Altcar","asciiname":"Little Altcar","alternatenames":"","latitude":"53.5510900","longitude":"-3.0482800","fclass":"P","fcode":"PPL","country":"GB","cc2":"","admin1":"ENG","admin2":"L8","admin3":"00CA010","admin4":"","population":0,"elevation":0,"gtopo30":6,"timezone":"Europe/London","moddate":"2015-02-20T00:00:00.000Z"},{"geonameid":2643320,"name":"Lydiate","asciiname":"Lydiate","alternatenames":"Lydiate","latitude":"53.5304600","longitude":"-2.9547600","fclass":"P","fcode":"PPL","country":"GB","cc2":"","admin1":"ENG","admin2":"L8","admin3":"00CA004","admin4":"","population":0,"elevation":0,"gtopo30":22,"timezone":"Europe/London","moddate":"2011-03-03T00:00:00.000Z"},{"geonameid":2643198,"name":"Maghull","asciiname":"Maghull","alternatenames":"magwl,ماگول","latitude":"53.5161900","longitude":"-2.9411700","fclass":"P","fcode":"PPL","country":"GB","cc2":"","admin1":"ENG","admin2":"L8","admin3":"00CA005","admin4":"","population":26997,"elevation":0,"gtopo30":22,"timezone":"Europe/London","moddate":"2017-06-12T00:00:00.000Z"},{"geonameid":2642782,"name":"Melling","asciiname":"Melling","alternatenames":"","latitude":"53.4833300","longitude":"-2.9166700","fclass":"P","fcode":"PPLA3","country":"GB","cc2":"","admin1":"ENG","admin2":"L8","admin3":"00CA006","admin4":"","population":0,"elevation":0,"gtopo30":19,"timezone":"Europe/London","moddate":"2011-07-31T00:00:00.000Z"},{"geonameid":6694824,"name":"Netherton","asciiname":"Netherton","alternatenames":"","latitude":"53.4795700","longitude":"-2.9625300","fclass":"P","fcode":"PPL","country":"GB","cc2":"","admin1":"ENG","admin2":"L8","admin3":"","admin4":"","population":0,"elevation":0,"gtopo30":24,"timezone":"Europe/London","moddate":"2010-05-25T00:00:00.000Z"},{"geonameid":2634685,"name":"Seaforth","asciiname":"Seaforth","alternatenames":"Seaforth,Waterloo,Waterloo with Seaforth","latitude":"53.4666700","longitude":"-3.0166700","fclass":"P","fcode":"PPL","country":"GB","cc2":"GB","admin1":"ENG","admin2":"L8","admin3":"","admin4":"","population":0,"elevation":0,"gtopo30":15,"timezone":"Europe/London","moddate":"2013-07-11T00:00:00.000Z"},{"geonameid":2638250,"name":"Sefton","asciiname":"Sefton","alternatenames":"Borough Metropolitano de Sefton,Metropolitan Borough of Sefton,Sefton,sai fu dun dou hui zi zhi shi,塞夫頓都會自治市","latitude":"53.5040700","longitude":"-2.9719600","fclass":"P","fcode":"PPL","country":"GB","cc2":"","admin1":"ENG","admin2":"L8","admin3":"00CA007","admin4":"","population":0,"elevation":0,"gtopo30":10,"timezone":"Europe/London","moddate":"2015-05-23T00:00:00.000Z"},{"geonameid":2637343,"name":"Southport","asciiname":"Southport","alternatenames":"Sautport,Southport,sauseupoteu,sausupoto,shao si bo te,Саутпорт,ساوت‌پورت,サウスポート,紹斯波特,사우스포트","latitude":"53.6458100","longitude":"-3.0100800","fclass":"P","fcode":"PPLA2","country":"GB","cc2":"","admin1":"ENG","admin2":"L8","admin3":"","admin4":"","population":91703,"elevation":0,"gtopo30":9,"timezone":"Europe/London","moddate":"2017-06-12T00:00:00.000Z"},{"geonameid":2635974,"name":"Thornton","asciiname":"Thornton","alternatenames":"","latitude":"53.5000000","longitude":"-3.0000000","fclass":"P","fcode":"PPLA3","country":"GB","cc2":"","admin1":"ENG","admin2":"L8","admin3":"00CA008","admin4":"","population":0,"elevation":0,"gtopo30":19,"timezone":"Europe/London","moddate":"2011-07-31T00:00:00.000Z"},{"geonameid":8224785,"name":"Waterloo","asciiname":"Waterloo","alternatenames":"","latitude":"53.4745400","longitude":"-3.0301700","fclass":"P","fcode":"PPLX","country":"GB","cc2":"","admin1":"ENG","admin2":"L8","admin3":"","admin4":"","population":1001,"elevation":0,"gtopo30":13,"timezone":"Europe/London","moddate":"2012-03-29T00:00:00.000Z"}],"admin3":[{"geonameid":7301405,"name":"Aintree Village","admin3":"00CA001"},{"geonameid":7292246,"name":"Formby","admin3":"00CA010"},{"geonameid":7301406,"name":"Hightown","admin3":"00CA009"},{"geonameid":7292243,"name":"Ince Blundell","admin3":"00CA002"},{"geonameid":7292244,"name":"Little Altcar","admin3":"00CA003"},{"geonameid":7292245,"name":"Lydiate","admin3":"00CA004"},{"geonameid":7301053,"name":"Maghull","admin3":"00CA005"},{"geonameid":7297082,"name":"Melling","admin3":"00CA006"},{"geonameid":7295996,"name":"Sefton","admin3":"00CA007"},{"geonameid":2635966,"name":"Thornton","admin3":"00CA008"}],"alternateNames":[{"alternatenameId":8666520,"geonameid":3333192,"isoLanguage":"en","alternateName":"Sefton","isPreferredName":true,"isShortName":true,"isColloquial":false,"isHistoric":false},{"alternatenameId":1626647,"geonameid":6269131,"isoLanguage":"en","alternateName":"England","isPreferredName":true,"isShortName":true,"isColloquial":false,"isHistoric":false}]},"__N_SSG":true}