{"pageProps":{"locale":"ro","admin2":{"geonameid":8334653,"name":"Oraş Nucet","country":"RO","admin1":"05","admin2":"26920","admin3":"","latitude":"46.4849600","longitude":"22.5890100"},"admin1":{"geonameid":684878,"name":"Bihor","admin1":"05"},"locations":[{"geonameid":685766,"name":"Băița","asciiname":"Baita","alternatenames":"Baita,Băița,Rezbanya,Rezbanyafalu,Rezbanyavaros,Rézbánya,Rézbányafalu,Rézbányaváros","latitude":"46.4815500","longitude":"22.5852700","fclass":"P","fcode":"PPLX","country":"RO","cc2":"","admin1":"05","admin2":"26920","admin3":"","admin4":"","population":659,"elevation":0,"gtopo30":439,"timezone":"Europe/Bucharest","moddate":"2013-12-01T00:00:00.000Z"},{"geonameid":685761,"name":"Băița-Plai","asciiname":"Baita-Plai","alternatenames":"Baita-Plai,Băița-Plai,Rezbanya,Rézbánya","latitude":"46.4859600","longitude":"22.6220400","fclass":"P","fcode":"PPLX","country":"RO","cc2":"","admin1":"05","admin2":"26920","admin3":"","admin4":"","population":149,"elevation":0,"gtopo30":566,"timezone":"Europe/Bucharest","moddate":"2013-12-01T00:00:00.000Z"},{"geonameid":672142,"name":"Nucet","asciiname":"Nucet","alternatenames":"Nucet","latitude":"46.4873200","longitude":"22.5585000","fclass":"P","fcode":"PPLA2","country":"RO","cc2":"","admin1":"05","admin2":"26920","admin3":"","admin4":"","population":1500,"elevation":0,"gtopo30":392,"timezone":"Europe/Bucharest","moddate":"2015-11-05T00:00:00.000Z"},{"geonameid":7733098,"name":"Vârtop","asciiname":"Vartop","alternatenames":"","latitude":"46.5141100","longitude":"22.6754400","fclass":"P","fcode":"PPL","country":"RO","cc2":"","admin1":"05","admin2":"26920","admin3":"","admin4":"","population":0,"elevation":0,"gtopo30":1150,"timezone":"Europe/Bucharest","moddate":"2016-02-07T00:00:00.000Z"}],"admin3":[],"alternateNames":[]},"__N_SSG":true}