{"pageProps":{"locale":"ro","admin2":{"geonameid":685614,"name":"Comuna Balinţ","country":"RO","admin1":"36","admin2":"155546","admin3":"","latitude":"45.8229000","longitude":"21.8584100"},"admin1":{"geonameid":665091,"name":"Timiş","admin1":"36"},"locations":[{"geonameid":685615,"name":"Balinţ","asciiname":"Balint","alternatenames":"Balinc,Balincz,Balint,Balintin,Balintz,Balinţ,Bálinc,Bálincz","latitude":"45.8125000","longitude":"21.8536100","fclass":"P","fcode":"PPLA2","country":"RO","cc2":"","admin1":"36","admin2":"155546","admin3":"","admin4":"","population":1736,"elevation":0,"gtopo30":118,"timezone":"Europe/Bucharest","moddate":"2012-06-12T00:00:00.000Z"},{"geonameid":685610,"name":"Balinţu Nou","asciiname":"Balintu Nou","alternatenames":"","latitude":"45.8166700","longitude":"21.8833300","fclass":"P","fcode":"PPLX","country":"RO","cc2":"","admin1":"36","admin2":"155546","admin3":"","admin4":"","population":0,"elevation":0,"gtopo30":116,"timezone":"Europe/Bucharest","moddate":"2016-02-07T00:00:00.000Z"},{"geonameid":684453,"name":"Bodo","asciiname":"Bodo","alternatenames":"Bara,Bodo,Bodofalva,Colonia-Maghiara,Colonia-Maghiară,Nagybodofalva,Nagybodófalva","latitude":"45.8158000","longitude":"21.8840000","fclass":"P","fcode":"PPL","country":"RO","cc2":"RO","admin1":"36","admin2":"155546","admin3":"","admin4":"","population":521,"elevation":0,"gtopo30":118,"timezone":"Europe/Bucharest","moddate":"2013-04-21T00:00:00.000Z"},{"geonameid":678504,"name":"Fădimac","asciiname":"Fadimac","alternatenames":"Colonia Fadimac,Colonia Fădimac,Fadimac,Fadimak,Fadimák,Fagymag,Fădimac","latitude":"45.8500000","longitude":"21.8666700","fclass":"P","fcode":"PPL","country":"RO","cc2":"","admin1":"36","admin2":"155546","admin3":"","admin4":"","population":0,"elevation":0,"gtopo30":132,"timezone":"Europe/Bucharest","moddate":"2020-06-10T00:00:00.000Z"},{"geonameid":665023,"name":"Târgoviște","asciiname":"Targoviste","alternatenames":"Cikovasarhely,Cikóvásárhely,Cziko-Vasarhely,Czikó-Vásárhely,Targoviste,Tirgoviste,Târgovişte,Tîrgovişte,Vasaros,Vásáros","latitude":"45.8155400","longitude":"21.8254800","fclass":"P","fcode":"PPL","country":"RO","cc2":"RO","admin1":"36","admin2":"155546","admin3":"","admin4":"","population":450,"elevation":0,"gtopo30":120,"timezone":"Europe/Bucharest","moddate":"2013-04-21T00:00:00.000Z"}],"admin3":[],"alternateNames":[]},"__N_SSG":true}