{"pageProps":{"locale":"ro","admin2":{"geonameid":678984,"name":"Comuna Drăgăneşti-Vlaşca","country":"RO","admin1":"35","admin2":"152902","admin3":"","latitude":"44.0951700","longitude":"25.5484800"},"admin1":{"geonameid":665283,"name":"Teleorman","admin1":"35"},"locations":[{"geonameid":680988,"name":"Comoara","asciiname":"Comoara","alternatenames":"","latitude":"44.1130800","longitude":"25.5074700","fclass":"P","fcode":"PPL","country":"RO","cc2":"","admin1":"35","admin2":"152902","admin3":"","admin4":"","population":842,"elevation":0,"gtopo30":87,"timezone":"Europe/Bucharest","moddate":"2013-04-21T00:00:00.000Z"},{"geonameid":678985,"name":"Drăgăneşti-Vlaşca","asciiname":"Draganesti-Vlasca","alternatenames":"Draganasti,Draganesti,Draganesti-Vlasca,Drăgăneşti,Drăgăneşti-Vlaşca","latitude":"44.1013900","longitude":"25.5980600","fclass":"P","fcode":"PPLA2","country":"RO","cc2":"","admin1":"35","admin2":"152902","admin3":"","admin4":"","population":4740,"elevation":0,"gtopo30":70,"timezone":"Europe/Bucharest","moddate":"2012-06-12T00:00:00.000Z"},{"geonameid":664036,"name":"Văceni","asciiname":"Vaceni","alternatenames":"","latitude":"44.0683700","longitude":"25.5359200","fclass":"P","fcode":"PPL","country":"RO","cc2":"","admin1":"35","admin2":"152902","admin3":"","admin4":"","population":410,"elevation":0,"gtopo30":87,"timezone":"Europe/Bucharest","moddate":"2013-04-20T00:00:00.000Z"},{"geonameid":663933,"name":"Valea Albă","asciiname":"Valea Alba","alternatenames":"","latitude":"44.1000000","longitude":"25.6000000","fclass":"P","fcode":"PPL","country":"RO","cc2":"","admin1":"35","admin2":"152902","admin3":"","admin4":"","population":0,"elevation":0,"gtopo30":76,"timezone":"Europe/Bucharest","moddate":"2016-02-07T00:00:00.000Z"}],"admin3":[],"alternateNames":[]},"__N_SSG":true}