{"pageProps":{"locale":"ro","admin2":{"geonameid":686579,"name":"Comuna Albac","country":"RO","admin1":"01","admin2":"2130","admin3":"","latitude":"46.4524600","longitude":"22.9502700"},"admin1":{"geonameid":686581,"name":"Alba","admin1":"01"},"locations":[{"geonameid":686580,"name":"Albac","asciiname":"Albac","alternatenames":"Albac,Albak,Fehervoelgy,Fehérvölgy,Gmina Albac,Opstina Albac,Opština Albac,a er ba ke xiang,albak,Албак,ألباك,الباک,阿尔巴克乡","latitude":"46.4524600","longitude":"22.9516400","fclass":"P","fcode":"PPLA2","country":"RO","cc2":"","admin1":"01","admin2":"2130","admin3":"","admin4":"","population":2168,"elevation":0,"gtopo30":626,"timezone":"Europe/Bucharest","moddate":"2014-06-04T00:00:00.000Z"},{"geonameid":685409,"name":"Bărăști","asciiname":"Barasti","alternatenames":"Baresti","latitude":"46.4500000","longitude":"22.9833300","fclass":"P","fcode":"PPL","country":"RO","cc2":"","admin1":"01","admin2":"2130","admin3":"","admin4":"","population":169,"elevation":0,"gtopo30":871,"timezone":"Europe/Bucharest","moddate":"2015-11-14T00:00:00.000Z"},{"geonameid":683466,"name":"Budăieşti","asciiname":"Budaiesti","alternatenames":"","latitude":"46.4500000","longitude":"22.9666700","fclass":"P","fcode":"PPL","country":"RO","cc2":"","admin1":"01","admin2":"2130","admin3":"","admin4":"","population":0,"elevation":0,"gtopo30":635,"timezone":"Europe/Bucharest","moddate":"2016-02-07T00:00:00.000Z"},{"geonameid":681681,"name":"Cionești","asciiname":"Cionesti","alternatenames":"","latitude":"46.4722100","longitude":"22.9852300","fclass":"P","fcode":"PPL","country":"RO","cc2":"","admin1":"01","admin2":"2130","admin3":"","admin4":"","population":119,"elevation":0,"gtopo30":814,"timezone":"Europe/Bucharest","moddate":"2013-04-21T00:00:00.000Z"},{"geonameid":680572,"name":"Costești","asciiname":"Costesti","alternatenames":"","latitude":"46.4859100","longitude":"22.9066700","fclass":"P","fcode":"PPL","country":"RO","cc2":"","admin1":"01","admin2":"2130","admin3":"","admin4":"","population":150,"elevation":0,"gtopo30":1080,"timezone":"Europe/Bucharest","moddate":"2013-04-21T00:00:00.000Z"},{"geonameid":679633,"name":"Dealu Lămășoi","asciiname":"Dealu Lamasoi","alternatenames":"","latitude":"46.4861000","longitude":"22.9863900","fclass":"P","fcode":"PPL","country":"RO","cc2":"","admin1":"01","admin2":"2130","admin3":"","admin4":"","population":263,"elevation":0,"gtopo30":1039,"timezone":"Europe/Bucharest","moddate":"2013-04-21T00:00:00.000Z"},{"geonameid":679451,"name":"Deve","asciiname":"Deve","alternatenames":"","latitude":"46.4619300","longitude":"22.9355900","fclass":"P","fcode":"PPL","country":"RO","cc2":"","admin1":"01","admin2":"2130","admin3":"","admin4":"","population":44,"elevation":0,"gtopo30":913,"timezone":"Europe/Bucharest","moddate":"2013-04-21T00:00:00.000Z"},{"geonameid":678418,"name":"Fața","asciiname":"Fata","alternatenames":"","latitude":"46.4631700","longitude":"22.9621100","fclass":"P","fcode":"PPL","country":"RO","cc2":"","admin1":"01","admin2":"2130","admin3":"","admin4":"","population":318,"elevation":0,"gtopo30":849,"timezone":"Europe/Bucharest","moddate":"2013-04-21T00:00:00.000Z"},{"geonameid":670507,"name":"Pleșești","asciiname":"Plesesti","alternatenames":"","latitude":"46.4474000","longitude":"22.9330000","fclass":"P","fcode":"PPL","country":"RO","cc2":"","admin1":"01","admin2":"2130","admin3":"","admin4":"","population":71,"elevation":0,"gtopo30":766,"timezone":"Europe/Bucharest","moddate":"2013-04-21T00:00:00.000Z"},{"geonameid":669761,"name":"Potionci","asciiname":"Potionci","alternatenames":"","latitude":"46.4416000","longitude":"22.9284000","fclass":"P","fcode":"PPL","country":"RO","cc2":"","admin1":"01","admin2":"2130","admin3":"","admin4":"","population":88,"elevation":0,"gtopo30":940,"timezone":"Europe/Bucharest","moddate":"2013-04-21T00:00:00.000Z"},{"geonameid":668748,"name":"Rogoz","asciiname":"Rogoz","alternatenames":"Gura Rogozului,Rogoz","latitude":"46.4281700","longitude":"22.9615200","fclass":"P","fcode":"PPL","country":"RO","cc2":"RO","admin1":"01","admin2":"2130","admin3":"","admin4":"","population":112,"elevation":0,"gtopo30":631,"timezone":"Europe/Bucharest","moddate":"2013-04-21T00:00:00.000Z"},{"geonameid":668663,"name":"Roșești","asciiname":"Rosesti","alternatenames":"","latitude":"46.4776500","longitude":"22.9322500","fclass":"P","fcode":"PPL","country":"RO","cc2":"","admin1":"01","admin2":"2130","admin3":"","admin4":"","population":65,"elevation":0,"gtopo30":1003,"timezone":"Europe/Bucharest","moddate":"2013-04-21T00:00:00.000Z"},{"geonameid":668397,"name":"Rusești","asciiname":"Rusesti","alternatenames":"","latitude":"46.4804600","longitude":"22.9608000","fclass":"P","fcode":"PPL","country":"RO","cc2":"","admin1":"01","admin2":"2130","admin3":"","admin4":"","population":71,"elevation":0,"gtopo30":683,"timezone":"Europe/Bucharest","moddate":"2013-04-21T00:00:00.000Z"},{"geonameid":666556,"name":"Sohodol","asciiname":"Sohodol","alternatenames":"","latitude":"46.4711000","longitude":"22.9484100","fclass":"P","fcode":"PPL","country":"RO","cc2":"","admin1":"01","admin2":"2130","admin3":"","admin4":"","population":37,"elevation":0,"gtopo30":1017,"timezone":"Europe/Bucharest","moddate":"2013-04-21T00:00:00.000Z"},{"geonameid":665551,"name":"Tamboreşti","asciiname":"Tamboresti","alternatenames":"","latitude":"46.4450700","longitude":"22.9564500","fclass":"P","fcode":"PPL","country":"RO","cc2":"","admin1":"01","admin2":"2130","admin3":"","admin4":"","population":0,"elevation":0,"gtopo30":840,"timezone":"Europe/Bucharest","moddate":"2016-02-07T00:00:00.000Z"}],"admin3":[],"alternateNames":[]},"__N_SSG":true}