{"pageProps":{"locale":"ro","admin2":{"geonameid":681184,"name":"Comuna Cocu","country":"RO","admin1":"03","admin2":"15652","admin3":"","latitude":"44.8742900","longitude":"24.6511200"},"admin1":{"geonameid":686192,"name":"Argeş","admin1":"03"},"locations":[{"geonameid":685385,"name":"Bărbătești","asciiname":"Barbatesti","alternatenames":"","latitude":"44.9079900","longitude":"24.6327500","fclass":"P","fcode":"PPL","country":"RO","cc2":"","admin1":"03","admin2":"15652","admin3":"","admin4":"","population":737,"elevation":0,"gtopo30":363,"timezone":"Europe/Bucharest","moddate":"2013-04-21T00:00:00.000Z"},{"geonameid":681185,"name":"Cocu","asciiname":"Cocu","alternatenames":"Cocu,Cocul","latitude":"44.8666700","longitude":"24.6500000","fclass":"P","fcode":"PPLA2","country":"RO","cc2":"","admin1":"03","admin2":"15652","admin3":"","admin4":"","population":2662,"elevation":0,"gtopo30":413,"timezone":"Europe/Bucharest","moddate":"2012-06-12T00:00:00.000Z"},{"geonameid":680074,"name":"Crucișoara","asciiname":"Crucisoara","alternatenames":"","latitude":"44.8234100","longitude":"24.6614100","fclass":"P","fcode":"PPL","country":"RO","cc2":"","admin1":"03","admin2":"15652","admin3":"","admin4":"","population":342,"elevation":0,"gtopo30":373,"timezone":"Europe/Bucharest","moddate":"2013-04-21T00:00:00.000Z"},{"geonameid":679670,"name":"Dealu Bisericii","asciiname":"Dealu Bisericii","alternatenames":"","latitude":"44.8500000","longitude":"24.6500000","fclass":"P","fcode":"PPLX","country":"RO","cc2":"","admin1":"03","admin2":"15652","admin3":"","admin4":"","population":0,"elevation":0,"gtopo30":366,"timezone":"Europe/Bucharest","moddate":"2016-02-07T00:00:00.000Z"},{"geonameid":679668,"name":"Dealu Bogdanului","asciiname":"Dealu Bogdanului","alternatenames":"Bogdanu,Bogdanul,Dealu Bogdanului","latitude":"44.9166700","longitude":"24.6500000","fclass":"P","fcode":"PPL","country":"RO","cc2":"","admin1":"03","admin2":"15652","admin3":"","admin4":"","population":0,"elevation":0,"gtopo30":421,"timezone":"Europe/Bucharest","moddate":"2016-02-07T00:00:00.000Z"},{"geonameid":679666,"name":"Dealu Boului","asciiname":"Dealu Boului","alternatenames":"","latitude":"44.8500000","longitude":"24.6500000","fclass":"P","fcode":"PPLX","country":"RO","cc2":"","admin1":"03","admin2":"15652","admin3":"","admin4":"","population":0,"elevation":0,"gtopo30":366,"timezone":"Europe/Bucharest","moddate":"2016-02-07T00:00:00.000Z"},{"geonameid":679661,"name":"Dealu Cătuşii","asciiname":"Dealu Catusii","alternatenames":"Dealu Catusii,Dealu Cătuşii,Dealul Catusu,Dealul Cătuşu","latitude":"44.9166700","longitude":"24.6166700","fclass":"P","fcode":"PPL","country":"RO","cc2":"","admin1":"03","admin2":"15652","admin3":"","admin4":"","population":0,"elevation":0,"gtopo30":447,"timezone":"Europe/Bucharest","moddate":"2016-02-07T00:00:00.000Z"},{"geonameid":678508,"name":"Făcălețești","asciiname":"Facaletesti","alternatenames":"Facaletesti,Facaletestii,Făcăleţeşti,Făcăleţeştii","latitude":"44.8510100","longitude":"24.6782300","fclass":"P","fcode":"PPL","country":"RO","cc2":"RO","admin1":"03","admin2":"15652","admin3":"","admin4":"","population":284,"elevation":0,"gtopo30":379,"timezone":"Europe/Bucharest","moddate":"2013-04-21T00:00:00.000Z"},{"geonameid":676779,"name":"Greabănu","asciiname":"Greabanu","alternatenames":"Grabanu,Grabănu,Greabanu,Greabanul,Greabănu,Greabănul","latitude":"44.9136100","longitude":"24.6222100","fclass":"P","fcode":"PPL","country":"RO","cc2":"RO","admin1":"03","admin2":"15652","admin3":"","admin4":"","population":118,"elevation":0,"gtopo30":456,"timezone":"Europe/Bucharest","moddate":"2013-04-21T00:00:00.000Z"},{"geonameid":676776,"name":"Greabănu de Jos","asciiname":"Greabanu de Jos","alternatenames":"","latitude":"44.8833300","longitude":"24.6500000","fclass":"P","fcode":"PPLX","country":"RO","cc2":"","admin1":"03","admin2":"15652","admin3":"","admin4":"","population":0,"elevation":0,"gtopo30":359,"timezone":"Europe/Bucharest","moddate":"2016-02-07T00:00:00.000Z"},{"geonameid":676775,"name":"Greabănu de Sus","asciiname":"Greabanu de Sus","alternatenames":"","latitude":"44.8833300","longitude":"24.6500000","fclass":"P","fcode":"PPLX","country":"RO","cc2":"","admin1":"03","admin2":"15652","admin3":"","admin4":"","population":0,"elevation":0,"gtopo30":359,"timezone":"Europe/Bucharest","moddate":"2016-02-07T00:00:00.000Z"},{"geonameid":674758,"name":"Linia Mare","asciiname":"Linia Mare","alternatenames":"","latitude":"44.8500000","longitude":"24.6500000","fclass":"P","fcode":"PPLX","country":"RO","cc2":"","admin1":"03","admin2":"15652","admin3":"","admin4":"","population":0,"elevation":0,"gtopo30":366,"timezone":"Europe/Bucharest","moddate":"2016-02-07T00:00:00.000Z"},{"geonameid":674754,"name":"Linia Richiţele","asciiname":"Linia Richitele","alternatenames":"Linia,Linia Richitele,Linia Richiţele","latitude":"44.9166700","longitude":"24.6500000","fclass":"P","fcode":"PPLX","country":"RO","cc2":"","admin1":"03","admin2":"15652","admin3":"","admin4":"","population":0,"elevation":0,"gtopo30":421,"timezone":"Europe/Bucharest","moddate":"2020-06-10T00:00:00.000Z"},{"geonameid":674143,"name":"Măgura","asciiname":"Magura","alternatenames":"","latitude":"44.9166700","longitude":"24.6500000","fclass":"P","fcode":"PPLX","country":"RO","cc2":"","admin1":"03","admin2":"15652","admin3":"","admin4":"","population":0,"elevation":0,"gtopo30":421,"timezone":"Europe/Bucharest","moddate":"2016-02-07T00:00:00.000Z"},{"geonameid":672765,"name":"Moţoeşti","asciiname":"Motoesti","alternatenames":"","latitude":"44.8833300","longitude":"24.6666700","fclass":"P","fcode":"PPLX","country":"RO","cc2":"","admin1":"03","admin2":"15652","admin3":"","admin4":"","population":0,"elevation":0,"gtopo30":443,"timezone":"Europe/Bucharest","moddate":"2016-02-07T00:00:00.000Z"},{"geonameid":670505,"name":"Pleşeşti","asciiname":"Plesesti","alternatenames":"","latitude":"44.8833300","longitude":"24.6666700","fclass":"P","fcode":"PPLX","country":"RO","cc2":"","admin1":"03","admin2":"15652","admin3":"","admin4":"","population":0,"elevation":0,"gtopo30":443,"timezone":"Europe/Bucharest","moddate":"2016-02-07T00:00:00.000Z"},{"geonameid":669902,"name":"Popești","asciiname":"Popesti","alternatenames":"","latitude":"44.8536400","longitude":"24.6397000","fclass":"P","fcode":"PPL","country":"RO","cc2":"","admin1":"03","admin2":"15652","admin3":"","admin4":"","population":400,"elevation":0,"gtopo30":410,"timezone":"Europe/Bucharest","moddate":"2013-04-21T00:00:00.000Z"},{"geonameid":668920,"name":"Răchițele de Jos","asciiname":"Rachitele de Jos","alternatenames":"","latitude":"44.8858200","longitude":"24.6642600","fclass":"P","fcode":"PPL","country":"RO","cc2":"","admin1":"03","admin2":"15652","admin3":"","admin4":"","population":568,"elevation":0,"gtopo30":435,"timezone":"Europe/Bucharest","moddate":"2013-04-21T00:00:00.000Z"},{"geonameid":668919,"name":"Răchițele de Sus","asciiname":"Rachitele de Sus","alternatenames":"","latitude":"44.9057400","longitude":"24.6526900","fclass":"P","fcode":"PPL","country":"RO","cc2":"","admin1":"03","admin2":"15652","admin3":"","admin4":"","population":539,"elevation":0,"gtopo30":455,"timezone":"Europe/Bucharest","moddate":"2013-04-21T00:00:00.000Z"}],"admin3":[],"alternateNames":[]},"__N_SSG":true}