{"pageProps":{"locale":"ro","admin2":{"geonameid":673963,"name":"Comuna Măluşteni","country":"RO","admin1":"38","admin2":"164829","admin3":"","latitude":"46.1758700","longitude":"27.9154600"},"admin1":{"geonameid":663116,"name":"Vaslui","admin1":"38"},"locations":[{"geonameid":677321,"name":"Ghireasca","asciiname":"Ghireasca","alternatenames":"","latitude":"46.1977700","longitude":"27.8973200","fclass":"P","fcode":"PPL","country":"RO","cc2":"","admin1":"38","admin2":"164829","admin3":"","admin4":"","population":247,"elevation":0,"gtopo30":178,"timezone":"Europe/Bucharest","moddate":"2013-04-21T00:00:00.000Z"},{"geonameid":674290,"name":"Lupești","asciiname":"Lupesti","alternatenames":"","latitude":"46.1786100","longitude":"27.8818700","fclass":"P","fcode":"PPL","country":"RO","cc2":"","admin1":"38","admin2":"164829","admin3":"","admin4":"","population":655,"elevation":0,"gtopo30":148,"timezone":"Europe/Bucharest","moddate":"2013-04-21T00:00:00.000Z"},{"geonameid":673964,"name":"Măluşteni","asciiname":"Malusteni","alternatenames":"Malusteni,Măluşteni","latitude":"46.1833300","longitude":"27.9166700","fclass":"P","fcode":"PPLA2","country":"RO","cc2":"","admin1":"38","admin2":"164829","admin3":"","admin4":"","population":2988,"elevation":0,"gtopo30":264,"timezone":"Europe/Bucharest","moddate":"2012-06-12T00:00:00.000Z"},{"geonameid":673269,"name":"Mânăstirea","asciiname":"Manastirea","alternatenames":"Manastirea,Minastirea,Minastireni,Monastirenii,Mînăstirea,Mînăstireni,Mănăstirea","latitude":"46.1788600","longitude":"27.9563900","fclass":"P","fcode":"PPL","country":"RO","cc2":"RO","admin1":"38","admin2":"164829","admin3":"","admin4":"","population":155,"elevation":0,"gtopo30":195,"timezone":"Europe/Bucharest","moddate":"2013-04-21T00:00:00.000Z"},{"geonameid":673173,"name":"Mânzătești","asciiname":"Manzatesti","alternatenames":"Minzatesti,Mînzăteşti","latitude":"46.1500000","longitude":"27.8833300","fclass":"P","fcode":"PPL","country":"RO","cc2":"","admin1":"38","admin2":"164829","admin3":"","admin4":"","population":391,"elevation":0,"gtopo30":161,"timezone":"Europe/Bucharest","moddate":"2015-12-07T00:00:00.000Z"},{"geonameid":664411,"name":"Țuțcani","asciiname":"Tutcani","alternatenames":"","latitude":"46.1636200","longitude":"27.9510000","fclass":"P","fcode":"PPL","country":"RO","cc2":"","admin1":"38","admin2":"164829","admin3":"","admin4":"","population":740,"elevation":0,"gtopo30":200,"timezone":"Europe/Bucharest","moddate":"2013-04-21T00:00:00.000Z"}],"admin3":[],"alternateNames":[]},"__N_SSG":true}