{"pageProps":{"locale":"ro","admin2":{"geonameid":674416,"name":"Comuna Lunca de Jos","country":"RO","admin1":"20","admin2":"84656","admin3":"","latitude":"46.5986800","longitude":"25.9658200"},"admin1":{"geonameid":676309,"name":"Harghita","admin1":"20"},"locations":[{"geonameid":686295,"name":"Antoneşti","asciiname":"Antonesti","alternatenames":"","latitude":"46.5666700","longitude":"25.9666700","fclass":"P","fcode":"PPLX","country":"RO","cc2":"","admin1":"20","admin2":"84656","admin3":"","admin4":"","population":0,"elevation":0,"gtopo30":877,"timezone":"Europe/Bucharest","moddate":"2016-02-07T00:00:00.000Z"},{"geonameid":685399,"name":"Barațcoș","asciiname":"Baratcos","alternatenames":"Baraczkos,Baratcos,Baratcus,Baraţcoş,Bărăţcuş","latitude":"46.6369900","longitude":"25.9741500","fclass":"P","fcode":"PPL","country":"RO","cc2":"RO","admin1":"20","admin2":"84656","admin3":"","admin4":"","population":255,"elevation":0,"gtopo30":897,"timezone":"Europe/Bucharest","moddate":"2013-04-21T00:00:00.000Z"},{"geonameid":682805,"name":"Căpâlniţa","asciiname":"Capalnita","alternatenames":"Capalnita,Capilnita,Căpâlniţa,Căpîlniţa","latitude":"46.5666700","longitude":"25.9833300","fclass":"P","fcode":"PPL","country":"RO","cc2":"","admin1":"20","admin2":"84656","admin3":"","admin4":"","population":0,"elevation":0,"gtopo30":899,"timezone":"Europe/Bucharest","moddate":"2020-03-08T00:00:00.000Z"},{"geonameid":674419,"name":"Lunca de Jos","asciiname":"Lunca de Jos","alternatenames":"Gyimeskoezeplok,Gyimesközéplok,Lunca de Jos","latitude":"46.5666700","longitude":"25.9833300","fclass":"P","fcode":"PPLA2","country":"RO","cc2":"","admin1":"20","admin2":"84656","admin3":"","admin4":"","population":5152,"elevation":0,"gtopo30":899,"timezone":"Europe/Bucharest","moddate":"2014-06-04T00:00:00.000Z"},{"geonameid":670086,"name":"Poiana Fagului","asciiname":"Poiana Fagului","alternatenames":"Bukkhavas-Pataka,Bükkhavas-Pataka,Poiana,Poiana Fagului","latitude":"46.6409600","longitude":"25.9551500","fclass":"P","fcode":"PPL","country":"RO","cc2":"RO","admin1":"20","admin2":"84656","admin3":"","admin4":"","population":271,"elevation":0,"gtopo30":920,"timezone":"Europe/Bucharest","moddate":"2013-04-21T00:00:00.000Z"},{"geonameid":669488,"name":"Puntea Lupului","asciiname":"Puntea Lupului","alternatenames":"Farkaspallo,Farkaspallò,Puntea Lupului","latitude":"46.6895500","longitude":"25.9228700","fclass":"P","fcode":"PPL","country":"RO","cc2":"","admin1":"20","admin2":"84656","admin3":"","admin4":"","population":0,"elevation":0,"gtopo30":973,"timezone":"Europe/Bucharest","moddate":"2016-02-07T00:00:00.000Z"},{"geonameid":663891,"name":"Valea Boroș","asciiname":"Valea Boros","alternatenames":"Borospatak,Vala Boros,Vala Boroş,Valea Boros,Valea Boroş","latitude":"46.5473900","longitude":"25.9884900","fclass":"P","fcode":"PPL","country":"RO","cc2":"RO","admin1":"20","admin2":"84656","admin3":"","admin4":"","population":432,"elevation":0,"gtopo30":919,"timezone":"Europe/Bucharest","moddate":"2013-04-20T00:00:00.000Z"},{"geonameid":663860,"name":"Valea Capelei","asciiname":"Valea Capelei","alternatenames":"Kapolna Pataka,Kapotnapataka,Kàpolna Pataka,Valea Capelei","latitude":"46.5593000","longitude":"25.9899700","fclass":"P","fcode":"PPL","country":"RO","cc2":"RO","admin1":"20","admin2":"84656","admin3":"","admin4":"","population":313,"elevation":0,"gtopo30":923,"timezone":"Europe/Bucharest","moddate":"2013-04-20T00:00:00.000Z"},{"geonameid":663725,"name":"Valea Întunecoasă","asciiname":"Valea Intunecoasa","alternatenames":"Intunecoasa,Setelpatak,Sotepataka,Sötèpataka,Valea Intunecoasa,Valea Întunecoasă","latitude":"46.5612500","longitude":"25.9536500","fclass":"P","fcode":"PPL","country":"RO","cc2":"RO","admin1":"20","admin2":"84656","admin3":"","admin4":"","population":240,"elevation":0,"gtopo30":904,"timezone":"Europe/Bucharest","moddate":"2013-04-20T00:00:00.000Z"},{"geonameid":663705,"name":"Valea lui Antaloc","asciiname":"Valea lui Antaloc","alternatenames":"Antaloc,Antalok-Pataka,Antalòk-Pataka,Valea lui Antaloc","latitude":"46.5689800","longitude":"25.9668300","fclass":"P","fcode":"PPL","country":"RO","cc2":"RO","admin1":"20","admin2":"84656","admin3":"","admin4":"","population":253,"elevation":0,"gtopo30":880,"timezone":"Europe/Bucharest","moddate":"2013-04-20T00:00:00.000Z"},{"geonameid":663466,"name":"Valea Rece","asciiname":"Valea Rece","alternatenames":"","latitude":"46.5833300","longitude":"26.0000000","fclass":"P","fcode":"PPLX","country":"RO","cc2":"","admin1":"20","admin2":"84656","admin3":"","admin4":"","population":0,"elevation":0,"gtopo30":793,"timezone":"Europe/Bucharest","moddate":"2016-02-07T00:00:00.000Z"},{"geonameid":663467,"name":"Valea Rece","asciiname":"Valea Rece","alternatenames":"Hidegseg,Hidegsèg,Valea Rece","latitude":"46.6208200","longitude":"25.9582700","fclass":"P","fcode":"PPL","country":"RO","cc2":"RO","admin1":"20","admin2":"84656","admin3":"","admin4":"","population":2205,"elevation":0,"gtopo30":864,"timezone":"Europe/Bucharest","moddate":"2013-04-20T00:00:00.000Z"}],"admin3":[],"alternateNames":[]},"__N_SSG":true}