{"pageProps":{"locale":"ro","admin2":{"geonameid":685573,"name":"Comuna Balta Albă","country":"RO","admin1":"11","admin2":"44934","admin3":"","latitude":"45.2637600","longitude":"27.3055800"},"admin1":{"geonameid":683121,"name":"Buzău","admin1":"11"},"locations":[{"geonameid":686398,"name":"Amara","asciiname":"Amara","alternatenames":"Amara,Amara Veche","latitude":"45.2486600","longitude":"27.2924400","fclass":"P","fcode":"PPL","country":"RO","cc2":"RO","admin1":"11","admin2":"44934","admin3":"","admin4":"","population":1733,"elevation":0,"gtopo30":44,"timezone":"Europe/Bucharest","moddate":"2013-04-21T00:00:00.000Z"},{"geonameid":686390,"name":"Amara Nouă","asciiname":"Amara Noua","alternatenames":"","latitude":"45.2500000","longitude":"27.2833300","fclass":"P","fcode":"PPLX","country":"RO","cc2":"","admin1":"11","admin2":"44934","admin3":"","admin4":"","population":0,"elevation":0,"gtopo30":47,"timezone":"Europe/Bucharest","moddate":"2016-02-07T00:00:00.000Z"},{"geonameid":685805,"name":"Băile","asciiname":"Baile","alternatenames":"","latitude":"45.2897000","longitude":"27.3617500","fclass":"P","fcode":"PPL","country":"RO","cc2":"","admin1":"11","admin2":"44934","admin3":"","admin4":"","population":620,"elevation":0,"gtopo30":42,"timezone":"Europe/Bucharest","moddate":"2013-04-21T00:00:00.000Z"},{"geonameid":685575,"name":"Balta Albă","asciiname":"Balta Alba","alternatenames":"","latitude":"45.3042300","longitude":"27.2855700","fclass":"P","fcode":"PPLA2","country":"RO","cc2":"","admin1":"11","admin2":"44934","admin3":"","admin4":"","population":746,"elevation":0,"gtopo30":38,"timezone":"Europe/Bucharest","moddate":"2013-04-21T00:00:00.000Z"},{"geonameid":678033,"name":"Florica","asciiname":"Florica","alternatenames":"Florica","latitude":"45.3000000","longitude":"27.2833300","fclass":"P","fcode":"PPL","country":"RO","cc2":"","admin1":"11","admin2":"44934","admin3":"","admin4":"","population":0,"elevation":0,"gtopo30":30,"timezone":"Europe/Bucharest","moddate":"2016-02-07T00:00:00.000Z"},{"geonameid":666259,"name":"Stăvărăști","asciiname":"Stavarasti","alternatenames":"Parlita,Părlita,Stavarasti,Stavaresti,Stăvăreşti,Stăvărăşti","latitude":"45.2124300","longitude":"27.2825600","fclass":"P","fcode":"PPL","country":"RO","cc2":"RO","admin1":"11","admin2":"44934","admin3":"","admin4":"","population":138,"elevation":0,"gtopo30":46,"timezone":"Europe/Bucharest","moddate":"2013-04-21T00:00:00.000Z"}],"admin3":[],"alternateNames":[]},"__N_SSG":true}