{"pageProps":{"locale":"ro","admin2":{"geonameid":668697,"name":"Comuna Români","country":"RO","admin1":"28","admin2":"124073","admin3":"","latitude":"46.8024200","longitude":"26.6994500"},"admin1":{"geonameid":672460,"name":"Neamţ","admin1":"28"},"locations":[{"geonameid":684807,"name":"Bârjoveni","asciiname":"Barjoveni","alternatenames":"Barjoveni,Barjoveni Lipoveni,Birjoveni,Bârjoveni,Bârjoveni Lipoveni,Bîrjoveni","latitude":"46.8000000","longitude":"26.7166700","fclass":"P","fcode":"PPL","country":"RO","cc2":"RO","admin1":"28","admin2":"124073","admin3":"","admin4":"","population":0,"elevation":0,"gtopo30":322,"timezone":"Europe/Bucharest","moddate":"2020-03-08T00:00:00.000Z"},{"geonameid":676869,"name":"Goșmani","asciiname":"Gosmani","alternatenames":"Barcu,Barcu-Gosmani,Barcul,Bircu Gosmani,Bârcu,Bârcu-Goşmani,Bârcul,Bîrcu Goşmani,Gosmani,Goşmani","latitude":"46.8362000","longitude":"26.7152200","fclass":"P","fcode":"PPL","country":"RO","cc2":"RO","admin1":"28","admin2":"124073","admin3":"","admin4":"","population":1157,"elevation":0,"gtopo30":290,"timezone":"Europe/Bucharest","moddate":"2013-04-21T00:00:00.000Z"},{"geonameid":668698,"name":"Români","asciiname":"Romani","alternatenames":"Romani,Romini,Români,Romîni","latitude":"46.7833300","longitude":"26.6833300","fclass":"P","fcode":"PPLA2","country":"RO","cc2":"","admin1":"28","admin2":"124073","admin3":"","admin4":"","population":4597,"elevation":0,"gtopo30":344,"timezone":"Europe/Bucharest","moddate":"2012-06-12T00:00:00.000Z"},{"geonameid":667184,"name":"Siliștea","asciiname":"Silistea","alternatenames":"","latitude":"46.7778100","longitude":"26.6930300","fclass":"P","fcode":"PPL","country":"RO","cc2":"","admin1":"28","admin2":"124073","admin3":"","admin4":"","population":2389,"elevation":0,"gtopo30":257,"timezone":"Europe/Bucharest","moddate":"2013-04-21T00:00:00.000Z"}],"admin3":[],"alternateNames":[]},"__N_SSG":true}