{"pageProps":{"locale":"ro","admin2":{"geonameid":672455,"name":"Comuna Neaua","country":"RO","admin1":"27","admin2":"118511","admin3":"","latitude":"46.4867400","longitude":"24.8378500"},"admin1":{"geonameid":672628,"name":"Mureş","admin1":"27"},"locations":[{"geonameid":684123,"name":"Borzond","asciiname":"Borzond","alternatenames":"Borzandt,Borzond,Borzont","latitude":"46.4666700","longitude":"24.8500000","fclass":"P","fcode":"PPL","country":"RO","cc2":"","admin1":"27","admin2":"118511","admin3":"","admin4":"","population":0,"elevation":0,"gtopo30":456,"timezone":"Europe/Bucharest","moddate":"2016-02-07T00:00:00.000Z"},{"geonameid":677352,"name":"Ghineşti","asciiname":"Ghinesti","alternatenames":"Geges,Ghinesti,Ghineşti","latitude":"46.5000000","longitude":"24.8666700","fclass":"P","fcode":"PPL","country":"RO","cc2":"","admin1":"27","admin2":"118511","admin3":"","admin4":"","population":0,"elevation":0,"gtopo30":405,"timezone":"Europe/Bucharest","moddate":"2020-06-10T00:00:00.000Z"},{"geonameid":672456,"name":"Neaua","asciiname":"Neaua","alternatenames":"Havad,Neaua","latitude":"46.4833300","longitude":"24.8333300","fclass":"P","fcode":"PPLA2","country":"RO","cc2":"","admin1":"27","admin2":"118511","admin3":"","admin4":"","population":1521,"elevation":0,"gtopo30":412,"timezone":"Europe/Bucharest","moddate":"2012-06-12T00:00:00.000Z"},{"geonameid":668909,"name":"Rigmani","asciiname":"Rigmani","alternatenames":"Rigmany,Rigmány","latitude":"46.5166700","longitude":"24.8333300","fclass":"P","fcode":"PPL","country":"RO","cc2":"","admin1":"27","admin2":"118511","admin3":"","admin4":"","population":248,"elevation":0,"gtopo30":493,"timezone":"Europe/Bucharest","moddate":"2015-12-16T00:00:00.000Z"},{"geonameid":666945,"name":"Sânsimion","asciiname":"Sansimion","alternatenames":"Sansimion,Sinsimion,Szentsimon,Sânsimion,Sînsimion","latitude":"46.5000000","longitude":"24.8333300","fclass":"P","fcode":"PPL","country":"RO","cc2":"","admin1":"27","admin2":"118511","admin3":"","admin4":"","population":0,"elevation":0,"gtopo30":408,"timezone":"Europe/Bucharest","moddate":"2020-03-08T00:00:00.000Z"},{"geonameid":664025,"name":"Vădaș","asciiname":"Vadas","alternatenames":"Vadas,Vadasd,Vădaş","latitude":"46.4559000","longitude":"24.8193900","fclass":"P","fcode":"PPL","country":"RO","cc2":"RO","admin1":"27","admin2":"118511","admin3":"","admin4":"","population":389,"elevation":0,"gtopo30":387,"timezone":"Europe/Bucharest","moddate":"2013-04-20T00:00:00.000Z"}],"admin3":[],"alternateNames":[]},"__N_SSG":true}