{"pageProps":{"locale":"ro","admin2":{"geonameid":678487,"name":"Oraş Fãget","country":"RO","admin1":"36","admin2":"156801","admin3":"","latitude":"45.8577000","longitude":"22.1761000"},"admin1":{"geonameid":665091,"name":"Timiş","admin1":"36"},"locations":[{"geonameid":685272,"name":"Bătești","asciiname":"Batesti","alternatenames":"","latitude":"45.8466300","longitude":"22.2063500","fclass":"P","fcode":"PPL","country":"RO","cc2":"","admin1":"36","admin2":"156801","admin3":"","admin4":"","population":485,"elevation":0,"gtopo30":164,"timezone":"Europe/Bucharest","moddate":"2013-04-21T00:00:00.000Z"},{"geonameid":685193,"name":"Begheiu Mic","asciiname":"Begheiu Mic","alternatenames":"Basesti,Begheiu Mic,Băsesţi","latitude":"45.8345600","longitude":"22.1496600","fclass":"P","fcode":"PPL","country":"RO","cc2":"RO","admin1":"36","admin2":"156801","admin3":"","admin4":"","population":394,"elevation":0,"gtopo30":155,"timezone":"Europe/Bucharest","moddate":"2013-04-21T00:00:00.000Z"},{"geonameid":684906,"name":"Bichigi","asciiname":"Bichigi","alternatenames":"","latitude":"45.8572900","longitude":"22.1419700","fclass":"P","fcode":"PPL","country":"RO","cc2":"","admin1":"36","admin2":"156801","admin3":"","admin4":"","population":603,"elevation":0,"gtopo30":152,"timezone":"Europe/Bucharest","moddate":"2013-04-21T00:00:00.000Z"},{"geonameid":683883,"name":"Brănești","asciiname":"Branesti","alternatenames":"","latitude":"45.8144600","longitude":"22.2521300","fclass":"P","fcode":"PPL","country":"RO","cc2":"","admin1":"36","admin2":"156801","admin3":"","admin4":"","population":562,"elevation":0,"gtopo30":200,"timezone":"Europe/Bucharest","moddate":"2013-04-21T00:00:00.000Z"},{"geonameid":683287,"name":"Bunea Mare","asciiname":"Bunea Mare","alternatenames":"Bunea Mare,Bunea Romina,Bunea Romînă","latitude":"45.9141700","longitude":"22.1011200","fclass":"P","fcode":"PPL","country":"RO","cc2":"RO","admin1":"36","admin2":"156801","admin3":"","admin4":"","population":359,"elevation":0,"gtopo30":188,"timezone":"Europe/Bucharest","moddate":"2013-04-21T00:00:00.000Z"},{"geonameid":683286,"name":"Bunea Mică","asciiname":"Bunea Mica","alternatenames":"Bunea Mica,Bunea Mică,Bunea Ungureasca,Bunea Ungurească","latitude":"45.9263700","longitude":"22.0957800","fclass":"P","fcode":"PPL","country":"RO","cc2":"RO","admin1":"36","admin2":"156801","admin3":"","admin4":"","population":0,"elevation":0,"gtopo30":224,"timezone":"Europe/Bucharest","moddate":"2013-04-21T00:00:00.000Z"},{"geonameid":681074,"name":"Colonia Mică","asciiname":"Colonia Mica","alternatenames":"","latitude":"45.8366400","longitude":"22.1894700","fclass":"P","fcode":"PPL","country":"RO","cc2":"","admin1":"36","admin2":"156801","admin3":"","admin4":"","population":194,"elevation":0,"gtopo30":173,"timezone":"Europe/Bucharest","moddate":"2013-04-21T00:00:00.000Z"},{"geonameid":678490,"name":"Făget","asciiname":"Faget","alternatenames":"Facsad,Facsád,Faget,Fedzhet,Fehdzhet,Fudzhet,Opstina Faget,Opština Fãget,fjh,fu jie te,Фагет,Феджет,Фъджет,Фэджет,Фэҷет,فاگیٹ,فجه,弗傑特","latitude":"45.8500000","longitude":"22.1833300","fclass":"P","fcode":"PPLA2","country":"RO","cc2":"","admin1":"36","admin2":"156801","admin3":"","admin4":"","population":7125,"elevation":0,"gtopo30":150,"timezone":"Europe/Bucharest","moddate":"2012-06-12T00:00:00.000Z"},{"geonameid":675137,"name":"Jupânești","asciiname":"Jupanesti","alternatenames":"Jupinesti,Jupîneşti,Zsupanfalva,Zsupánfalva","latitude":"45.7833300","longitude":"22.2666700","fclass":"P","fcode":"PPL","country":"RO","cc2":"","admin1":"36","admin2":"156801","admin3":"","admin4":"","population":188,"elevation":0,"gtopo30":259,"timezone":"Europe/Bucharest","moddate":"2015-11-11T00:00:00.000Z"},{"geonameid":669741,"name":"Povârgina","asciiname":"Povargina","alternatenames":"Povargina,Povirgina,Povârgina,Povîrgina","latitude":"45.8872900","longitude":"22.1365500","fclass":"P","fcode":"PPL","country":"RO","cc2":"RO","admin1":"36","admin2":"156801","admin3":"","admin4":"","population":203,"elevation":0,"gtopo30":161,"timezone":"Europe/Bucharest","moddate":"2013-04-21T00:00:00.000Z"},{"geonameid":667221,"name":"Sigileşti","asciiname":"Sigilesti","alternatenames":"","latitude":"45.8500000","longitude":"22.1666700","fclass":"P","fcode":"PPL","country":"RO","cc2":"","admin1":"36","admin2":"156801","admin3":"","admin4":"","population":0,"elevation":0,"gtopo30":147,"timezone":"Europe/Bucharest","moddate":"2016-02-07T00:00:00.000Z"},{"geonameid":665263,"name":"Temerești","asciiname":"Temeresti","alternatenames":"","latitude":"45.8733100","longitude":"22.2159500","fclass":"P","fcode":"PPL","country":"RO","cc2":"","admin1":"36","admin2":"156801","admin3":"","admin4":"","population":614,"elevation":0,"gtopo30":168,"timezone":"Europe/Bucharest","moddate":"2013-04-21T00:00:00.000Z"}],"admin3":[],"alternateNames":[]},"__N_SSG":true}