{"pageProps":{"locale":"ro","admin2":{"geonameid":678900,"name":"Comuna Drăgoteşti","country":"RO","admin1":"19","admin2":"80249","admin3":"","latitude":"44.7995700","longitude":"23.1619200"},"admin1":{"geonameid":676898,"name":"Gorj","admin1":"19"},"locations":[{"geonameid":680714,"name":"Corobăi","asciiname":"Corobai","alternatenames":"","latitude":"44.8000000","longitude":"23.1500000","fclass":"P","fcode":"PPL","country":"RO","cc2":"","admin1":"19","admin2":"80249","admin3":"","admin4":"","population":797,"elevation":0,"gtopo30":237,"timezone":"Europe/Bucharest","moddate":"2015-12-01T00:00:00.000Z"},{"geonameid":680711,"name":"Corobeţi","asciiname":"Corobeti","alternatenames":"","latitude":"44.8000000","longitude":"23.1500000","fclass":"P","fcode":"PPL","country":"RO","cc2":"","admin1":"19","admin2":"80249","admin3":"","admin4":"","population":0,"elevation":0,"gtopo30":237,"timezone":"Europe/Bucharest","moddate":"2016-02-07T00:00:00.000Z"},{"geonameid":678902,"name":"Drăgoteşti","asciiname":"Dragotesti","alternatenames":"Dragotesti,Drăgoteşti","latitude":"44.8000000","longitude":"23.1666700","fclass":"P","fcode":"PPLA2","country":"RO","cc2":"","admin1":"19","admin2":"80249","admin3":"","admin4":"","population":2685,"elevation":0,"gtopo30":282,"timezone":"Europe/Bucharest","moddate":"2012-06-12T00:00:00.000Z"},{"geonameid":678899,"name":"Drăgoteştii de Jos","asciiname":"Dragotestii de Jos","alternatenames":"Dragotesti-de-Jos,Dragotestii de Jos,Drăgoteşti-de-Jos,Drăgoteştii de Jos","latitude":"44.8166700","longitude":"23.1500000","fclass":"P","fcode":"PPLX","country":"RO","cc2":"","admin1":"19","admin2":"80249","admin3":"","admin4":"","population":0,"elevation":0,"gtopo30":243,"timezone":"Europe/Bucharest","moddate":"2016-02-07T00:00:00.000Z"},{"geonameid":678898,"name":"Drăgoteştii de Sus","asciiname":"Dragotestii de Sus","alternatenames":"","latitude":"44.8333300","longitude":"23.1333300","fclass":"P","fcode":"PPLX","country":"RO","cc2":"","admin1":"19","admin2":"80249","admin3":"","admin4":"","population":0,"elevation":0,"gtopo30":265,"timezone":"Europe/Bucharest","moddate":"2016-02-07T00:00:00.000Z"},{"geonameid":664621,"name":"Trestioara","asciiname":"Trestioara","alternatenames":"","latitude":"44.7801500","longitude":"23.1801600","fclass":"P","fcode":"PPL","country":"RO","cc2":"","admin1":"19","admin2":"80249","admin3":"","admin4":"","population":539,"elevation":0,"gtopo30":214,"timezone":"Europe/Bucharest","moddate":"2013-04-21T00:00:00.000Z"}],"admin3":[],"alternateNames":[]},"__N_SSG":true}