{"pageProps":{"locale":"ro","admin2":{"geonameid":676024,"name":"Oraş Horezu","country":"RO","admin1":"39","admin2":"168041","admin3":"","latitude":"45.1696200","longitude":"23.9844800"},"admin1":{"geonameid":662892,"name":"Vâlcea","admin1":"39"},"locations":[{"geonameid":685688,"name":"Bălăneşti","asciiname":"Balanesti","alternatenames":"","latitude":"45.1833300","longitude":"23.9833300","fclass":"P","fcode":"PPLX","country":"RO","cc2":"","admin1":"39","admin2":"168041","admin3":"","admin4":"","population":0,"elevation":0,"gtopo30":715,"timezone":"Europe/Bucharest","moddate":"2016-02-07T00:00:00.000Z"},{"geonameid":684710,"name":"Bârzoteni","asciiname":"Barzoteni","alternatenames":"Barzoteni,Birzoteni,Bârzoteni,Bîrzoteni","latitude":"45.1500000","longitude":"24.0000000","fclass":"P","fcode":"PPL","country":"RO","cc2":"RO","admin1":"39","admin2":"168041","admin3":"","admin4":"","population":0,"elevation":0,"gtopo30":470,"timezone":"Europe/Bucharest","moddate":"2020-03-08T00:00:00.000Z"},{"geonameid":683313,"name":"Buliman","asciiname":"Buliman","alternatenames":"","latitude":"45.1666700","longitude":"23.9833300","fclass":"P","fcode":"PPLX","country":"RO","cc2":"","admin1":"39","admin2":"168041","admin3":"","admin4":"","population":0,"elevation":0,"gtopo30":569,"timezone":"Europe/Bucharest","moddate":"2016-02-07T00:00:00.000Z"},{"geonameid":676574,"name":"Gulimani","asciiname":"Gulimani","alternatenames":"","latitude":"45.1833300","longitude":"23.9833300","fclass":"P","fcode":"PPLX","country":"RO","cc2":"","admin1":"39","admin2":"168041","admin3":"","admin4":"","population":0,"elevation":0,"gtopo30":715,"timezone":"Europe/Bucharest","moddate":"2016-02-07T00:00:00.000Z"},{"geonameid":676026,"name":"Horezu","asciiname":"Horezu","alternatenames":"","latitude":"45.1500000","longitude":"24.0166700","fclass":"P","fcode":"PPLA2","country":"RO","cc2":"","admin1":"39","admin2":"168041","admin3":"","admin4":"","population":6743,"elevation":0,"gtopo30":468,"timezone":"Europe/Bucharest","moddate":"2018-04-29T00:00:00.000Z"},{"geonameid":675712,"name":"Ifrimești","asciiname":"Ifrimesti","alternatenames":"","latitude":"45.1867300","longitude":"23.9780300","fclass":"P","fcode":"PPL","country":"RO","cc2":"","admin1":"39","admin2":"168041","admin3":"","admin4":"","population":213,"elevation":0,"gtopo30":688,"timezone":"Europe/Bucharest","moddate":"2013-04-21T00:00:00.000Z"},{"geonameid":671875,"name":"Olari","asciiname":"Olari","alternatenames":"Balanesti-Olari,Bălăneşti-Olari,Horezu-Balan-Olari,Horezu-Bălan-Olari,Olari","latitude":"45.1500000","longitude":"24.0000000","fclass":"P","fcode":"PPL","country":"RO","cc2":"","admin1":"39","admin2":"168041","admin3":"","admin4":"","population":0,"elevation":0,"gtopo30":470,"timezone":"Europe/Bucharest","moddate":"2016-02-07T00:00:00.000Z"},{"geonameid":668902,"name":"Râmești","asciiname":"Ramesti","alternatenames":"Rimesti,Rîmeşti","latitude":"45.1833300","longitude":"23.9833300","fclass":"P","fcode":"PPL","country":"RO","cc2":"","admin1":"39","admin2":"168041","admin3":"","admin4":"","population":260,"elevation":0,"gtopo30":715,"timezone":"Europe/Bucharest","moddate":"2016-01-08T00:00:00.000Z"},{"geonameid":668696,"name":"Românii de Jos","asciiname":"Romanii de Jos","alternatenames":"Romani,Romani-de-Jos,Romanii de Jos,Romanii-de-Jos,Rominii de Jos,Românii de Jos,Românii-de-Jos,Romînii de Jos","latitude":"45.1833300","longitude":"24.0166700","fclass":"P","fcode":"PPL","country":"RO","cc2":"RO","admin1":"39","admin2":"168041","admin3":"","admin4":"","population":0,"elevation":0,"gtopo30":685,"timezone":"Europe/Bucharest","moddate":"2020-03-08T00:00:00.000Z"},{"geonameid":668695,"name":"Românii de Sus","asciiname":"Romanii de Sus","alternatenames":"Romanii de Sus,Rominii de Sus,Românii de Sus,Romînii de Sus","latitude":"45.2000000","longitude":"24.0000000","fclass":"P","fcode":"PPL","country":"RO","cc2":"RO","admin1":"39","admin2":"168041","admin3":"","admin4":"","population":0,"elevation":0,"gtopo30":583,"timezone":"Europe/Bucharest","moddate":"2020-03-08T00:00:00.000Z"},{"geonameid":665548,"name":"Tănăsești","asciiname":"Tanasesti","alternatenames":"","latitude":"45.1828300","longitude":"23.9696300","fclass":"P","fcode":"PPL","country":"RO","cc2":"","admin1":"39","admin2":"168041","admin3":"","admin4":"","population":202,"elevation":0,"gtopo30":686,"timezone":"Europe/Bucharest","moddate":"2013-04-21T00:00:00.000Z"},{"geonameid":664119,"name":"Urșani","asciiname":"Ursani","alternatenames":"","latitude":"45.1716400","longitude":"23.9623500","fclass":"P","fcode":"PPL","country":"RO","cc2":"","admin1":"39","admin2":"168041","admin3":"","admin4":"","population":483,"elevation":0,"gtopo30":576,"timezone":"Europe/Bucharest","moddate":"2013-04-20T00:00:00.000Z"}],"admin3":[],"alternateNames":[]},"__N_SSG":true}