{"pageProps":{"locale":"ro","admin2":{"geonameid":678765,"name":"Comuna Dulceşti","country":"RO","admin1":"28","admin2":"122463","admin3":"","latitude":"46.9834600","longitude":"26.7806200"},"admin1":{"geonameid":672460,"name":"Neamţ","admin1":"28"},"locations":[{"geonameid":683668,"name":"Brițcani","asciiname":"Britcani","alternatenames":"Britani,Britcani,Briţani,Briţcani","latitude":"46.9920900","longitude":"26.7340900","fclass":"P","fcode":"PPL","country":"RO","cc2":"RO","admin1":"28","admin2":"122463","admin3":"","admin4":"","population":107,"elevation":0,"gtopo30":313,"timezone":"Europe/Bucharest","moddate":"2013-04-21T00:00:00.000Z"},{"geonameid":681554,"name":"Cârlig","asciiname":"Carlig","alternatenames":"Cirlig,Cîrlig","latitude":"46.9833300","longitude":"26.7333300","fclass":"P","fcode":"PPL","country":"RO","cc2":"","admin1":"28","admin2":"122463","admin3":"","admin4":"","population":330,"elevation":0,"gtopo30":265,"timezone":"Europe/Bucharest","moddate":"2015-12-18T00:00:00.000Z"},{"geonameid":680826,"name":"Corhana","asciiname":"Corhana","alternatenames":"","latitude":"46.9803200","longitude":"26.8099700","fclass":"P","fcode":"PPL","country":"RO","cc2":"","admin1":"28","admin2":"122463","admin3":"","admin4":"","population":695,"elevation":0,"gtopo30":255,"timezone":"Europe/Bucharest","moddate":"2013-04-21T00:00:00.000Z"},{"geonameid":678766,"name":"Dulceşti","asciiname":"Dulcesti","alternatenames":"","latitude":"46.9666700","longitude":"26.7666700","fclass":"P","fcode":"PPLA2","country":"RO","cc2":"","admin1":"28","admin2":"122463","admin3":"","admin4":"","population":4856,"elevation":0,"gtopo30":233,"timezone":"Europe/Bucharest","moddate":"2012-06-12T00:00:00.000Z"},{"geonameid":670131,"name":"Poiana","asciiname":"Poiana","alternatenames":"Poiana,Poianu","latitude":"47.0054600","longitude":"26.7730000","fclass":"P","fcode":"PPL","country":"RO","cc2":"RO","admin1":"28","admin2":"122463","admin3":"","admin4":"","population":175,"elevation":0,"gtopo30":313,"timezone":"Europe/Bucharest","moddate":"2013-04-21T00:00:00.000Z"},{"geonameid":668386,"name":"Roșiori","asciiname":"Rosiori","alternatenames":"","latitude":"46.9638400","longitude":"26.8258200","fclass":"P","fcode":"PPL","country":"RO","cc2":"","admin1":"28","admin2":"122463","admin3":"","admin4":"","population":290,"elevation":0,"gtopo30":222,"timezone":"Europe/Bucharest","moddate":"2015-12-18T00:00:00.000Z"}],"admin3":[],"alternateNames":[]},"__N_SSG":true}