{"pageProps":{"locale":"ro","admin2":{"geonameid":677699,"name":"Comuna Gălăţeni","country":"RO","admin1":"35","admin2":"153026","admin3":"","latitude":"44.2249100","longitude":"25.3646600"},"admin1":{"geonameid":665283,"name":"Teleorman","admin1":"35"},"locations":[{"geonameid":684695,"name":"Bâscoveni","asciiname":"Bascoveni","alternatenames":"Bascoveni,Biscoveni,Bâscoveni,Bîscoveni","latitude":"44.2444400","longitude":"25.3599800","fclass":"P","fcode":"PPL","country":"RO","cc2":"RO","admin1":"35","admin2":"153026","admin3":"","admin4":"","population":1641,"elevation":0,"gtopo30":110,"timezone":"Europe/Bucharest","moddate":"2013-04-21T00:00:00.000Z"},{"geonameid":681344,"name":"Clăniţa de Jos","asciiname":"Clanita de Jos","alternatenames":"Clanita de Jos,Clăniţa de Jos,Mosteni-Soricesti,Moşteni-Soriceşti,Soricesti,Şoriceşti","latitude":"44.2333300","longitude":"25.3500000","fclass":"P","fcode":"PPLX","country":"RO","cc2":"","admin1":"35","admin2":"153026","admin3":"","admin4":"","population":0,"elevation":0,"gtopo30":91,"timezone":"Europe/Bucharest","moddate":"2016-02-07T00:00:00.000Z"},{"geonameid":677701,"name":"Gălăţeni","asciiname":"Galateni","alternatenames":"Galateni,Galeteni,Găleteni,Gălăţeni","latitude":"44.2166700","longitude":"25.3500000","fclass":"P","fcode":"PPLA2","country":"RO","cc2":"","admin1":"35","admin2":"153026","admin3":"","admin4":"","population":3175,"elevation":0,"gtopo30":105,"timezone":"Europe/Bucharest","moddate":"2012-06-12T00:00:00.000Z"},{"geonameid":676804,"name":"Grădișteanca","asciiname":"Gradisteanca","alternatenames":"","latitude":"44.2029000","longitude":"25.3751400","fclass":"P","fcode":"PPL","country":"RO","cc2":"","admin1":"35","admin2":"153026","admin3":"","admin4":"","population":259,"elevation":0,"gtopo30":100,"timezone":"Europe/Bucharest","moddate":"2013-04-21T00:00:00.000Z"},{"geonameid":667308,"name":"Sfântu Gheorghe","asciiname":"Sfantu Gheorghe","alternatenames":"Bodinu-Sfantul Gheorghe,Bodinu-Sfântul Gheorghe,Regele Mihai,Regele-Milhai I,Sfantu Gheorghe,Sfintu Gheorghe,Sfântu Gheorghe,Sfîntu Gheorghe","latitude":"44.2333300","longitude":"25.3666700","fclass":"P","fcode":"PPL","country":"RO","cc2":"RO","admin1":"35","admin2":"153026","admin3":"","admin4":"","population":0,"elevation":0,"gtopo30":107,"timezone":"Europe/Bucharest","moddate":"2020-03-08T00:00:00.000Z"}],"admin3":[],"alternateNames":[]},"__N_SSG":true}