{"pageProps":{"locale":"ro","admin2":{"geonameid":684079,"name":"Comuna Boteni","country":"RO","admin1":"03","admin2":"14673","admin3":"","latitude":"45.1793700","longitude":"25.1307300"},"admin1":{"geonameid":686192,"name":"Argeş","admin1":"03"},"locations":[{"geonameid":685737,"name":"Balabani","asciiname":"Balabani","alternatenames":"","latitude":"45.1644200","longitude":"25.1359800","fclass":"P","fcode":"PPL","country":"RO","cc2":"","admin1":"03","admin2":"14673","admin3":"","admin4":"","population":320,"elevation":0,"gtopo30":638,"timezone":"Europe/Bucharest","moddate":"2013-04-21T00:00:00.000Z"},{"geonameid":684083,"name":"Boteni","asciiname":"Boteni","alternatenames":"Boten,Boteni","latitude":"45.1833300","longitude":"25.1166700","fclass":"P","fcode":"PPLA2","country":"RO","cc2":"","admin1":"03","admin2":"14673","admin3":"","admin4":"","population":2733,"elevation":0,"gtopo30":543,"timezone":"Europe/Bucharest","moddate":"2012-06-12T00:00:00.000Z"},{"geonameid":674486,"name":"Lunca","asciiname":"Lunca","alternatenames":"","latitude":"45.1723800","longitude":"25.1264600","fclass":"P","fcode":"PPL","country":"RO","cc2":"","admin1":"03","admin2":"14673","admin3":"","admin4":"","population":594,"elevation":0,"gtopo30":520,"timezone":"Europe/Bucharest","moddate":"2013-04-21T00:00:00.000Z"},{"geonameid":673605,"name":"Melceşti","asciiname":"Melcesti","alternatenames":"","latitude":"45.1666700","longitude":"25.1333300","fclass":"P","fcode":"PPL","country":"RO","cc2":"","admin1":"03","admin2":"14673","admin3":"","admin4":"","population":0,"elevation":0,"gtopo30":594,"timezone":"Europe/Bucharest","moddate":"2016-02-07T00:00:00.000Z"},{"geonameid":673329,"name":"Milceşti","asciiname":"Milcesti","alternatenames":"","latitude":"45.1666700","longitude":"25.1333300","fclass":"P","fcode":"PPLX","country":"RO","cc2":"","admin1":"03","admin2":"14673","admin3":"","admin4":"","population":0,"elevation":0,"gtopo30":594,"timezone":"Europe/Bucharest","moddate":"2016-02-07T00:00:00.000Z"},{"geonameid":672592,"name":"Mușcel","asciiname":"Muscel","alternatenames":"","latitude":"45.2015200","longitude":"25.1326800","fclass":"P","fcode":"PPL","country":"RO","cc2":"","admin1":"03","admin2":"14673","admin3":"","admin4":"","population":108,"elevation":0,"gtopo30":575,"timezone":"Europe/Bucharest","moddate":"2013-04-21T00:00:00.000Z"}],"admin3":[],"alternateNames":[]},"__N_SSG":true}