{"pageProps":{"locale":"ro","admin2":{"geonameid":675422,"name":"Comuna Ivăneşti","country":"RO","admin1":"38","admin2":"164393","admin3":"","latitude":"46.6621600","longitude":"27.4446500"},"admin1":{"geonameid":663116,"name":"Vaslui","admin1":"38"},"locations":[{"geonameid":686533,"name":"Albina","asciiname":"Albina","alternatenames":"","latitude":"46.6590900","longitude":"27.3760000","fclass":"P","fcode":"PPL","country":"RO","cc2":"","admin1":"38","admin2":"164393","admin3":"","admin4":"","population":0,"elevation":0,"gtopo30":234,"timezone":"Europe/Bucharest","moddate":"2013-04-21T00:00:00.000Z"},{"geonameid":684581,"name":"Bleșca","asciiname":"Blesca","alternatenames":"","latitude":"46.6591300","longitude":"27.3971000","fclass":"P","fcode":"PPL","country":"RO","cc2":"","admin1":"38","admin2":"164393","admin3":"","admin4":"","population":410,"elevation":0,"gtopo30":181,"timezone":"Europe/Bucharest","moddate":"2013-04-21T00:00:00.000Z"},{"geonameid":683639,"name":"Broșteni","asciiname":"Brosteni","alternatenames":"","latitude":"46.6365700","longitude":"27.4933000","fclass":"P","fcode":"PPL","country":"RO","cc2":"","admin1":"38","admin2":"164393","admin3":"","admin4":"","population":400,"elevation":0,"gtopo30":150,"timezone":"Europe/Bucharest","moddate":"2013-04-21T00:00:00.000Z"},{"geonameid":683191,"name":"Buscata","asciiname":"Buscata","alternatenames":"","latitude":"46.6347700","longitude":"27.4170900","fclass":"P","fcode":"PPL","country":"RO","cc2":"","admin1":"38","admin2":"164393","admin3":"","admin4":"","population":156,"elevation":0,"gtopo30":238,"timezone":"Europe/Bucharest","moddate":"2013-04-21T00:00:00.000Z"},{"geonameid":680658,"name":"Coşca","asciiname":"Cosca","alternatenames":"Cosca,Coşca,Fundatura-Cosca,Fundătura-Coşca","latitude":"46.6821900","longitude":"27.4734600","fclass":"P","fcode":"PPL","country":"RO","cc2":"RO","admin1":"38","admin2":"164393","admin3":"","admin4":"","population":0,"elevation":0,"gtopo30":215,"timezone":"Europe/Bucharest","moddate":"2016-02-07T00:00:00.000Z"},{"geonameid":680643,"name":"Coșești","asciiname":"Cosesti","alternatenames":"","latitude":"46.6748800","longitude":"27.4532000","fclass":"P","fcode":"PPL","country":"RO","cc2":"","admin1":"38","admin2":"164393","admin3":"","admin4":"","population":240,"elevation":0,"gtopo30":179,"timezone":"Europe/Bucharest","moddate":"2016-01-07T00:00:00.000Z"},{"geonameid":677825,"name":"Fundătura Mare","asciiname":"Fundatura Mare","alternatenames":"","latitude":"46.7044600","longitude":"27.4484300","fclass":"P","fcode":"PPL","country":"RO","cc2":"","admin1":"38","admin2":"164393","admin3":"","admin4":"","population":138,"elevation":0,"gtopo30":278,"timezone":"Europe/Bucharest","moddate":"2016-01-07T00:00:00.000Z"},{"geonameid":11002925,"name":"Fundătura Mică","asciiname":"Fundatura Mica","alternatenames":"","latitude":"46.7047200","longitude":"27.4356100","fclass":"P","fcode":"PPL","country":"RO","cc2":"","admin1":"38","admin2":"164393","admin3":"","admin4":"","population":58,"elevation":0,"gtopo30":319,"timezone":"Europe/Bucharest","moddate":"2016-01-07T00:00:00.000Z"},{"geonameid":676159,"name":"Hârșoveni","asciiname":"Harsoveni","alternatenames":"Hirsoveni,Hîrșoveni","latitude":"46.6500000","longitude":"27.5000000","fclass":"P","fcode":"PPL","country":"RO","cc2":"","admin1":"38","admin2":"164393","admin3":"","admin4":"","population":169,"elevation":0,"gtopo30":194,"timezone":"Europe/Bucharest","moddate":"2016-01-07T00:00:00.000Z"},{"geonameid":675716,"name":"Iezerel","asciiname":"Iezerel","alternatenames":"Ezerel,Ezerelu,Iezerel","latitude":"46.6516800","longitude":"27.4233000","fclass":"P","fcode":"PPL","country":"RO","cc2":"RO","admin1":"38","admin2":"164393","admin3":"","admin4":"","population":105,"elevation":0,"gtopo30":173,"timezone":"Europe/Bucharest","moddate":"2013-04-21T00:00:00.000Z"},{"geonameid":675427,"name":"Ivănești","asciiname":"Ivanesti","alternatenames":"Balica,Chilia,Golgofta,Gologofta,Ivanesti,Ivăneşti,Valea Canepei,Valea Cinepei,Valea Cânepei,Valea Cînepei","latitude":"46.6348100","longitude":"27.4604800","fclass":"P","fcode":"PPLA2","country":"RO","cc2":"RO","admin1":"38","admin2":"164393","admin3":"","admin4":"","population":1308,"elevation":0,"gtopo30":177,"timezone":"Europe/Bucharest","moddate":"2013-04-21T00:00:00.000Z"},{"geonameid":664093,"name":"Ursoaia","asciiname":"Ursoaia","alternatenames":"","latitude":"46.6504100","longitude":"27.4042400","fclass":"P","fcode":"PPL","country":"RO","cc2":"","admin1":"38","admin2":"164393","admin3":"","admin4":"","population":288,"elevation":0,"gtopo30":197,"timezone":"Europe/Bucharest","moddate":"2013-04-20T00:00:00.000Z"},{"geonameid":663615,"name":"Valea Mare","asciiname":"Valea Mare","alternatenames":"","latitude":"46.6634900","longitude":"27.4903400","fclass":"P","fcode":"PPL","country":"RO","cc2":"","admin1":"38","admin2":"164393","admin3":"","admin4":"","population":458,"elevation":0,"gtopo30":166,"timezone":"Europe/Bucharest","moddate":"2013-04-20T00:00:00.000Z"},{"geonameid":663543,"name":"Valea Oanei","asciiname":"Valea Oanei","alternatenames":"","latitude":"46.6698300","longitude":"27.4310000","fclass":"P","fcode":"PPL","country":"RO","cc2":"","admin1":"38","admin2":"164393","admin3":"","admin4":"","population":264,"elevation":0,"gtopo30":177,"timezone":"Europe/Bucharest","moddate":"2013-04-20T00:00:00.000Z"}],"admin3":[],"alternateNames":[]},"__N_SSG":true}