{"pageProps":{"locale":"ro","admin2":{"geonameid":683327,"name":"Comuna Bulbucata","country":"RO","admin1":"42","admin2":"101519","admin3":"","latitude":"44.2953700","longitude":"25.8228400"},"admin1":{"geonameid":677104,"name":"Giurgiu","admin1":"42"},"locations":[{"geonameid":683328,"name":"Bulbucata","asciiname":"Bulbucata","alternatenames":"Bulbucata","latitude":"44.2833300","longitude":"25.8033300","fclass":"P","fcode":"PPLA2","country":"RO","cc2":"","admin1":"42","admin2":"101519","admin3":"","admin4":"","population":1682,"elevation":0,"gtopo30":71,"timezone":"Europe/Bucharest","moddate":"2012-06-12T00:00:00.000Z"},{"geonameid":680515,"name":"Coteni","asciiname":"Coteni","alternatenames":"Coleni,Coteni","latitude":"44.3103000","longitude":"25.8326600","fclass":"P","fcode":"PPL","country":"RO","cc2":"RO","admin1":"42","admin2":"101519","admin3":"","admin4":"","population":24,"elevation":0,"gtopo30":82,"timezone":"Europe/Bucharest","moddate":"2013-04-21T00:00:00.000Z"},{"geonameid":678507,"name":"Făcău","asciiname":"Facau","alternatenames":"","latitude":"44.2927100","longitude":"25.8326200","fclass":"P","fcode":"PPL","country":"RO","cc2":"","admin1":"42","admin2":"101519","admin3":"","admin4":"","population":200,"elevation":0,"gtopo30":72,"timezone":"Europe/Bucharest","moddate":"2013-04-21T00:00:00.000Z"},{"geonameid":665333,"name":"Teișori","asciiname":"Teisori","alternatenames":"Gaureni,Găureni,Teisori,Teişori","latitude":"44.2939700","longitude":"25.8172200","fclass":"P","fcode":"PPL","country":"RO","cc2":"RO","admin1":"42","admin2":"101519","admin3":"","admin4":"","population":477,"elevation":0,"gtopo30":76,"timezone":"Europe/Bucharest","moddate":"2013-04-21T00:00:00.000Z"},{"geonameid":663076,"name":"Velea","asciiname":"Velea","alternatenames":"","latitude":"44.2833300","longitude":"25.8166700","fclass":"P","fcode":"PPL","country":"RO","cc2":"","admin1":"42","admin2":"101519","admin3":"","admin4":"","population":0,"elevation":0,"gtopo30":68,"timezone":"Europe/Bucharest","moddate":"2016-02-07T00:00:00.000Z"}],"admin3":[],"alternateNames":[]},"__N_SSG":true}