{"pageProps":{"locale":"ro","admin2":{"geonameid":683432,"name":"Oraş Budeşti","country":"RO","admin1":"41","admin2":"101458","admin3":"","latitude":"44.2476600","longitude":"26.4509900"},"admin1":{"geonameid":683016,"name":"Călăraşi","admin1":"41"},"locations":[{"geonameid":686259,"name":"Aprozi","asciiname":"Aprozi","alternatenames":"","latitude":"44.2661600","longitude":"26.5021300","fclass":"P","fcode":"PPL","country":"RO","cc2":"","admin1":"41","admin2":"101458","admin3":"","admin4":"","population":1264,"elevation":0,"gtopo30":39,"timezone":"Europe/Bucharest","moddate":"2013-04-21T00:00:00.000Z"},{"geonameid":683569,"name":"Buciumeni","asciiname":"Buciumeni","alternatenames":"","latitude":"44.2545800","longitude":"26.4163600","fclass":"P","fcode":"PPL","country":"RO","cc2":"","admin1":"41","admin2":"101458","admin3":"","admin4":"","population":715,"elevation":0,"gtopo30":50,"timezone":"Europe/Bucharest","moddate":"2013-04-21T00:00:00.000Z"},{"geonameid":683447,"name":"Budeşti","asciiname":"Budesti","alternatenames":"Budesti,Budeşti","latitude":"44.2347200","longitude":"26.4658300","fclass":"P","fcode":"PPLA2","country":"RO","cc2":"","admin1":"41","admin2":"101458","admin3":"","admin4":"","population":9598,"elevation":0,"gtopo30":32,"timezone":"Europe/Bucharest","moddate":"2012-06-12T00:00:00.000Z"},{"geonameid":676619,"name":"Gruiu","asciiname":"Gruiu","alternatenames":"Gruiu,Gruiul","latitude":"44.2327400","longitude":"26.4182000","fclass":"P","fcode":"PPL","country":"RO","cc2":"RO","admin1":"41","admin2":"101458","admin3":"","admin4":"","population":932,"elevation":0,"gtopo30":37,"timezone":"Europe/Bucharest","moddate":"2013-04-21T00:00:00.000Z"},{"geonameid":675109,"name":"Lacu Cocorului","asciiname":"Lacu Cocorului","alternatenames":"Lacu Cocorului","latitude":"44.2833300","longitude":"26.5666700","fclass":"P","fcode":"PPLX","country":"RO","cc2":"","admin1":"41","admin2":"101458","admin3":"","admin4":"","population":0,"elevation":0,"gtopo30":43,"timezone":"Europe/Bucharest","moddate":"2018-07-04T00:00:00.000Z"}],"admin3":[],"alternateNames":[]},"__N_SSG":true}