{"pageProps":{"locale":"ro","admin2":{"geonameid":682279,"name":"Comuna Ceru-Băcăinţi","country":"RO","admin1":"01","admin2":"3841","admin3":"","latitude":"46.0011700","longitude":"23.2698300"},"admin1":{"geonameid":686581,"name":"Alba","admin1":"01"},"locations":[{"geonameid":684259,"name":"Bolovănești","asciiname":"Bolovanesti","alternatenames":"","latitude":"45.9997000","longitude":"23.2550600","fclass":"P","fcode":"PPL","country":"RO","cc2":"","admin1":"01","admin2":"3841","admin3":"","admin4":"","population":26,"elevation":0,"gtopo30":473,"timezone":"Europe/Bucharest","moddate":"2013-04-21T00:00:00.000Z"},{"geonameid":683330,"name":"Bulbuc","asciiname":"Bulbuc","alternatenames":"","latitude":"46.0210700","longitude":"23.2945400","fclass":"P","fcode":"PPL","country":"RO","cc2":"","admin1":"01","admin2":"3841","admin3":"","admin4":"","population":51,"elevation":0,"gtopo30":744,"timezone":"Europe/Bucharest","moddate":"2013-04-21T00:00:00.000Z"},{"geonameid":682280,"name":"Ceru-Băcăinţi","asciiname":"Ceru-Bacainti","alternatenames":"Ceru-Bacainti,Ceru-Băcăinţi,Cerul-Bacainti,Cerul-Băcăinţi","latitude":"45.9833300","longitude":"23.2500000","fclass":"P","fcode":"PPLA2","country":"RO","cc2":"","admin1":"01","admin2":"3841","admin3":"","admin4":"","population":367,"elevation":0,"gtopo30":520,"timezone":"Europe/Bucharest","moddate":"2012-06-12T00:00:00.000Z"},{"geonameid":681321,"name":"Clisoasa","asciiname":"Clisoasa","alternatenames":"","latitude":"45.9833300","longitude":"23.2666700","fclass":"P","fcode":"PPL","country":"RO","cc2":"","admin1":"01","admin2":"3841","admin3":"","admin4":"","population":0,"elevation":0,"gtopo30":352,"timezone":"Europe/Bucharest","moddate":"2016-02-07T00:00:00.000Z"},{"geonameid":680010,"name":"Cucuta","asciiname":"Cucuta","alternatenames":"","latitude":"45.9893800","longitude":"23.2575100","fclass":"P","fcode":"PPL","country":"RO","cc2":"","admin1":"01","admin2":"3841","admin3":"","admin4":"","population":68,"elevation":0,"gtopo30":355,"timezone":"Europe/Bucharest","moddate":"2013-04-21T00:00:00.000Z"},{"geonameid":679918,"name":"Curpeni","asciiname":"Curpeni","alternatenames":"","latitude":"45.9845700","longitude":"23.2824600","fclass":"P","fcode":"PPL","country":"RO","cc2":"","admin1":"01","admin2":"3841","admin3":"","admin4":"","population":54,"elevation":0,"gtopo30":359,"timezone":"Europe/Bucharest","moddate":"2013-04-21T00:00:00.000Z"},{"geonameid":678686,"name":"Dumbrăvița","asciiname":"Dumbravita","alternatenames":"","latitude":"45.9828800","longitude":"23.2662800","fclass":"P","fcode":"PPL","country":"RO","cc2":"","admin1":"01","admin2":"3841","admin3":"","admin4":"","population":56,"elevation":0,"gtopo30":330,"timezone":"Europe/Bucharest","moddate":"2013-04-21T00:00:00.000Z"},{"geonameid":678163,"name":"Fântânele","asciiname":"Fantanele","alternatenames":"Ciungi,Fintinele,Fîntînele","latitude":"46.0289400","longitude":"23.2687300","fclass":"P","fcode":"PPL","country":"RO","cc2":"RO","admin1":"01","admin2":"3841","admin3":"","admin4":"","population":45,"elevation":0,"gtopo30":556,"timezone":"Europe/Bucharest","moddate":"2013-04-21T00:00:00.000Z"},{"geonameid":677297,"name":"Ghozuri","asciiname":"Ghozuri","alternatenames":"","latitude":"45.9833300","longitude":"23.2833300","fclass":"P","fcode":"PPLX","country":"RO","cc2":"","admin1":"01","admin2":"3841","admin3":"","admin4":"","population":0,"elevation":0,"gtopo30":369,"timezone":"Europe/Bucharest","moddate":"2016-02-07T00:00:00.000Z"},{"geonameid":676656,"name":"Groși","asciiname":"Grosi","alternatenames":"","latitude":"46.0058800","longitude":"23.2462900","fclass":"P","fcode":"PPL","country":"RO","cc2":"","admin1":"01","admin2":"3841","admin3":"","admin4":"","population":47,"elevation":0,"gtopo30":548,"timezone":"Europe/Bucharest","moddate":"2013-04-21T00:00:00.000Z"},{"geonameid":663622,"name":"Valea Mare","asciiname":"Valea Mare","alternatenames":"","latitude":"46.0221100","longitude":"23.2607100","fclass":"P","fcode":"PPL","country":"RO","cc2":"","admin1":"01","admin2":"3841","admin3":"","admin4":"","population":42,"elevation":0,"gtopo30":497,"timezone":"Europe/Bucharest","moddate":"2013-04-20T00:00:00.000Z"},{"geonameid":663005,"name":"Viezuri","asciiname":"Viezuri","alternatenames":"Iezuri,Vezuri","latitude":"46.0000000","longitude":"23.3000000","fclass":"P","fcode":"PPL","country":"RO","cc2":"","admin1":"01","admin2":"3841","admin3":"","admin4":"","population":5,"elevation":0,"gtopo30":676,"timezone":"Europe/Bucharest","moddate":"2015-11-08T00:00:00.000Z"}],"admin3":[],"alternateNames":[]},"__N_SSG":true}