{"pageProps":{"locale":"ro","admin2":{"geonameid":685704,"name":"Comuna Bălan","country":"RO","admin1":"31","admin2":"140146","admin3":"","latitude":"47.1576800","longitude":"23.3118700"},"admin1":{"geonameid":668248,"name":"Sălaj","admin1":"31"},"locations":[{"geonameid":685706,"name":"Bălan","asciiname":"Balan","alternatenames":"Balan,Bălan","latitude":"47.1559900","longitude":"23.3121300","fclass":"P","fcode":"PPLA2","country":"RO","cc2":"","admin1":"31","admin2":"140146","admin3":"","admin4":"","population":4050,"elevation":0,"gtopo30":221,"timezone":"Europe/Bucharest","moddate":"2012-06-12T00:00:00.000Z"},{"geonameid":682227,"name":"Chechiș","asciiname":"Chechis","alternatenames":"","latitude":"47.1748100","longitude":"23.3099600","fclass":"P","fcode":"PPL","country":"RO","cc2":"","admin1":"31","admin2":"140146","admin3":"","admin4":"","population":705,"elevation":0,"gtopo30":211,"timezone":"Europe/Bucharest","moddate":"2013-04-21T00:00:00.000Z"},{"geonameid":682205,"name":"Chendrea","asciiname":"Chendrea","alternatenames":"","latitude":"47.1223600","longitude":"23.2990400","fclass":"P","fcode":"PPL","country":"RO","cc2":"","admin1":"31","admin2":"140146","admin3":"","admin4":"","population":1001,"elevation":0,"gtopo30":223,"timezone":"Europe/Bucharest","moddate":"2013-04-21T00:00:00.000Z"},{"geonameid":677270,"name":"Gâlgău Almaşului","asciiname":"Galgau Almasului","alternatenames":"Galgau,Galgau Almasului,Gilgau,Gilgau Almasului,Gâlgău,Gâlgău Almaşului,Gîlgău,Gîlgău Almaşului","latitude":"47.2000000","longitude":"23.3333300","fclass":"P","fcode":"PPL","country":"RO","cc2":"","admin1":"31","admin2":"140146","admin3":"","admin4":"","population":2718,"elevation":0,"gtopo30":271,"timezone":"Europe/Bucharest","moddate":"2020-03-08T00:00:00.000Z"},{"geonameid":677263,"name":"Gâlpâia","asciiname":"Galpaia","alternatenames":"Galpaia,Gilpiia,Gâlpâia,Gîlpîia","latitude":"47.1333300","longitude":"23.2666700","fclass":"P","fcode":"PPL","country":"RO","cc2":"RO","admin1":"31","admin2":"140146","admin3":"","admin4":"","population":0,"elevation":0,"gtopo30":297,"timezone":"Europe/Bucharest","moddate":"2020-03-08T00:00:00.000Z"}],"admin3":[],"alternateNames":[]},"__N_SSG":true}