{"pageProps":{"locale":"ro","admin2":{"geonameid":670371,"name":"Comuna Poboru","country":"RO","admin1":"29","admin2":"128301","admin3":"","latitude":"44.6833500","longitude":"24.4867800"},"admin1":{"geonameid":671857,"name":"Olt","admin1":"29"},"locations":[{"geonameid":686564,"name":"Albești","asciiname":"Albesti","alternatenames":"","latitude":"44.6892900","longitude":"24.4606200","fclass":"P","fcode":"PPL","country":"RO","cc2":"","admin1":"29","admin2":"128301","admin3":"","admin4":"","population":590,"elevation":0,"gtopo30":296,"timezone":"Europe/Bucharest","moddate":"2013-04-21T00:00:00.000Z"},{"geonameid":680794,"name":"Cornățelu","asciiname":"Cornatelu","alternatenames":"Cornatel,Cornatelu,Cornatelul,Cornetelu,Corneţelu,Cornăţel,Cornăţelu,Cornăţelul","latitude":"44.6846100","longitude":"24.4705300","fclass":"P","fcode":"PPL","country":"RO","cc2":"RO","admin1":"29","admin2":"128301","admin3":"","admin4":"","population":607,"elevation":0,"gtopo30":291,"timezone":"Europe/Bucharest","moddate":"2013-04-21T00:00:00.000Z"},{"geonameid":680267,"name":"Creți","asciiname":"Creti","alternatenames":"","latitude":"44.6841600","longitude":"24.5115300","fclass":"P","fcode":"PPL","country":"RO","cc2":"","admin1":"29","admin2":"128301","admin3":"","admin4":"","population":261,"elevation":0,"gtopo30":283,"timezone":"Europe/Bucharest","moddate":"2013-04-21T00:00:00.000Z"},{"geonameid":674759,"name":"Linia Mare","asciiname":"Linia Mare","alternatenames":"","latitude":"44.6666700","longitude":"24.4500000","fclass":"P","fcode":"PPL","country":"RO","cc2":"","admin1":"29","admin2":"128301","admin3":"","admin4":"","population":0,"elevation":0,"gtopo30":291,"timezone":"Europe/Bucharest","moddate":"2016-02-07T00:00:00.000Z"},{"geonameid":670372,"name":"Poboru","asciiname":"Poboru","alternatenames":"Poboru,Poborul","latitude":"44.6666700","longitude":"24.5000000","fclass":"P","fcode":"PPLA2","country":"RO","cc2":"","admin1":"29","admin2":"128301","admin3":"","admin4":"","population":2367,"elevation":0,"gtopo30":279,"timezone":"Europe/Bucharest","moddate":"2012-06-12T00:00:00.000Z"},{"geonameid":668918,"name":"Richiţeni","asciiname":"Richiteni","alternatenames":"","latitude":"44.6666700","longitude":"24.5166700","fclass":"P","fcode":"PPL","country":"RO","cc2":"","admin1":"29","admin2":"128301","admin3":"","admin4":"","population":0,"elevation":0,"gtopo30":277,"timezone":"Europe/Bucharest","moddate":"2016-02-07T00:00:00.000Z"},{"geonameid":667544,"name":"Seaca","asciiname":"Seaca","alternatenames":"","latitude":"44.7120500","longitude":"24.4510700","fclass":"P","fcode":"PPL","country":"RO","cc2":"","admin1":"29","admin2":"128301","admin3":"","admin4":"","population":284,"elevation":0,"gtopo30":306,"timezone":"Europe/Bucharest","moddate":"2013-04-21T00:00:00.000Z"},{"geonameid":665714,"name":"Surpeni","asciiname":"Surpeni","alternatenames":"Surpeni,Surpenii","latitude":"44.6693400","longitude":"24.5317600","fclass":"P","fcode":"PPL","country":"RO","cc2":"RO","admin1":"29","admin2":"128301","admin3":"","admin4":"","population":82,"elevation":0,"gtopo30":282,"timezone":"Europe/Bucharest","moddate":"2013-04-21T00:00:00.000Z"},{"geonameid":663405,"name":"Valea Secii","asciiname":"Valea Secii","alternatenames":"","latitude":"44.7000000","longitude":"24.4666700","fclass":"P","fcode":"PPL","country":"RO","cc2":"","admin1":"29","admin2":"128301","admin3":"","admin4":"","population":0,"elevation":0,"gtopo30":299,"timezone":"Europe/Bucharest","moddate":"2016-02-07T00:00:00.000Z"}],"admin3":[],"alternateNames":[]},"__N_SSG":true}