{"pageProps":{"locale":"ro","admin2":{"geonameid":8334876,"name":"Oraş Haţeg","country":"RO","admin1":"21","admin2":"87576","admin3":"","latitude":"45.6251200","longitude":"22.9227500"},"admin1":{"geonameid":675917,"name":"Hunedoara","admin1":"21"},"locations":[{"geonameid":676277,"name":"Haţeg","asciiname":"Hateg","alternatenames":"Hateg,Hatszeg,Haţeg,Hotzing,Hátszeg,Hötzing","latitude":"45.6166700","longitude":"22.9500000","fclass":"P","fcode":"PPLA2","country":"RO","cc2":"","admin1":"21","admin2":"87576","admin3":"","admin4":"","population":10865,"elevation":0,"gtopo30":339,"timezone":"Europe/Bucharest","moddate":"2014-06-04T00:00:00.000Z"},{"geonameid":672533,"name":"Nălațvad","asciiname":"Nalatvad","alternatenames":"Nalativad,Nalatvad,Nalaţivad,Nălatvad","latitude":"45.5902400","longitude":"22.9302600","fclass":"P","fcode":"PPL","country":"RO","cc2":"RO","admin1":"21","admin2":"87576","admin3":"","admin4":"","population":305,"elevation":0,"gtopo30":331,"timezone":"Europe/Bucharest","moddate":"2013-04-21T00:00:00.000Z"},{"geonameid":667150,"name":"Silvașu de Jos","asciiname":"Silvasu de Jos","alternatenames":"Silvasu Inferior,Silvasu de Jos,Silvasul Inferior,Silvaşu Inferior,Silvaşu de Jos,Silvaşul Inferior","latitude":"45.6527400","longitude":"22.9278800","fclass":"P","fcode":"PPL","country":"RO","cc2":"RO","admin1":"21","admin2":"87576","admin3":"","admin4":"","population":490,"elevation":0,"gtopo30":367,"timezone":"Europe/Bucharest","moddate":"2013-04-21T00:00:00.000Z"},{"geonameid":667149,"name":"Silvașu de Sus","asciiname":"Silvasu de Sus","alternatenames":"Silvasu de Sus,Silvasul-Superior,Silvaşu de Sus,Silvaşul-Superior,Sulvasu Superior,Sulvaşu Superior","latitude":"45.6477400","longitude":"22.8843100","fclass":"P","fcode":"PPL","country":"RO","cc2":"RO","admin1":"21","admin2":"87576","admin3":"","admin4":"","population":428,"elevation":0,"gtopo30":438,"timezone":"Europe/Bucharest","moddate":"2013-04-21T00:00:00.000Z"},{"geonameid":663341,"name":"Valea Ungurului","asciiname":"Valea Ungurului","alternatenames":"Valea Ungurului","latitude":"45.6166700","longitude":"22.9500000","fclass":"P","fcode":"PPLX","country":"RO","cc2":"","admin1":"21","admin2":"87576","admin3":"","admin4":"","population":0,"elevation":0,"gtopo30":339,"timezone":"Europe/Bucharest","moddate":"2018-07-04T00:00:00.000Z"}],"admin3":[],"alternateNames":[]},"__N_SSG":true}