{"pageProps":{"locale":"ro","admin2":{"geonameid":670109,"name":"Comuna Poiana","country":"RO","admin1":"18","admin2":"77587","admin3":"","latitude":"45.9955400","longitude":"27.2669300"},"admin1":{"geonameid":677692,"name":"Galaţi","admin1":"18"},"locations":[{"geonameid":679433,"name":"Diaconi","asciiname":"Diaconi","alternatenames":"Diacona,Diaconi","latitude":"46.0000000","longitude":"27.2666700","fclass":"P","fcode":"PPL","country":"RO","cc2":"","admin1":"18","admin2":"77587","admin3":"","admin4":"","population":0,"elevation":0,"gtopo30":265,"timezone":"Europe/Bucharest","moddate":"2016-02-07T00:00:00.000Z"},{"geonameid":675934,"name":"Huleşti","asciiname":"Hulesti","alternatenames":"Hulesti,Hulestii,Huleşti,Huleştii","latitude":"45.9833300","longitude":"27.2500000","fclass":"P","fcode":"PPL","country":"RO","cc2":"","admin1":"18","admin2":"77587","admin3":"","admin4":"","population":0,"elevation":0,"gtopo30":249,"timezone":"Europe/Bucharest","moddate":"2016-02-07T00:00:00.000Z"},{"geonameid":670146,"name":"Poiana","asciiname":"Poiana","alternatenames":"","latitude":"45.9922800","longitude":"27.2560900","fclass":"P","fcode":"PPLA2","country":"RO","cc2":"","admin1":"18","admin2":"77587","admin3":"","admin4":"","population":1453,"elevation":0,"gtopo30":288,"timezone":"Europe/Bucharest","moddate":"2013-04-21T00:00:00.000Z"},{"geonameid":10942602,"name":"Vișina","asciiname":"Visina","alternatenames":"","latitude":"45.9981200","longitude":"27.2739100","fclass":"P","fcode":"PPL","country":"RO","cc2":"","admin1":"18","admin2":"77587","admin3":"","admin4":"","population":458,"elevation":0,"gtopo30":268,"timezone":"Europe/Bucharest","moddate":"2015-11-27T00:00:00.000Z"}],"admin3":[],"alternateNames":[]},"__N_SSG":true}