{"pageProps":{"locale":"ro","admin2":{"geonameid":662784,"name":"Comuna Vârciorog","country":"RO","admin1":"05","admin2":"32090","admin3":"","latitude":"46.9655100","longitude":"22.2968100"},"admin1":{"geonameid":684878,"name":"Bihor","admin1":"05"},"locations":[{"geonameid":678110,"name":"Fâșca","asciiname":"Fasca","alternatenames":"Fancica,Fisca,Fîşca,Făncica,Varfancsika,Várfancsika","latitude":"46.9833300","longitude":"22.3333300","fclass":"P","fcode":"PPL","country":"RO","cc2":"","admin1":"05","admin2":"32090","admin3":"","admin4":"","population":486,"elevation":0,"gtopo30":390,"timezone":"Europe/Bucharest","moddate":"2015-12-21T00:00:00.000Z"},{"geonameid":670084,"name":"Poiana Fâşca","asciiname":"Poiana Fasca","alternatenames":"Poiana Fasca,Poiana Fisca,Poiana Fâşca,Poiana Fîşca","latitude":"46.9833300","longitude":"22.3333300","fclass":"P","fcode":"PPLX","country":"RO","cc2":"","admin1":"05","admin2":"32090","admin3":"","admin4":"","population":0,"elevation":0,"gtopo30":390,"timezone":"Europe/Bucharest","moddate":"2020-03-08T00:00:00.000Z"},{"geonameid":670024,"name":"Poiana Surduc","asciiname":"Poiana Surduc","alternatenames":"","latitude":"46.9833300","longitude":"22.2500000","fclass":"P","fcode":"PPLX","country":"RO","cc2":"","admin1":"05","admin2":"32090","admin3":"","admin4":"","population":0,"elevation":0,"gtopo30":271,"timezone":"Europe/Bucharest","moddate":"2016-02-07T00:00:00.000Z"},{"geonameid":667338,"name":"Șerghiș","asciiname":"Serghis","alternatenames":"","latitude":"46.9804000","longitude":"22.2399800","fclass":"P","fcode":"PPL","country":"RO","cc2":"","admin1":"05","admin2":"32090","admin3":"","admin4":"","population":713,"elevation":0,"gtopo30":251,"timezone":"Europe/Bucharest","moddate":"2013-04-21T00:00:00.000Z"},{"geonameid":665726,"name":"Surducel","asciiname":"Surducel","alternatenames":"","latitude":"46.9275400","longitude":"22.3336900","fclass":"P","fcode":"PPL","country":"RO","cc2":"","admin1":"05","admin2":"32090","admin3":"","admin4":"","population":47,"elevation":0,"gtopo30":482,"timezone":"Europe/Bucharest","moddate":"2013-04-21T00:00:00.000Z"},{"geonameid":662785,"name":"Vârciorog","asciiname":"Varciorog","alternatenames":"Varciorog,Virciorog,Vârciorog,Vîrciorog","latitude":"46.9666700","longitude":"22.3000000","fclass":"P","fcode":"PPLA2","country":"RO","cc2":"","admin1":"05","admin2":"32090","admin3":"","admin4":"","population":2314,"elevation":0,"gtopo30":379,"timezone":"Europe/Bucharest","moddate":"2012-06-12T00:00:00.000Z"}],"admin3":[],"alternateNames":[]},"__N_SSG":true}