{"pageProps":{"locale":"en","capitals":[{"geonameid":2643743,"name":"London","admin1":"ENG","country":"GB","latitude":"51.5085300","longitude":"-0.1257400","fcode":"PPLC","localeAltName":null},{"geonameid":2950159,"name":"Berlin","admin1":"16","country":"DE","latitude":"52.5243700","longitude":"13.4105300","fcode":"PPLC","localeAltName":null},{"geonameid":3169070,"name":"Rome","admin1":"07","country":"IT","latitude":"41.8919300","longitude":"12.5113300","fcode":"PPLC","localeAltName":null},{"geonameid":683506,"name":"Bucharest","admin1":"10","country":"RO","latitude":"44.4322500","longitude":"26.1062600","fcode":"PPLC","localeAltName":null},{"geonameid":6094817,"name":"Ottawa","admin1":"08","country":"CA","latitude":"45.4111700","longitude":"-75.6981200","fcode":"PPLC","localeAltName":null},{"geonameid":2759794,"name":"Amsterdam","admin1":"07","country":"NL","latitude":"52.3740300","longitude":"4.8896900","fcode":"PPLC","localeAltName":null},{"geonameid":4140963,"name":"Washington","admin1":"DC","country":"US","latitude":"38.8951100","longitude":"-77.0363700","fcode":"PPLC","localeAltName":null},{"geonameid":2661552,"name":"Bern","admin1":"BE","country":"CH","latitude":"46.9480900","longitude":"7.4474400","fcode":"PPLC","localeAltName":"Bern"}],"admin1Places":[{"geonameid":2953481,"name":"Baden-Württemberg","admin1":"01","country":"DE","localeAltName":null},{"geonameid":2756631,"name":"Provincie Drenthe","admin1":"01","country":"NL","localeAltName":null},{"geonameid":3183560,"name":"Abruzzo","admin1":"01","country":"IT","localeAltName":null},{"geonameid":5883102,"name":"Alberta","admin1":"01","country":"CA","localeAltName":null},{"geonameid":686581,"name":"Alba","admin1":"01","country":"RO","localeAltName":null},{"geonameid":5909050,"name":"British Columbia","admin1":"02","country":"CA","localeAltName":null},{"geonameid":2951839,"name":"Bavaria","admin1":"02","country":"DE","localeAltName":"Bavaria"},{"geonameid":686253,"name":"Arad","admin1":"02","country":"RO","localeAltName":null},{"geonameid":3182306,"name":"Basilicata","admin1":"02","country":"IT","localeAltName":null},{"geonameid":2755812,"name":"Provincie Friesland","admin1":"02","country":"NL","localeAltName":null},{"geonameid":6065171,"name":"Manitoba","admin1":"03","country":"CA","localeAltName":null},{"geonameid":2525468,"name":"Calabria","admin1":"03","country":"IT","localeAltName":null},{"geonameid":2755634,"name":"Provincie Gelderland","admin1":"03","country":"NL","localeAltName":null},{"geonameid":686192,"name":"Argeş","admin1":"03","country":"RO","localeAltName":null},{"geonameid":2944387,"name":"Bremen","admin1":"03","country":"DE","localeAltName":null},{"geonameid":6087430,"name":"New Brunswick/Nouveau-Brunswick","admin1":"04","country":"CA","localeAltName":null},{"geonameid":2911297,"name":"Free and Hanseatic City of Hamburg","admin1":"04","country":"DE","localeAltName":null},{"geonameid":685947,"name":"Bacău","admin1":"04","country":"RO","localeAltName":null},{"geonameid":2755249,"name":"Provincie Groningen","admin1":"04","country":"NL","localeAltName":null},{"geonameid":3181042,"name":"Campania","admin1":"04","country":"IT","localeAltName":null},{"geonameid":6354959,"name":"Newfoundland and Labrador","admin1":"05","country":"CA","localeAltName":null},{"geonameid":684878,"name":"Bihor","admin1":"05","country":"RO","localeAltName":null},{"geonameid":2751596,"name":"Provincie Limburg","admin1":"05","country":"NL","localeAltName":"Limburg"},{"geonameid":3177401,"name":"Emilia-Romagna","admin1":"05","country":"IT","localeAltName":null},{"geonameid":2905330,"name":"Hessen","admin1":"05","country":"DE","localeAltName":null},{"geonameid":2749990,"name":"Provincie Noord-Brabant","admin1":"06","country":"NL","localeAltName":null},{"geonameid":3176525,"name":"Friuli Venezia Giulia","admin1":"06","country":"IT","localeAltName":null},{"geonameid":2862926,"name":"Lower Saxony","admin1":"06","country":"DE","localeAltName":null},{"geonameid":684647,"name":"Bistriţa-Năsăud","admin1":"06","country":"RO","localeAltName":null},{"geonameid":684038,"name":"Botoşani","admin1":"07","country":"RO","localeAltName":null},{"geonameid":6091530,"name":"Nova Scotia","admin1":"07","country":"CA","localeAltName":null},{"geonameid":2861876,"name":"Nordrhein-Westfalen","admin1":"07","country":"DE","localeAltName":null},{"geonameid":3174976,"name":"Lazio","admin1":"07","country":"IT","localeAltName":null},{"geonameid":2749879,"name":"Provincie Noord-Holland","admin1":"07","country":"NL","localeAltName":null},{"geonameid":3174725,"name":"Liguria","admin1":"08","country":"IT","localeAltName":"Liguria"},{"geonameid":6093943,"name":"Ontario","admin1":"08","country":"CA","localeAltName":null},{"geonameid":683901,"name":"Brăila","admin1":"08","country":"RO","localeAltName":null},{"geonameid":2847618,"name":"Rheinland-Pfalz","admin1":"08","country":"DE","localeAltName":null},{"geonameid":2842635,"name":"Saarland","admin1":"09","country":"DE","localeAltName":null},{"geonameid":2745909,"name":"Provincie Utrecht","admin1":"09","country":"NL","localeAltName":null},{"geonameid":683843,"name":"Braşov","admin1":"09","country":"RO","localeAltName":null},{"geonameid":6113358,"name":"Prince Edward Island","admin1":"09","country":"CA","localeAltName":null},{"geonameid":3174618,"name":"Lombardia","admin1":"09","country":"IT","localeAltName":null},{"geonameid":2838632,"name":"Schleswig-Holstein","admin1":"10","country":"DE","localeAltName":null},{"geonameid":3174004,"name":"Marche","admin1":"10","country":"IT","localeAltName":"The Marches"},{"geonameid":2744011,"name":"Provincie Zeeland","admin1":"10","country":"NL","localeAltName":null},{"geonameid":6115047,"name":"Québec","admin1":"10","country":"CA","localeAltName":null},{"geonameid":683504,"name":"București","admin1":"10","country":"RO","localeAltName":null},{"geonameid":6141242,"name":"Saskatchewan","admin1":"11","country":"CA","localeAltName":null},{"geonameid":2945356,"name":"Brandenburg","admin1":"11","country":"DE","localeAltName":"Brandenburg"},{"geonameid":3173222,"name":"Molise","admin1":"11","country":"IT","localeAltName":null},{"geonameid":683121,"name":"Buzău","admin1":"11","country":"RO","localeAltName":null},{"geonameid":2743698,"name":"Provincie Zuid-Holland","admin1":"11","country":"NL","localeAltName":null},{"geonameid":3170831,"name":"Piemonte","admin1":"12","country":"IT","localeAltName":null},{"geonameid":6185811,"name":"Yukon","admin1":"12","country":"CA","localeAltName":null},{"geonameid":682714,"name":"Caraş-Severin","admin1":"12","country":"RO","localeAltName":null},{"geonameid":2872567,"name":"Mecklenburg-Western Pomerania","admin1":"12","country":"DE","localeAltName":null},{"geonameid":6091069,"name":"Northwest Territories","admin1":"13","country":"CA","localeAltName":null},{"geonameid":681291,"name":"Cluj","admin1":"13","country":"RO","localeAltName":null},{"geonameid":2842566,"name":"Saxony","admin1":"13","country":"DE","localeAltName":"Saxony"},{"geonameid":3169778,"name":"Puglia","admin1":"13","country":"IT","localeAltName":null},{"geonameid":680962,"name":"Constanța","admin1":"14","country":"RO","localeAltName":null},{"geonameid":2523228,"name":"Sardegna","admin1":"14","country":"IT","localeAltName":null},{"geonameid":2842565,"name":"Saxony-Anhalt","admin1":"14","country":"DE","localeAltName":null},{"geonameid":6091732,"name":"Nunavut","admin1":"14","country":"CA","localeAltName":null},{"geonameid":2822542,"name":"Thuringia","admin1":"15","country":"DE","localeAltName":null},{"geonameid":2748838,"name":"Provincie Overijssel","admin1":"15","country":"NL","localeAltName":null},{"geonameid":680428,"name":"Covasna","admin1":"15","country":"RO","localeAltName":null},{"geonameid":2523119,"name":"Sicilia","admin1":"15","country":"IT","localeAltName":"Sicily"},{"geonameid":2950157,"name":"Land Berlin","admin1":"16","country":"DE","localeAltName":null},{"geonameid":3319179,"name":"Provincie Flevoland","admin1":"16","country":"NL","localeAltName":"Flevoland"},{"geonameid":3165361,"name":"Toscana","admin1":"16","country":"IT","localeAltName":null},{"geonameid":679385,"name":"Dâmboviţa","admin1":"16","country":"RO","localeAltName":null},{"geonameid":3165244,"name":"Trentino-Alto Adige","admin1":"17","country":"IT","localeAltName":null},{"geonameid":679134,"name":"Dolj","admin1":"17","country":"RO","localeAltName":null},{"geonameid":677692,"name":"Galaţi","admin1":"18","country":"RO","localeAltName":null},{"geonameid":3165048,"name":"Umbria","admin1":"18","country":"IT","localeAltName":null},{"geonameid":676898,"name":"Gorj","admin1":"19","country":"RO","localeAltName":null},{"geonameid":3164857,"name":"Regione Autonoma Valle d'Aosta","admin1":"19","country":"IT","localeAltName":null},{"geonameid":3164604,"name":"Veneto","admin1":"20","country":"IT","localeAltName":null},{"geonameid":676309,"name":"Harghita","admin1":"20","country":"RO","localeAltName":null},{"geonameid":675917,"name":"Hunedoara","admin1":"21","country":"RO","localeAltName":null},{"geonameid":675848,"name":"Ialomiţa","admin1":"22","country":"RO","localeAltName":null},{"geonameid":675809,"name":"Iaşi","admin1":"23","country":"RO","localeAltName":null},{"geonameid":673887,"name":"Maramureş","admin1":"25","country":"RO","localeAltName":null},{"geonameid":673612,"name":"Mehedinţi","admin1":"26","country":"RO","localeAltName":null},{"geonameid":672628,"name":"Mureş","admin1":"27","country":"RO","localeAltName":null},{"geonameid":672460,"name":"Neamţ","admin1":"28","country":"RO","localeAltName":null},{"geonameid":671857,"name":"Olt","admin1":"29","country":"RO","localeAltName":null},{"geonameid":669737,"name":"Prahova","admin1":"30","country":"RO","localeAltName":"Prahova"},{"geonameid":668248,"name":"Sălaj","admin1":"31","country":"RO","localeAltName":null},{"geonameid":667869,"name":"Satu Mare","admin1":"32","country":"RO","localeAltName":null},{"geonameid":667267,"name":"Sibiu","admin1":"33","country":"RO","localeAltName":null},{"geonameid":665849,"name":"Suceava","admin1":"34","country":"RO","localeAltName":"Suceava"},{"geonameid":665283,"name":"Teleorman","admin1":"35","country":"RO","localeAltName":null},{"geonameid":665091,"name":"Timiş","admin1":"36","country":"RO","localeAltName":null},{"geonameid":664517,"name":"Tulcea","admin1":"37","country":"RO","localeAltName":null},{"geonameid":663116,"name":"Vaslui","admin1":"38","country":"RO","localeAltName":null},{"geonameid":662892,"name":"Vâlcea","admin1":"39","country":"RO","localeAltName":null},{"geonameid":662447,"name":"Vrancea","admin1":"40","country":"RO","localeAltName":null},{"geonameid":683016,"name":"Călăraşi","admin1":"41","country":"RO","localeAltName":null},{"geonameid":677104,"name":"Giurgiu","admin1":"42","country":"RO","localeAltName":null},{"geonameid":865518,"name":"Ilfov","admin1":"43","country":"RO","localeAltName":"Ilfov"},{"geonameid":2661876,"name":"Kanton Aargau","admin1":"AG","country":"CH","localeAltName":null},{"geonameid":2661741,"name":"Kanton Appenzell Innerrhoden","admin1":"AI","country":"CH","localeAltName":"Appenzell Innerrhoden"},{"geonameid":5879092,"name":"Alaska","admin1":"AK","country":"US","localeAltName":"Alaska"},{"geonameid":4829764,"name":"Alabama","admin1":"AL","country":"US","localeAltName":"Alabama"},{"geonameid":2661739,"name":"Kanton Appenzell Ausserrhoden","admin1":"AR","country":"CH","localeAltName":null},{"geonameid":4099753,"name":"Arkansas","admin1":"AR","country":"US","localeAltName":"Arkansas"},{"geonameid":5551752,"name":"Arizona","admin1":"AZ","country":"US","localeAltName":"Arizona"},{"geonameid":2661551,"name":"Canton de Berne","admin1":"BE","country":"CH","localeAltName":null},{"geonameid":2661603,"name":"Kanton Basel-Landschaft","admin1":"BL","country":"CH","localeAltName":null},{"geonameid":2661602,"name":"Kanton Basel-Stadt","admin1":"BS","country":"CH","localeAltName":null},{"geonameid":5332921,"name":"California","admin1":"CA","country":"US","localeAltName":"California"},{"geonameid":5417618,"name":"Colorado","admin1":"CO","country":"US","localeAltName":"Colorado"},{"geonameid":4831725,"name":"Connecticut","admin1":"CT","country":"US","localeAltName":"Connecticut"},{"geonameid":4138106,"name":"District of Columbia","admin1":"DC","country":"US","localeAltName":null},{"geonameid":4142224,"name":"Delaware","admin1":"DE","country":"US","localeAltName":"Delaware"},{"geonameid":6269131,"name":"England","admin1":"ENG","country":"GB","localeAltName":"England"},{"geonameid":4155751,"name":"Florida","admin1":"FL","country":"US","localeAltName":"Florida"},{"geonameid":2660717,"name":"Canton de Fribourg","admin1":"FR","country":"CH","localeAltName":null},{"geonameid":4197000,"name":"Georgia","admin1":"GA","country":"US","localeAltName":"Georgia"},{"geonameid":2660645,"name":"Genève","admin1":"GE","country":"CH","localeAltName":null},{"geonameid":2660593,"name":"Kanton Glarus","admin1":"GL","country":"CH","localeAltName":null},{"geonameid":2660522,"name":"Kanton Graubünden","admin1":"GR","country":"CH","localeAltName":null},{"geonameid":5855797,"name":"Hawaii","admin1":"HI","country":"US","localeAltName":"Hawaii"},{"geonameid":4862182,"name":"Iowa","admin1":"IA","country":"US","localeAltName":"Iowa"},{"geonameid":5596512,"name":"Idaho","admin1":"ID","country":"US","localeAltName":"Idaho"},{"geonameid":4896861,"name":"Illinois","admin1":"IL","country":"US","localeAltName":"Illinois"},{"geonameid":4921868,"name":"Indiana","admin1":"IN","country":"US","localeAltName":"Indiana"},{"geonameid":2660207,"name":"Jura","admin1":"JU","country":"CH","localeAltName":null},{"geonameid":4273857,"name":"Kansas","admin1":"KS","country":"US","localeAltName":"Kansas"},{"geonameid":6254925,"name":"Kentucky","admin1":"KY","country":"US","localeAltName":"Kentucky"},{"geonameid":4331987,"name":"Louisiana","admin1":"LA","country":"US","localeAltName":"Louisiana"},{"geonameid":2659810,"name":"Kanton Luzern","admin1":"LU","country":"CH","localeAltName":null},{"geonameid":6254926,"name":"Massachusetts","admin1":"MA","country":"US","localeAltName":"Massachusetts"},{"geonameid":4361885,"name":"Maryland","admin1":"MD","country":"US","localeAltName":"Maryland"},{"geonameid":4971068,"name":"Maine","admin1":"ME","country":"US","localeAltName":null},{"geonameid":5001836,"name":"Michigan","admin1":"MI","country":"US","localeAltName":"Michigan"},{"geonameid":5037779,"name":"Minnesota","admin1":"MN","country":"US","localeAltName":"Minnesota"},{"geonameid":4398678,"name":"Missouri","admin1":"MO","country":"US","localeAltName":"Missouri"},{"geonameid":4436296,"name":"Mississippi","admin1":"MS","country":"US","localeAltName":"Mississippi"},{"geonameid":5667009,"name":"Montana","admin1":"MT","country":"US","localeAltName":"Montana"},{"geonameid":4482348,"name":"North Carolina","admin1":"NC","country":"US","localeAltName":"North Carolina"},{"geonameid":5690763,"name":"North Dakota","admin1":"ND","country":"US","localeAltName":"North Dakota"},{"geonameid":5073708,"name":"Nebraska","admin1":"NE","country":"US","localeAltName":"Nebraska"},{"geonameid":2659495,"name":"Neuchâtel","admin1":"NE","country":"CH","localeAltName":null},{"geonameid":5090174,"name":"New Hampshire","admin1":"NH","country":"US","localeAltName":"New Hampshire"},{"geonameid":2641364,"name":"Northern Ireland","admin1":"NIR","country":"GB","localeAltName":null},{"geonameid":5101760,"name":"New Jersey","admin1":"NJ","country":"US","localeAltName":"New Jersey"},{"geonameid":5481136,"name":"New Mexico","admin1":"NM","country":"US","localeAltName":"New Mexico"},{"geonameid":5509151,"name":"Nevada","admin1":"NV","country":"US","localeAltName":"Nevada"},{"geonameid":2659471,"name":"Kanton Nidwalden","admin1":"NW","country":"CH","localeAltName":null},{"geonameid":5128638,"name":"New York","admin1":"NY","country":"US","localeAltName":"New York"},{"geonameid":5165418,"name":"Ohio","admin1":"OH","country":"US","localeAltName":"Ohio"},{"geonameid":4544379,"name":"Oklahoma","admin1":"OK","country":"US","localeAltName":"Oklahoma"},{"geonameid":5744337,"name":"Oregon","admin1":"OR","country":"US","localeAltName":"Oregon"},{"geonameid":2659315,"name":"Kanton Obwalden","admin1":"OW","country":"CH","localeAltName":null},{"geonameid":6254927,"name":"Pennsylvania","admin1":"PA","country":"US","localeAltName":"Pennsylvania"},{"geonameid":5224323,"name":"Rhode Island","admin1":"RI","country":"US","localeAltName":"Rhode Island"},{"geonameid":4597040,"name":"South Carolina","admin1":"SC","country":"US","localeAltName":"South Carolina"},{"geonameid":2638360,"name":"Scotland","admin1":"SCT","country":"GB","localeAltName":null},{"geonameid":5769223,"name":"South Dakota","admin1":"SD","country":"US","localeAltName":"South Dakota"},{"geonameid":2658821,"name":"Kanton St. Gallen","admin1":"SG","country":"CH","localeAltName":null},{"geonameid":2658760,"name":"Kanton Schaffhausen","admin1":"SH","country":"CH","localeAltName":null},{"geonameid":2658563,"name":"Kanton Solothurn","admin1":"SO","country":"CH","localeAltName":null},{"geonameid":2658664,"name":"Kanton Schwyz","admin1":"SZ","country":"CH","localeAltName":null},{"geonameid":2658372,"name":"Kanton Thurgau","admin1":"TG","country":"CH","localeAltName":"Thurgau"},{"geonameid":2658370,"name":"Ticino","admin1":"TI","country":"CH","localeAltName":null},{"geonameid":4662168,"name":"Tennessee","admin1":"TN","country":"US","localeAltName":"Tennessee"},{"geonameid":4736286,"name":"Texas","admin1":"TX","country":"US","localeAltName":"Texas"},{"geonameid":2658226,"name":"Kanton Uri","admin1":"UR","country":"CH","localeAltName":null},{"geonameid":5549030,"name":"Utah","admin1":"UT","country":"US","localeAltName":"Utah"},{"geonameid":6254928,"name":"Virginia","admin1":"VA","country":"US","localeAltName":"Virginia"},{"geonameid":2658182,"name":"Canton de Vaud","admin1":"VD","country":"CH","localeAltName":null},{"geonameid":2658205,"name":"Canton du Valais","admin1":"VS","country":"CH","localeAltName":null},{"geonameid":5242283,"name":"Vermont","admin1":"VT","country":"US","localeAltName":"Vermont"},{"geonameid":5815135,"name":"Washington","admin1":"WA","country":"US","localeAltName":"Washington"},{"geonameid":5279468,"name":"Wisconsin","admin1":"WI","country":"US","localeAltName":"Wisconsin"},{"geonameid":2634895,"name":"Wales","admin1":"WLS","country":"GB","localeAltName":"Wales"},{"geonameid":4826850,"name":"West Virginia","admin1":"WV","country":"US","localeAltName":"West Virginia"},{"geonameid":5843591,"name":"Wyoming","admin1":"WY","country":"US","localeAltName":null},{"geonameid":2657907,"name":"Kanton Zug","admin1":"ZG","country":"CH","localeAltName":null},{"geonameid":2657895,"name":"Kanton Zürich","admin1":"ZH","country":"CH","localeAltName":null}],"adm1Cities":[{"geonameid":2643743,"name":"London","admin1":"ENG","country":"GB","latitude":"51.5085300","longitude":"-0.1257400","fcode":"PPLC","localeAltName":null},{"geonameid":2950159,"name":"Berlin","admin1":"16","country":"DE","latitude":"52.5243700","longitude":"13.4105300","fcode":"PPLC","localeAltName":null},{"geonameid":6167865,"name":"Toronto","admin1":"08","country":"CA","latitude":"43.7001100","longitude":"-79.4163000","fcode":"PPLA","localeAltName":null},{"geonameid":3169070,"name":"Rome","admin1":"07","country":"IT","latitude":"41.8919300","longitude":"12.5113300","fcode":"PPLC","localeAltName":null},{"geonameid":683506,"name":"Bucharest","admin1":"10","country":"RO","latitude":"44.4322500","longitude":"26.1062600","fcode":"PPLC","localeAltName":null},{"geonameid":2911298,"name":"Hamburg","admin1":"04","country":"DE","latitude":"53.5507300","longitude":"9.9930200","fcode":"PPLA","localeAltName":null},{"geonameid":5308655,"name":"Phoenix","admin1":"AZ","country":"US","latitude":"33.4483800","longitude":"-112.0740400","fcode":"PPLA","localeAltName":null},{"geonameid":2867714,"name":"Munich","admin1":"02","country":"DE","latitude":"48.1374300","longitude":"11.5754900","fcode":"PPLA","localeAltName":null},{"geonameid":3173435,"name":"Milan","admin1":"09","country":"IT","latitude":"45.4642700","longitude":"9.1895100","fcode":"PPLA","localeAltName":"Milan"},{"geonameid":3172394,"name":"Naples","admin1":"04","country":"IT","latitude":"40.8521600","longitude":"14.2681100","fcode":"PPLA","localeAltName":null},{"geonameid":4671654,"name":"Austin","admin1":"TX","country":"US","latitude":"30.2671500","longitude":"-97.7430600","fcode":"PPLA","localeAltName":null},{"geonameid":3165524,"name":"Turin","admin1":"12","country":"IT","latitude":"45.0704900","longitude":"7.6868200","fcode":"PPLA","localeAltName":null},{"geonameid":4509177,"name":"Columbus","admin1":"OH","country":"US","latitude":"39.9611800","longitude":"-82.9987900","fcode":"PPLA","localeAltName":null},{"geonameid":4259418,"name":"Indianapolis","admin1":"IN","country":"US","latitude":"39.7683800","longitude":"-86.1580400","fcode":"PPLA","localeAltName":null},{"geonameid":6094817,"name":"Ottawa","admin1":"08","country":"CA","latitude":"45.4111700","longitude":"-75.6981200","fcode":"PPLC","localeAltName":null},{"geonameid":2759794,"name":"Amsterdam","admin1":"07","country":"NL","latitude":"52.3740300","longitude":"4.8896900","fcode":"PPLC","localeAltName":null},{"geonameid":5946768,"name":"Edmonton","admin1":"01","country":"CA","latitude":"53.5501400","longitude":"-113.4687100","fcode":"PPLA","localeAltName":null},{"geonameid":5419384,"name":"Denver","admin1":"CO","country":"US","latitude":"39.7391500","longitude":"-104.9847000","fcode":"PPLA","localeAltName":null},{"geonameid":4930956,"name":"Boston","admin1":"MA","country":"US","latitude":"42.3584300","longitude":"-71.0597700","fcode":"PPLA","localeAltName":null},{"geonameid":2523920,"name":"Palermo","admin1":"15","country":"IT","latitude":"38.1320500","longitude":"13.3356100","fcode":"PPLA","localeAltName":null},{"geonameid":6183235,"name":"Winnipeg","admin1":"03","country":"CA","latitude":"49.8844000","longitude":"-97.1470400","fcode":"PPLA","localeAltName":null},{"geonameid":4544349,"name":"Oklahoma City","admin1":"OK","country":"US","latitude":"35.4675600","longitude":"-97.5164300","fcode":"PPLA","localeAltName":null},{"geonameid":4140963,"name":"Washington","admin1":"DC","country":"US","latitude":"38.8951100","longitude":"-77.0363700","fcode":"PPLC","localeAltName":null},{"geonameid":2825297,"name":"Stuttgart","admin1":"01","country":"DE","latitude":"48.7823200","longitude":"9.1770200","fcode":"PPLA","localeAltName":null},{"geonameid":3176219,"name":"Genoa","admin1":"08","country":"IT","latitude":"44.4047800","longitude":"8.9443900","fcode":"PPLA","localeAltName":null},{"geonameid":2934246,"name":"Düsseldorf","admin1":"07","country":"DE","latitude":"51.2217200","longitude":"6.7761600","fcode":"PPLA","localeAltName":null},{"geonameid":2944388,"name":"Bremen","admin1":"03","country":"DE","latitude":"53.0758200","longitude":"8.8071700","fcode":"PPLA","localeAltName":null},{"geonameid":4644585,"name":"Nashville","admin1":"TN","country":"US","latitude":"36.1658900","longitude":"-86.7844400","fcode":"PPLA","localeAltName":null},{"geonameid":6325494,"name":"Québec","admin1":"10","country":"CA","latitude":"46.8122800","longitude":"-71.2145400","fcode":"PPLA","localeAltName":null},{"geonameid":2910831,"name":"Hannover","admin1":"06","country":"DE","latitude":"52.3705200","longitude":"9.7332200","fcode":"PPLA","localeAltName":null},{"geonameid":5389489,"name":"Sacramento","admin1":"CA","country":"US","latitude":"38.5815700","longitude":"-121.4944000","fcode":"PPLA","localeAltName":null},{"geonameid":2935022,"name":"Dresden","admin1":"13","country":"DE","latitude":"51.0508900","longitude":"13.7383200","fcode":"PPLA","localeAltName":null},{"geonameid":2650225,"name":"Edinburgh","admin1":"SCT","country":"GB","latitude":"55.9520600","longitude":"-3.1964800","fcode":"PPLA","localeAltName":null},{"geonameid":4180439,"name":"Atlanta","admin1":"GA","country":"US","latitude":"33.7490000","longitude":"-84.3879800","fcode":"PPLA","localeAltName":null},{"geonameid":4487042,"name":"Raleigh","admin1":"NC","country":"US","latitude":"35.7721000","longitude":"-78.6386100","fcode":"PPLA","localeAltName":null},{"geonameid":2653822,"name":"Cardiff","admin1":"WLS","country":"GB","latitude":"51.4800000","longitude":"-3.1800000","fcode":"PPLA","localeAltName":null},{"geonameid":5856195,"name":"Honolulu","admin1":"HI","country":"US","latitude":"21.3069400","longitude":"-157.8583300","fcode":"PPLA","localeAltName":null},{"geonameid":3181928,"name":"Bologna","admin1":"05","country":"IT","latitude":"44.4938100","longitude":"11.3387500","fcode":"PPLA","localeAltName":null},{"geonameid":6324729,"name":"Halifax","admin1":"07","country":"CA","latitude":"44.6464000","longitude":"-63.5729100","fcode":"PPLA","localeAltName":"Halifax"},{"geonameid":3176959,"name":"Florence","admin1":"16","country":"IT","latitude":"43.7792500","longitude":"11.2462600","fcode":"PPLA","localeAltName":null},{"geonameid":2657896,"name":"Zürich","admin1":"ZH","country":"CH","latitude":"47.3666700","longitude":"8.5500000","fcode":"PPLA","localeAltName":null},{"geonameid":675810,"name":"Iaşi","admin1":"23","country":"RO","latitude":"47.1666700","longitude":"27.6000000","fcode":"PPLA","localeAltName":null},{"geonameid":681290,"name":"Cluj-Napoca","admin1":"13","country":"RO","latitude":"46.7666700","longitude":"23.6000000","fcode":"PPLA","localeAltName":null},{"geonameid":665087,"name":"Timişoara","admin1":"36","country":"RO","latitude":"45.7537200","longitude":"21.2257100","fcode":"PPLA","localeAltName":null},{"geonameid":680332,"name":"Craiova","admin1":"17","country":"RO","latitude":"44.3166700","longitude":"23.8000000","fcode":"PPLA","localeAltName":null},{"geonameid":680963,"name":"Constanţa","admin1":"14","country":"RO","latitude":"44.1807300","longitude":"28.6343200","fcode":"PPLA","localeAltName":null},{"geonameid":677697,"name":"Galaţi","admin1":"18","country":"RO","latitude":"45.4368700","longitude":"28.0502800","fcode":"PPLA","localeAltName":null},{"geonameid":2745912,"name":"Utrecht","admin1":"09","country":"NL","latitude":"52.0908300","longitude":"5.1222200","fcode":"PPLA","localeAltName":null},{"geonameid":6174041,"name":"Victoria","admin1":"02","country":"CA","latitude":"48.4359000","longitude":"-123.3515500","fcode":"PPLA","localeAltName":null},{"geonameid":5045360,"name":"Saint Paul","admin1":"MN","country":"US","latitude":"44.9444100","longitude":"-93.0932700","fcode":"PPLA","localeAltName":null},{"geonameid":3182351,"name":"Bari","admin1":"13","country":"IT","latitude":"41.1206600","longitude":"16.8698200","fcode":"PPLA","localeAltName":null},{"geonameid":5072006,"name":"Lincoln","admin1":"NE","country":"US","latitude":"40.8000000","longitude":"-96.6669600","fcode":"PPLA","localeAltName":null},{"geonameid":683844,"name":"Braşov","admin1":"09","country":"RO","latitude":"45.6486100","longitude":"25.6061300","fcode":"PPLA","localeAltName":null},{"geonameid":2655984,"name":"Belfast","admin1":"NIR","country":"GB","latitude":"54.5968200","longitude":"-5.9254100","fcode":"PPLA","localeAltName":null},{"geonameid":2809346,"name":"Wiesbaden","admin1":"05","country":"DE","latitude":"50.0825800","longitude":"8.2493200","fcode":"PPLA","localeAltName":null},{"geonameid":5261457,"name":"Madison","admin1":"WI","country":"US","latitude":"43.0730500","longitude":"-89.4012300","fcode":"PPLA","localeAltName":null},{"geonameid":2891122,"name":"Kiel","admin1":"10","country":"DE","latitude":"54.3213300","longitude":"10.1348900","fcode":"PPLA","localeAltName":null},{"geonameid":2874545,"name":"Magdeburg","admin1":"14","country":"DE","latitude":"52.1277300","longitude":"11.6291600","fcode":"PPLA","localeAltName":null},{"geonameid":670474,"name":"Ploieşti","admin1":"30","country":"RO","latitude":"44.9500000","longitude":"26.0166700","fcode":"PPLA","localeAltName":null},{"geonameid":4315588,"name":"Baton Rouge","admin1":"LA","country":"US","latitude":"30.4433200","longitude":"-91.1874700","fcode":"PPLA","localeAltName":null},{"geonameid":4781708,"name":"Richmond","admin1":"VA","country":"US","latitude":"37.5537600","longitude":"-77.4602600","fcode":"PPLA","localeAltName":null},{"geonameid":683902,"name":"Brăila","admin1":"08","country":"RO","latitude":"45.2715200","longitude":"27.9742900","fcode":"PPLA","localeAltName":null},{"geonameid":4853828,"name":"Des Moines","admin1":"IA","country":"US","latitude":"41.6005400","longitude":"-93.6091100","fcode":"PPLA","localeAltName":null},{"geonameid":671768,"name":"Oradea","admin1":"05","country":"RO","latitude":"47.0458000","longitude":"21.9183300","fcode":"PPLA","localeAltName":null},{"geonameid":2929670,"name":"Erfurt","admin1":"15","country":"DE","latitude":"50.9787000","longitude":"11.0328300","fcode":"PPLA","localeAltName":null},{"geonameid":4076784,"name":"Montgomery","admin1":"AL","country":"US","latitude":"32.3668100","longitude":"-86.2999700","fcode":"PPLA","localeAltName":null},{"geonameid":4119403,"name":"Little Rock","admin1":"AR","country":"US","latitude":"34.7464800","longitude":"-92.2895900","fcode":"PPLA","localeAltName":null},{"geonameid":5780993,"name":"Salt Lake City","admin1":"UT","country":"US","latitude":"40.7607800","longitude":"-111.8910500","fcode":"PPLA","localeAltName":null},{"geonameid":4174715,"name":"Tallahassee","admin1":"FL","country":"US","latitude":"30.4382600","longitude":"-84.2807300","fcode":"PPLA","localeAltName":null},{"geonameid":3165185,"name":"Trieste","admin1":"06","country":"IT","latitude":"45.6495300","longitude":"13.7767800","fcode":"PPLA","localeAltName":null},{"geonameid":2874225,"name":"Mainz","admin1":"08","country":"DE","latitude":"49.9841900","longitude":"8.2791000","fcode":"PPLA","localeAltName":null},{"geonameid":2660646,"name":"Genève","admin1":"GE","country":"CH","latitude":"46.2022200","longitude":"6.1456900","fcode":"PPLA","localeAltName":null},{"geonameid":2842647,"name":"Saarbrücken","admin1":"09","country":"DE","latitude":"49.2326200","longitude":"7.0098200","fcode":"PPLA","localeAltName":null},{"geonameid":2755251,"name":"Groningen","admin1":"04","country":"NL","latitude":"53.2191700","longitude":"6.5666700","fcode":"PPLA","localeAltName":null},{"geonameid":5224151,"name":"Providence","admin1":"RI","country":"US","latitude":"41.8239900","longitude":"-71.4128300","fcode":"PPLA","localeAltName":null},{"geonameid":6119109,"name":"Regina","admin1":"11","country":"CA","latitude":"50.4500800","longitude":"-104.6178000","fcode":"PPLA","localeAltName":null},{"geonameid":685948,"name":"Bacău","admin1":"04","country":"RO","latitude":"46.5671800","longitude":"26.9138400","fcode":"PPLA","localeAltName":null},{"geonameid":4431410,"name":"Jackson","admin1":"MS","country":"US","latitude":"32.2987600","longitude":"-90.1848100","fcode":"PPLA","localeAltName":null},{"geonameid":686254,"name":"Arad","admin1":"02","country":"RO","latitude":"46.1833300","longitude":"21.3166700","fcode":"PPLA","localeAltName":null},{"geonameid":670609,"name":"Piteşti","admin1":"03","country":"RO","latitude":"44.8500000","longitude":"24.8666700","fcode":"PPLA","localeAltName":null},{"geonameid":5750162,"name":"Salem","admin1":"OR","country":"US","latitude":"44.9429000","longitude":"-123.0351000","fcode":"PPLA","localeAltName":null},{"geonameid":2661604,"name":"Basel","admin1":"BS","country":"CH","latitude":"47.5583900","longitude":"7.5732700","fcode":"PPLA","localeAltName":null},{"geonameid":667268,"name":"Sibiu","admin1":"33","country":"RO","latitude":"45.8000000","longitude":"24.1500000","fcode":"PPLA","localeAltName":null},{"geonameid":2525473,"name":"Cagliari","admin1":"14","country":"IT","latitude":"39.2305400","longitude":"9.1191700","fcode":"PPLA","localeAltName":null},{"geonameid":2755003,"name":"Haarlem","admin1":"07","country":"NL","latitude":"52.3808400","longitude":"4.6368300","fcode":"PPLA","localeAltName":null},{"geonameid":665004,"name":"Târgu-Mureş","admin1":"27","country":"RO","latitude":"46.5424500","longitude":"24.5574700","fcode":"PPLA","localeAltName":null},{"geonameid":5586437,"name":"Boise","admin1":"ID","country":"US","latitude":"43.6135000","longitude":"-116.2034500","fcode":"PPLA","localeAltName":null},{"geonameid":2852458,"name":"Potsdam","admin1":"11","country":"DE","latitude":"52.3988600","longitude":"13.0656600","fcode":"PPLA","localeAltName":null},{"geonameid":2759661,"name":"Arnhem","admin1":"03","country":"NL","latitude":"51.9800000","longitude":"5.9111100","fcode":"PPLA","localeAltName":null},{"geonameid":2659994,"name":"Lausanne","admin1":"VD","country":"CH","latitude":"46.5160000","longitude":"6.6328200","fcode":"PPLA","localeAltName":null},{"geonameid":685826,"name":"Baia Mare","admin1":"25","country":"RO","latitude":"47.6572900","longitude":"23.5680800","fcode":"PPLA","localeAltName":null},{"geonameid":2747351,"name":"'s-Hertogenbosch","admin1":"06","country":"NL","latitude":"51.6991700","longitude":"5.3041700","fcode":"PPLA","localeAltName":null},{"geonameid":4575352,"name":"Columbia","admin1":"SC","country":"US","latitude":"34.0007100","longitude":"-81.0348100","fcode":"PPLA","localeAltName":null},{"geonameid":683123,"name":"Buzău","admin1":"11","country":"RO","latitude":"45.1500000","longitude":"26.8333300","fcode":"PPLA","localeAltName":null},{"geonameid":4280539,"name":"Topeka","admin1":"KS","country":"US","latitude":"39.0483300","longitude":"-95.6780400","fcode":"PPLA","localeAltName":null},{"geonameid":4835797,"name":"Hartford","admin1":"CT","country":"US","latitude":"41.7637100","longitude":"-72.6850900","fcode":"PPLA","localeAltName":null},{"geonameid":2751283,"name":"Maastricht","admin1":"05","country":"NL","latitude":"50.8483300","longitude":"5.6888900","fcode":"PPLA","localeAltName":null},{"geonameid":2661552,"name":"Bern","admin1":"BE","country":"CH","latitude":"46.9480900","longitude":"7.4474400","fcode":"PPLC","localeAltName":"Bern"},{"geonameid":3171180,"name":"Perugia","admin1":"18","country":"IT","latitude":"43.1122000","longitude":"12.3887800","fcode":"PPLA","localeAltName":null},{"geonameid":4250542,"name":"Springfield","admin1":"IL","country":"US","latitude":"39.8017200","longitude":"-89.6437100","fcode":"PPLA","localeAltName":null},{"geonameid":4998830,"name":"Lansing","admin1":"MI","country":"US","latitude":"42.7325300","longitude":"-84.5555300","fcode":"PPLA","localeAltName":null},{"geonameid":684039,"name":"Botoşani","admin1":"07","country":"RO","latitude":"47.7500000","longitude":"26.6666700","fcode":"PPLA","localeAltName":null},{"geonameid":667873,"name":"Satu Mare","admin1":"32","country":"RO","latitude":"47.7992600","longitude":"22.8625500","fcode":"PPLA","localeAltName":null},{"geonameid":2743477,"name":"Zwolle","admin1":"15","country":"NL","latitude":"52.5125000","longitude":"6.0944400","fcode":"PPLA","localeAltName":null},{"geonameid":668872,"name":"Râmnicu Vâlcea","admin1":"39","country":"RO","latitude":"45.1000000","longitude":"24.3666700","fcode":"PPLA","localeAltName":null},{"geonameid":665850,"name":"Suceava","admin1":"34","country":"RO","latitude":"47.6333300","longitude":"26.2500000","fcode":"PPLA","localeAltName":null},{"geonameid":670889,"name":"Piatra Neamţ","admin1":"28","country":"RO","latitude":"46.9166700","longitude":"26.3333300","fcode":"PPLA","localeAltName":null},{"geonameid":678817,"name":"Drobeta-Turnu Severin","admin1":"26","country":"RO","latitude":"44.6269300","longitude":"22.6528800","fcode":"PPLA","localeAltName":null},{"geonameid":6324733,"name":"St. John's","admin1":"05","country":"CA","latitude":"47.5649400","longitude":"-52.7093100","fcode":"PPLA","localeAltName":null},{"geonameid":5106834,"name":"Albany","admin1":"NY","country":"US","latitude":"42.6525800","longitude":"-73.7562300","fcode":"PPLA","localeAltName":null},{"geonameid":665010,"name":"Târgu Jiu","admin1":"19","country":"RO","latitude":"45.0500000","longitude":"23.2833300","fcode":"PPLA","localeAltName":null},{"geonameid":2834282,"name":"Schwerin","admin1":"12","country":"DE","latitude":"53.6293700","longitude":"11.4131600","fcode":"PPLA","localeAltName":null},{"geonameid":664518,"name":"Tulcea","admin1":"37","country":"RO","latitude":"45.1787000","longitude":"28.8050100","fcode":"PPLA","localeAltName":null},{"geonameid":2751792,"name":"Leeuwarden","admin1":"02","country":"NL","latitude":"53.2013900","longitude":"5.8085900","fcode":"PPLA","localeAltName":null},{"geonameid":3183089,"name":"Ancona","admin1":"10","country":"IT","latitude":"43.5942000","longitude":"13.5033700","fcode":"PPLA","localeAltName":null},{"geonameid":665024,"name":"Târgovişte","admin1":"16","country":"RO","latitude":"44.9254300","longitude":"25.4567000","fcode":"PPLA","localeAltName":null},{"geonameid":5105496,"name":"Trenton","admin1":"NJ","country":"US","latitude":"40.2170500","longitude":"-74.7429400","fcode":"PPLA","localeAltName":null},{"geonameid":5490263,"name":"Santa Fe","admin1":"NM","country":"US","latitude":"35.6869800","longitude":"-105.9378000","fcode":"PPLA","localeAltName":null},{"geonameid":2659811,"name":"Luzern","admin1":"LU","country":"CH","latitude":"47.0504800","longitude":"8.3063500","fcode":"PPLA","localeAltName":null},{"geonameid":684657,"name":"Bistriţa","admin1":"06","country":"RO","latitude":"47.1331600","longitude":"24.5001100","fcode":"PPLA","localeAltName":null},{"geonameid":668954,"name":"Reşiţa","admin1":"12","country":"RO","latitude":"45.3008300","longitude":"21.8891700","fcode":"PPLA","localeAltName":null},{"geonameid":3165243,"name":"Trento","admin1":"17","country":"IT","latitude":"46.0678700","longitude":"11.1210800","fcode":"PPLA","localeAltName":null},{"geonameid":666767,"name":"Slatina","admin1":"29","country":"RO","latitude":"44.4333300","longitude":"24.3666700","fcode":"PPLA","localeAltName":null},{"geonameid":2525059,"name":"Catanzaro","admin1":"03","country":"IT","latitude":"38.8824700","longitude":"16.6008600","fcode":"PPLA","localeAltName":null},{"geonameid":678015,"name":"Focșani","admin1":"40","country":"RO","latitude":"45.7000000","longitude":"27.1833300","fcode":"PPLA","localeAltName":null},{"geonameid":5688025,"name":"Bismarck","admin1":"ND","country":"US","latitude":"46.8083300","longitude":"-100.7837400","fcode":"PPLA","localeAltName":null},{"geonameid":2751738,"name":"Lelystad","admin1":"16","country":"NL","latitude":"52.5083300","longitude":"5.4750000","fcode":"PPLA","localeAltName":null},{"geonameid":2658822,"name":"Sankt Gallen","admin1":"SG","country":"CH","latitude":"47.4239100","longitude":"9.3747700","fcode":"PPLA","localeAltName":null},{"geonameid":663118,"name":"Vaslui","admin1":"38","country":"RO","latitude":"46.6333300","longitude":"27.7333300","fcode":"PPLA","localeAltName":null},{"geonameid":675918,"name":"Hunedoara","admin1":"21","country":"RO","latitude":"45.7500000","longitude":"22.9000000","fcode":"PPLA","localeAltName":null},{"geonameid":677106,"name":"Giurgiu","admin1":"42","country":"RO","latitude":"43.8866400","longitude":"25.9627000","fcode":"PPLA","localeAltName":null},{"geonameid":686578,"name":"Alba Iulia","admin1":"01","country":"RO","latitude":"46.0666700","longitude":"23.5833300","fcode":"PPLA","localeAltName":null},{"geonameid":5821086,"name":"Cheyenne","admin1":"WY","country":"US","latitude":"41.1399800","longitude":"-104.8202500","fcode":"PPLA","localeAltName":null},{"geonameid":662334,"name":"Zalău","admin1":"31","country":"RO","latitude":"47.2000000","longitude":"23.0500000","fcode":"PPLA","localeAltName":null},{"geonameid":2759633,"name":"Assen","admin1":"01","country":"NL","latitude":"52.9966700","longitude":"6.5625000","fcode":"PPLA","localeAltName":null},{"geonameid":667303,"name":"Sfântu Gheorghe","admin1":"15","country":"RO","latitude":"45.8666700","longitude":"25.7833300","fcode":"PPLA","localeAltName":null},{"geonameid":3170027,"name":"Potenza","admin1":"02","country":"IT","latitude":"40.6417500","longitude":"15.8079400","fcode":"PPLA","localeAltName":null},{"geonameid":5501344,"name":"Carson City","admin1":"NV","country":"US","latitude":"39.1638000","longitude":"-119.7674000","fcode":"PPLA","localeAltName":null},{"geonameid":8581467,"name":"Slobozia","admin1":"22","country":"RO","latitude":"44.5647000","longitude":"27.3633000","fcode":"PPLA","localeAltName":null},{"geonameid":5957776,"name":"Fredericton","admin1":"04","country":"CA","latitude":"45.9454100","longitude":"-66.6655800","fcode":"PPLA","localeAltName":null},{"geonameid":3164603,"name":"Venice","admin1":"20","country":"IT","latitude":"45.4371300","longitude":"12.3326500","fcode":"PPLA","localeAltName":null},{"geonameid":5805687,"name":"Olympia","admin1":"WA","country":"US","latitude":"47.0378700","longitude":"-122.9007000","fcode":"PPLA","localeAltName":null},{"geonameid":4801859,"name":"Charleston","admin1":"WV","country":"US","latitude":"38.3498200","longitude":"-81.6326200","fcode":"PPLA","localeAltName":null},{"geonameid":686502,"name":"Alexandria","admin1":"35","country":"RO","latitude":"43.9833300","longitude":"25.3333300","fcode":"PPLA","localeAltName":null},{"geonameid":5192726,"name":"Harrisburg","admin1":"PA","country":"US","latitude":"40.2737000","longitude":"-76.8844200","fcode":"PPLA","localeAltName":null},{"geonameid":2750896,"name":"Middelburg","admin1":"10","country":"NL","latitude":"51.5000000","longitude":"3.6138900","fcode":"PPLA","localeAltName":null},{"geonameid":4392388,"name":"Jefferson City","admin1":"MO","country":"US","latitude":"38.5767000","longitude":"-92.1735200","fcode":"PPLA","localeAltName":null},{"geonameid":5084868,"name":"Concord","admin1":"NH","country":"US","latitude":"43.2081400","longitude":"-71.5375700","fcode":"PPLA","localeAltName":null},{"geonameid":5920288,"name":"Charlottetown","admin1":"09","country":"CA","latitude":"46.2345900","longitude":"-63.1256000","fcode":"PPLA","localeAltName":null},{"geonameid":673441,"name":"Miercurea-Ciuc","admin1":"20","country":"RO","latitude":"46.3500000","longitude":"25.8000000","fcode":"PPLA","localeAltName":null},{"geonameid":3180991,"name":"Campobasso","admin1":"11","country":"IT","latitude":"41.5594700","longitude":"14.6673700","fcode":"PPLA","localeAltName":null},{"geonameid":4347242,"name":"Annapolis","admin1":"MD","country":"US","latitude":"38.9785900","longitude":"-76.4918400","fcode":"PPLA","localeAltName":null},{"geonameid":4142290,"name":"Dover","admin1":"DE","country":"US","latitude":"39.1581700","longitude":"-75.5243700","fcode":"PPLA","localeAltName":null},{"geonameid":2658761,"name":"Schaffhausen","admin1":"SH","country":"CH","latitude":"47.6973200","longitude":"8.6349300","fcode":"PPLA","localeAltName":null},{"geonameid":3175121,"name":"L'Aquila","admin1":"01","country":"IT","latitude":"42.3505500","longitude":"13.3995400","fcode":"PPLA","localeAltName":null},{"geonameid":2660718,"name":"Fribourg","admin1":"FR","country":"CH","latitude":"46.8023700","longitude":"7.1512800","fcode":"PPLA","localeAltName":null},{"geonameid":5554072,"name":"Juneau","admin1":"AK","country":"US","latitude":"58.3019400","longitude":"-134.4197200","fcode":"PPLA","localeAltName":null},{"geonameid":2661169,"name":"Chur","admin1":"GR","country":"CH","latitude":"46.8498600","longitude":"9.5328700","fcode":"PPLA","localeAltName":null},{"geonameid":3182997,"name":"Aosta","admin1":"19","country":"IT","latitude":"45.7376400","longitude":"7.3172200","fcode":"PPLA","localeAltName":null},{"geonameid":2659496,"name":"Neuchâtel","admin1":"NE","country":"CH","latitude":"46.9917900","longitude":"6.9310000","fcode":"PPLA","localeAltName":null},{"geonameid":5656882,"name":"Helena","admin1":"MT","country":"US","latitude":"46.5927100","longitude":"-112.0361100","fcode":"PPLA","localeAltName":null},{"geonameid":2658576,"name":"Sitten","admin1":"VS","country":"CH","latitude":"46.2273900","longitude":"7.3555900","fcode":"PPLA","localeAltName":null},{"geonameid":4292188,"name":"Frankfort","admin1":"KY","country":"US","latitude":"38.2009100","longitude":"-84.8732800","fcode":"PPLA","localeAltName":null},{"geonameid":2657908,"name":"Zug","admin1":"ZG","country":"CH","latitude":"47.1724200","longitude":"8.5174500","fcode":"PPLA","localeAltName":null},{"geonameid":6180550,"name":"Whitehorse","admin1":"12","country":"CA","latitude":"60.7161100","longitude":"-135.0537500","fcode":"PPLA","localeAltName":null},{"geonameid":2660727,"name":"Frauenfeld","admin1":"TG","country":"CH","latitude":"47.5577600","longitude":"8.8989300","fcode":"PPLA","localeAltName":null},{"geonameid":4957003,"name":"Augusta","admin1":"ME","country":"US","latitude":"44.3106200","longitude":"-69.7794900","fcode":"PPLA","localeAltName":null},{"geonameid":2661567,"name":"Bellinzona","admin1":"TI","country":"CH","latitude":"46.1927800","longitude":"9.0170300","fcode":"PPLA","localeAltName":null},{"geonameid":6185377,"name":"Yellowknife","admin1":"13","country":"CA","latitude":"62.4541100","longitude":"-114.3724800","fcode":"PPLA","localeAltName":null},{"geonameid":2661881,"name":"Aarau","admin1":"AG","country":"CH","latitude":"47.3925400","longitude":"8.0442200","fcode":"PPLA","localeAltName":null},{"geonameid":2660365,"name":"Herisau","admin1":"AR","country":"CH","latitude":"47.3861500","longitude":"9.2791600","fcode":"PPLA","localeAltName":null},{"geonameid":2658564,"name":"Solothurn","admin1":"SO","country":"CH","latitude":"47.2079100","longitude":"7.5371400","fcode":"PPLA","localeAltName":null},{"geonameid":2658665,"name":"Schwyz","admin1":"SZ","country":"CH","latitude":"47.0207600","longitude":"8.6541400","fcode":"PPLA","localeAltName":null},{"geonameid":5767918,"name":"Pierre","admin1":"SD","country":"US","latitude":"44.3683200","longitude":"-100.3509700","fcode":"PPLA","localeAltName":null},{"geonameid":2659891,"name":"Liestal","admin1":"BL","country":"CH","latitude":"47.4845500","longitude":"7.7344600","fcode":"PPLA","localeAltName":null},{"geonameid":2661035,"name":"Delémont","admin1":"JU","country":"CH","latitude":"47.3649300","longitude":"7.3445300","fcode":"PPLA","localeAltName":null},{"geonameid":2658786,"name":"Sarnen","admin1":"OW","country":"CH","latitude":"46.8961100","longitude":"8.2453100","fcode":"PPLA","localeAltName":null},{"geonameid":2661780,"name":"Altdorf","admin1":"UR","country":"CH","latitude":"46.8804200","longitude":"8.6444100","fcode":"PPLA","localeAltName":null},{"geonameid":5238685,"name":"Montpelier","admin1":"VT","country":"US","latitude":"44.2600600","longitude":"-72.5753900","fcode":"PPLA","localeAltName":null},{"geonameid":2658504,"name":"Stans","admin1":"NW","country":"CH","latitude":"46.9580500","longitude":"8.3660900","fcode":"PPLA","localeAltName":null},{"geonameid":673150,"name":"Călăraşi","admin1":"41","country":"RO","latitude":"44.2051000","longitude":"27.3135600","fcode":"PPLA","localeAltName":null},{"geonameid":5983720,"name":"Iqaluit","admin1":"14","country":"CA","latitude":"63.7469700","longitude":"-68.5172700","fcode":"PPLA","localeAltName":null},{"geonameid":2660594,"name":"Glarus","admin1":"GL","country":"CH","latitude":"47.0405700","longitude":"9.0680400","fcode":"PPLA","localeAltName":null},{"geonameid":2661740,"name":"Appenzell","admin1":"AI","country":"CH","latitude":"47.3310300","longitude":"9.4099600","fcode":"PPLA","localeAltName":null},{"geonameid":11747336,"name":"West Ilsley","admin1":"ENG","country":"GB","latitude":"51.5399300","longitude":"-1.3236800","fcode":"PPLA","localeAltName":null}],"adm2Cities":[{"geonameid":2643743,"name":"London","admin1":"ENG","country":"GB","latitude":"51.5085300","longitude":"-0.1257400","localeAltName":null},{"geonameid":2655603,"name":"Birmingham","admin1":"ENG","country":"GB","latitude":"52.4814200","longitude":"-1.8998300","localeAltName":null},{"geonameid":2644210,"name":"Liverpool","admin1":"ENG","country":"GB","latitude":"53.4105800","longitude":"-2.9779400","localeAltName":null},{"geonameid":2638077,"name":"Sheffield","admin1":"ENG","country":"GB","latitude":"53.3829700","longitude":"-1.4659000","localeAltName":null},{"geonameid":2654675,"name":"Bristol","admin1":"ENG","country":"GB","latitude":"51.4552300","longitude":"-2.5966500","localeAltName":null},{"geonameid":2648579,"name":"Glasgow","admin1":"SCT","country":"GB","latitude":"55.8651500","longitude":"-4.2576300","localeAltName":null},{"geonameid":2644668,"name":"Leicester","admin1":"ENG","country":"GB","latitude":"52.6386000","longitude":"-1.1316900","localeAltName":null},{"geonameid":2644688,"name":"Leeds","admin1":"ENG","country":"GB","latitude":"53.7964800","longitude":"-1.5478500","localeAltName":null},{"geonameid":2643123,"name":"Manchester","admin1":"ENG","country":"GB","latitude":"53.4809500","longitude":"-2.2374300","localeAltName":null},{"geonameid":2636841,"name":"Stoke-on-Trent","admin1":"ENG","country":"GB","latitude":"53.0041500","longitude":"-2.1853800","localeAltName":null},{"geonameid":2652221,"name":"Coventry","admin1":"ENG","country":"GB","latitude":"52.4065600","longitude":"-1.5121700","localeAltName":null},{"geonameid":2636531,"name":"Sunderland","admin1":"ENG","country":"GB","latitude":"54.9046500","longitude":"-1.3822200","localeAltName":null},{"geonameid":2641170,"name":"Nottingham","admin1":"ENG","country":"GB","latitude":"52.9536000","longitude":"-1.1504700","localeAltName":null},{"geonameid":2639577,"name":"Reading","admin1":"ENG","country":"GB","latitude":"51.4562500","longitude":"-0.9711300","localeAltName":null},{"geonameid":2645425,"name":"Kingston upon Hull","admin1":"ENG","country":"GB","latitude":"53.7446000","longitude":"-0.3352500","localeAltName":"Hull"},{"geonameid":2639912,"name":"Preston","admin1":"ENG","country":"GB","latitude":"53.7628200","longitude":"-2.7045200","localeAltName":null},{"geonameid":2641598,"name":"Newport","admin1":"WLS","country":"GB","latitude":"51.5877400","longitude":"-2.9983500","localeAltName":null},{"geonameid":2636432,"name":"Swansea","admin1":"WLS","country":"GB","latitude":"51.6207900","longitude":"-3.9432300","localeAltName":null},{"geonameid":2654993,"name":"Bradford","admin1":"ENG","country":"GB","latitude":"53.7939100","longitude":"-1.7520600","localeAltName":null},{"geonameid":2637433,"name":"Southend-on-Sea","admin1":"ENG","country":"GB","latitude":"51.5378200","longitude":"0.7143300","localeAltName":null},{"geonameid":2651347,"name":"Derby","admin1":"ENG","country":"GB","latitude":"52.9227700","longitude":"-1.4766300","localeAltName":null},{"geonameid":2640194,"name":"Plymouth","admin1":"ENG","country":"GB","latitude":"50.3715300","longitude":"-4.1430500","localeAltName":null},{"geonameid":2643339,"name":"Luton","admin1":"ENG","country":"GB","latitude":"51.8796700","longitude":"-0.4174800","localeAltName":null},{"geonameid":2633691,"name":"Wolverhampton","admin1":"ENG","country":"GB","latitude":"52.5854700","longitude":"-2.1229600","localeAltName":null},{"geonameid":2637487,"name":"Southampton","admin1":"ENG","country":"GB","latitude":"50.9039500","longitude":"-1.4042800","localeAltName":null},{"geonameid":2655459,"name":"Blackpool","admin1":"ENG","country":"GB","latitude":"53.8166700","longitude":"-3.0500000","localeAltName":null},{"geonameid":2642465,"name":"Milton Keynes","admin1":"ENG","country":"GB","latitude":"52.0417200","longitude":"-0.7558300","localeAltName":null},{"geonameid":2641430,"name":"Northampton","admin1":"ENG","country":"GB","latitude":"52.2500000","longitude":"-0.8833300","localeAltName":null},{"geonameid":2641181,"name":"Norwich","admin1":"ENG","country":"GB","latitude":"52.6278300","longitude":"1.2983400","localeAltName":null},{"geonameid":2650839,"name":"Dudley","admin1":"ENG","country":"GB","latitude":"52.5000000","longitude":"-2.0833300","localeAltName":null},{"geonameid":2657832,"name":"Aberdeen","admin1":"SCT","country":"GB","latitude":"57.1436900","longitude":"-2.0981400","localeAltName":null},{"geonameid":2639996,"name":"Portsmouth","admin1":"ENG","country":"GB","latitude":"50.7989900","longitude":"-1.0912500","localeAltName":null},{"geonameid":2641673,"name":"Newcastle upon Tyne","admin1":"ENG","country":"GB","latitude":"54.9732800","longitude":"-1.6139600","localeAltName":null},{"geonameid":2636389,"name":"Swindon","admin1":"ENG","country":"GB","latitude":"51.5579700","longitude":"-1.7811600","localeAltName":null},{"geonameid":2646057,"name":"Ipswich","admin1":"ENG","country":"GB","latitude":"52.0591700","longitude":"1.1554500","localeAltName":null},{"geonameid":2633948,"name":"Wigan","admin1":"ENG","country":"GB","latitude":"53.5429600","longitude":"-2.6370600","localeAltName":null},{"geonameid":2634853,"name":"Walsall","admin1":"ENG","country":"GB","latitude":"52.5852800","longitude":"-1.9839600","localeAltName":null},{"geonameid":2640729,"name":"Oxford","admin1":"ENG","country":"GB","latitude":"51.7522200","longitude":"-1.2559600","localeAltName":null},{"geonameid":2634739,"name":"Warrington","admin1":"ENG","country":"GB","latitude":"53.3925400","longitude":"-2.5802400","localeAltName":null},{"geonameid":2637627,"name":"Slough","admin1":"ENG","country":"GB","latitude":"51.5094900","longitude":"-0.5954100","localeAltName":null},{"geonameid":2655095,"name":"Bournemouth","admin1":"ENG","country":"GB","latitude":"50.7204800","longitude":"-1.8795000","localeAltName":null},{"geonameid":2640354,"name":"Peterborough","admin1":"ENG","country":"GB","latitude":"52.5736400","longitude":"-0.2477700","localeAltName":null},{"geonameid":2653941,"name":"Cambridge","admin1":"ENG","country":"GB","latitude":"52.2000000","longitude":"0.1166700","localeAltName":null},{"geonameid":2651123,"name":"Doncaster","admin1":"ENG","country":"GB","latitude":"53.5228500","longitude":"-1.1311600","localeAltName":null},{"geonameid":2633352,"name":"York","admin1":"ENG","country":"GB","latitude":"53.9576300","longitude":"-1.0827100","localeAltName":null},{"geonameid":2640101,"name":"Poole","admin1":"ENG","country":"GB","latitude":"50.7142900","longitude":"-1.9845800","localeAltName":null},{"geonameid":2648404,"name":"Gloucester","admin1":"ENG","country":"GB","latitude":"51.8656800","longitude":"-2.2431000","localeAltName":null},{"geonameid":2646458,"name":"Huddersfield","admin1":"ENG","country":"GB","latitude":"53.6490400","longitude":"-1.7841600","localeAltName":null},{"geonameid":3345439,"name":"Telford","admin1":"ENG","country":"GB","latitude":"52.6765900","longitude":"-2.4492600","localeAltName":null},{"geonameid":2650752,"name":"Dundee","admin1":"SCT","country":"GB","latitude":"56.4691300","longitude":"-2.9748900","localeAltName":null},{"geonameid":2655524,"name":"Blackburn","admin1":"ENG","country":"GB","latitude":"53.7500000","longitude":"-2.4833300","localeAltName":null},{"geonameid":2642607,"name":"Middlesbrough","admin1":"ENG","country":"GB","latitude":"54.5762300","longitude":"-1.2348300","localeAltName":null},{"geonameid":2655237,"name":"Bolton","admin1":"ENG","country":"GB","latitude":"53.5833300","longitude":"-2.4333300","localeAltName":null},{"geonameid":2636882,"name":"Stockport","admin1":"ENG","country":"GB","latitude":"53.4097900","longitude":"-2.1576100","localeAltName":null},{"geonameid":2654710,"name":"Brighton","admin1":"ENG","country":"GB","latitude":"50.8283800","longitude":"-0.1394700","localeAltName":null},{"geonameid":2647878,"name":"Grimsby","admin1":"ENG","country":"GB","latitude":"53.5653900","longitude":"-0.0755300","localeAltName":null},{"geonameid":2649808,"name":"Exeter","admin1":"ENG","country":"GB","latitude":"50.7236000","longitude":"-3.5275100","localeAltName":null},{"geonameid":2639093,"name":"Rotherham","admin1":"ENG","country":"GB","latitude":"53.4301200","longitude":"-1.3567800","localeAltName":null},{"geonameid":2644487,"name":"Lincoln","admin1":"ENG","country":"GB","latitude":"53.2268300","longitude":"-0.5379200","localeAltName":null},{"geonameid":2653266,"name":"Chelmsford","admin1":"ENG","country":"GB","latitude":"51.7357500","longitude":"0.4695800","localeAltName":null},{"geonameid":2643179,"name":"Maidstone","admin1":"ENG","country":"GB","latitude":"51.2666700","longitude":"0.5166700","localeAltName":null},{"geonameid":2656046,"name":"Bedford","admin1":"ENG","country":"GB","latitude":"52.1345900","longitude":"-0.4663200","localeAltName":null},{"geonameid":2641022,"name":"Oldham","admin1":"ENG","country":"GB","latitude":"53.5405100","longitude":"-2.1183000","localeAltName":null},{"geonameid":2638785,"name":"St Helens","admin1":"ENG","country":"GB","latitude":"53.4500000","longitude":"-2.7333300","localeAltName":null},{"geonameid":2633563,"name":"Worcester","admin1":"ENG","country":"GB","latitude":"52.1893500","longitude":"-2.2200100","localeAltName":"Worcester"},{"geonameid":2639272,"name":"Rochdale","admin1":"ENG","country":"GB","latitude":"53.6176600","longitude":"-2.1552000","localeAltName":null},{"geonameid":2637546,"name":"Solihull","admin1":"ENG","country":"GB","latitude":"52.4142600","longitude":"-1.7809400","localeAltName":null},{"geonameid":2656173,"name":"Bath","admin1":"ENG","country":"GB","latitude":"51.3751000","longitude":"-2.3617200","localeAltName":null},{"geonameid":2651513,"name":"Darlington","admin1":"ENG","country":"GB","latitude":"54.5242900","longitude":"-1.5503900","localeAltName":null},{"geonameid":2637343,"name":"Southport","admin1":"ENG","country":"GB","latitude":"53.6458100","longitude":"-3.0100800","localeAltName":null},{"geonameid":2653228,"name":"Chester","admin1":"ENG","country":"GB","latitude":"53.1905000","longitude":"-2.8918900","localeAltName":null},{"geonameid":2648182,"name":"Grays","admin1":"ENG","country":"GB","latitude":"51.4756600","longitude":"0.3252100","localeAltName":null},{"geonameid":2647400,"name":"Hartlepool","admin1":"ENG","country":"GB","latitude":"54.6855400","longitude":"-1.2102800","localeAltName":null},{"geonameid":2637329,"name":"South Shields","admin1":"ENG","country":"GB","latitude":"54.9985900","longitude":"-1.4323000","localeAltName":null},{"geonameid":2643736,"name":"Derry","admin1":"NIR","country":"GB","latitude":"54.9981000","longitude":"-7.3093400","localeAltName":"Londonderry"},{"geonameid":2634308,"name":"Weston-super-Mare","admin1":"ENG","country":"GB","latitude":"51.3460300","longitude":"-2.9766500","localeAltName":null},{"geonameid":2647632,"name":"Halifax","admin1":"ENG","country":"GB","latitude":"53.7166700","longitude":"-1.8500000","localeAltName":null},{"geonameid":2638324,"name":"Scunthorpe","admin1":"ENG","country":"GB","latitude":"53.5790500","longitude":"-0.6543700","localeAltName":null},{"geonameid":2636876,"name":"Stockton-on-Tees","admin1":"ENG","country":"GB","latitude":"54.5684800","longitude":"-1.3187000","localeAltName":null},{"geonameid":2634910,"name":"Wakefield","admin1":"ENG","country":"GB","latitude":"53.6833100","longitude":"-1.4976800","localeAltName":null},{"geonameid":2653775,"name":"Carlisle","admin1":"ENG","country":"GB","latitude":"54.8951000","longitude":"-2.9382000","localeAltName":null},{"geonameid":2648773,"name":"Gateshead","admin1":"ENG","country":"GB","latitude":"54.9620900","longitude":"-1.6016800","localeAltName":null},{"geonameid":2644411,"name":"Lisburn","admin1":"NIR","country":"GB","latitude":"54.5233700","longitude":"-6.0352700","localeAltName":null},{"geonameid":2640677,"name":"Paisley","admin1":"SCT","country":"GB","latitude":"55.8317300","longitude":"-4.4325400","localeAltName":null},{"geonameid":2655009,"name":"Bracknell","admin1":"ENG","country":"GB","latitude":"51.4136300","longitude":"-0.7505400","localeAltName":null},{"geonameid":2656719,"name":"Aylesbury","admin1":"ENG","country":"GB","latitude":"51.8166500","longitude":"-0.8145800","localeAltName":null},{"geonameid":2638671,"name":"Salford","admin1":"ENG","country":"GB","latitude":"53.4877100","longitude":"-2.2904200","localeAltName":null},{"geonameid":2637891,"name":"Shrewsbury","admin1":"ENG","country":"GB","latitude":"52.7100900","longitude":"-2.7520800","localeAltName":null},{"geonameid":2656284,"name":"Barnsley","admin1":"ENG","country":"GB","latitude":"53.5500000","longitude":"-1.4833300","localeAltName":null},{"geonameid":2637142,"name":"Stafford","admin1":"ENG","country":"GB","latitude":"52.8052100","longitude":"-2.1163600","localeAltName":null},{"geonameid":2633485,"name":"Wrexham","admin1":"WLS","country":"GB","latitude":"53.0466400","longitude":"-2.9913200","localeAltName":null},{"geonameid":2635650,"name":"Torquay","admin1":"ENG","country":"GB","latitude":"50.4619800","longitude":"-3.5252200","localeAltName":null},{"geonameid":2643186,"name":"Maidenhead","admin1":"ENG","country":"GB","latitude":"51.5227900","longitude":"-0.7198600","localeAltName":null},{"geonameid":2636177,"name":"Taunton","admin1":"ENG","country":"GB","latitude":"51.0149400","longitude":"-3.1029300","localeAltName":null},{"geonameid":2641520,"name":"Newtownabbey","admin1":"NIR","country":"GB","latitude":"54.6598300","longitude":"-5.9085800","localeAltName":null},{"geonameid":2633954,"name":"Widnes","admin1":"ENG","country":"GB","latitude":"53.3618000","longitude":"-2.7340600","localeAltName":null},{"geonameid":2654187,"name":"Bury","admin1":"ENG","country":"GB","latitude":"53.6000000","longitude":"-2.3000000","localeAltName":null},{"geonameid":2647074,"name":"Hereford","admin1":"ENG","country":"GB","latitude":"52.0568400","longitude":"-2.7148200","localeAltName":null},{"geonameid":2656396,"name":"Bangor","admin1":"NIR","country":"GB","latitude":"54.6607900","longitude":"-5.6680200","localeAltName":null},{"geonameid":3345440,"name":"Craigavon","admin1":"NIR","country":"GB","latitude":"54.4470900","longitude":"-6.3870000","localeAltName":null},{"geonameid":2634873,"name":"Wallasey","admin1":"ENG","country":"GB","latitude":"53.4232400","longitude":"-3.0649700","localeAltName":null},{"geonameid":2654755,"name":"Bridgend","admin1":"WLS","country":"GB","latitude":"51.5058300","longitude":"-3.5772200","localeAltName":null},{"geonameid":2653558,"name":"Castlereagh","admin1":"NIR","country":"GB","latitude":"54.5735000","longitude":"-5.8847200","localeAltName":null},{"geonameid":2644204,"name":"Livingston","admin1":"SCT","country":"GB","latitude":"55.9028800","longitude":"-3.5226100","localeAltName":null},{"geonameid":2656235,"name":"Barry","admin1":"WLS","country":"GB","latitude":"51.3997900","longitude":"-3.2838000","localeAltName":null},{"geonameid":2647570,"name":"Hamilton","admin1":"SCT","country":"GB","latitude":"55.7666700","longitude":"-4.0333300","localeAltName":null},{"geonameid":2650628,"name":"Durham","admin1":"ENG","country":"GB","latitude":"54.7767600","longitude":"-1.5756600","localeAltName":null},{"geonameid":2656708,"name":"Ayr","admin1":"SCT","country":"GB","latitude":"55.4627300","longitude":"-4.6339300","localeAltName":null},{"geonameid":2640358,"name":"Perth","admin1":"SCT","country":"GB","latitude":"56.3952200","longitude":"-3.4313900","localeAltName":null},{"geonameid":2646088,"name":"Inverness","admin1":"SCT","country":"GB","latitude":"57.4790800","longitude":"-4.2239800","localeAltName":null},{"geonameid":2645605,"name":"Kilmarnock","admin1":"SCT","country":"GB","latitude":"55.6117100","longitude":"-4.4958100","localeAltName":null},{"geonameid":2633858,"name":"Winchester","admin1":"ENG","country":"GB","latitude":"51.0651300","longitude":"-1.3187000","localeAltName":null},{"geonameid":2642705,"name":"Merthyr Tydfil","admin1":"WLS","country":"GB","latitude":"51.7479400","longitude":"-3.3777900","localeAltName":null},{"geonameid":2647948,"name":"Greenock","admin1":"SCT","country":"GB","latitude":"55.9483800","longitude":"-4.7612100","localeAltName":null},{"geonameid":2656915,"name":"Ashton-under-Lyne","admin1":"ENG","country":"GB","latitude":"53.4887600","longitude":"-2.0989000","localeAltName":null},{"geonameid":2634864,"name":"Wallsend","admin1":"ENG","country":"GB","latitude":"54.9911100","longitude":"-1.5339700","localeAltName":null},{"geonameid":2636663,"name":"Stretford","admin1":"ENG","country":"GB","latitude":"53.4500000","longitude":"-2.3166700","localeAltName":null},{"geonameid":2633708,"name":"Wokingham","admin1":"ENG","country":"GB","latitude":"51.4112000","longitude":"-0.8356500","localeAltName":null},{"geonameid":2635427,"name":"Trowbridge","admin1":"ENG","country":"GB","latitude":"51.3188900","longitude":"-2.2086100","localeAltName":null},{"geonameid":2648438,"name":"Glenrothes","admin1":"SCT","country":"GB","latitude":"56.1951400","longitude":"-3.1731600","localeAltName":null},{"geonameid":2636910,"name":"Stirling","admin1":"SCT","country":"GB","latitude":"56.1190300","longitude":"-3.9368200","localeAltName":null},{"geonameid":2640106,"name":"Pontypool","admin1":"WLS","country":"GB","latitude":"51.7011100","longitude":"-3.0444400","localeAltName":null},{"geonameid":2649723,"name":"Falkirk","admin1":"SCT","country":"GB","latitude":"56.0021000","longitude":"-3.7853500","localeAltName":null},{"geonameid":2646032,"name":"Irvine","admin1":"SCT","country":"GB","latitude":"55.6194000","longitude":"-4.6550800","localeAltName":null},{"geonameid":2650798,"name":"Dumfries","admin1":"SCT","country":"GB","latitude":"55.0695900","longitude":"-3.6113900","localeAltName":null},{"geonameid":2650285,"name":"Ebbw Vale","admin1":"WLS","country":"GB","latitude":"51.7771400","longitude":"-3.2079200","localeAltName":null},{"geonameid":2641689,"name":"Newbury","admin1":"ENG","country":"GB","latitude":"51.4014800","longitude":"-1.3247100","localeAltName":null},{"geonameid":2642135,"name":"Motherwell","admin1":"SCT","country":"GB","latitude":"55.7892400","longitude":"-3.9918700","localeAltName":null},{"geonameid":2653192,"name":"Chichester","admin1":"ENG","country":"GB","latitude":"50.8367300","longitude":"-0.7800300","localeAltName":null},{"geonameid":2655785,"name":"Beverley","admin1":"ENG","country":"GB","latitude":"53.8458700","longitude":"-0.4233200","localeAltName":null},{"geonameid":2641519,"name":"Newtownards","admin1":"NIR","country":"GB","latitude":"54.5923600","longitude":"-5.6909200","localeAltName":null},{"geonameid":2653680,"name":"Carrickfergus","admin1":"NIR","country":"GB","latitude":"54.7158000","longitude":"-5.8058000","localeAltName":null},{"geonameid":2656490,"name":"Ballymena","admin1":"NIR","country":"GB","latitude":"54.8635700","longitude":"-6.2762800","localeAltName":null},{"geonameid":2639268,"name":"Rochester","admin1":"ENG","country":"GB","latitude":"51.3876400","longitude":"0.5054600","localeAltName":null},{"geonameid":2641581,"name":"Newry","admin1":"NIR","country":"GB","latitude":"54.1784100","longitude":"-6.3373900","localeAltName":null},{"geonameid":2647044,"name":"Hertford","admin1":"ENG","country":"GB","latitude":"51.7958800","longitude":"-0.0785400","localeAltName":null},{"geonameid":2652586,"name":"Coleraine","admin1":"NIR","country":"GB","latitude":"55.1333300","longitude":"-6.6666700","localeAltName":null},{"geonameid":2641599,"name":"Newport","admin1":"ENG","country":"GB","latitude":"50.7014600","longitude":"-1.2912400","localeAltName":null},{"geonameid":2634725,"name":"Warwick","admin1":"ENG","country":"GB","latitude":"52.2833300","longitude":"-1.5833300","localeAltName":null},{"geonameid":2635412,"name":"Truro","admin1":"ENG","country":"GB","latitude":"50.2652600","longitude":"-5.0543600","localeAltName":null},{"geonameid":2650122,"name":"Elgin","admin1":"SCT","country":"GB","latitude":"57.6494700","longitude":"-3.3184300","localeAltName":null},{"geonameid":2640967,"name":"Omagh","admin1":"NIR","country":"GB","latitude":"54.6000000","longitude":"-7.3000000","localeAltName":null},{"geonameid":2657471,"name":"Alloa","admin1":"SCT","country":"GB","latitude":"56.1158600","longitude":"-3.7899700","localeAltName":null},{"geonameid":2650802,"name":"Dumbarton","admin1":"SCT","country":"GB","latitude":"55.9443300","longitude":"-4.5706100","localeAltName":null},{"geonameid":2657255,"name":"Antrim","admin1":"NIR","country":"GB","latitude":"54.7175000","longitude":"-6.2110000","localeAltName":null},{"geonameid":2645261,"name":"Kirkintilloch","admin1":"SCT","country":"GB","latitude":"55.9393300","longitude":"-4.1526200","localeAltName":null},{"geonameid":2644849,"name":"Larne","admin1":"NIR","country":"GB","latitude":"54.8500000","longitude":"-5.8166700","localeAltName":null},{"geonameid":2644559,"name":"Lewes","admin1":"ENG","country":"GB","latitude":"50.8739800","longitude":"0.0088000","localeAltName":null},{"geonameid":2651101,"name":"Dorchester","admin1":"ENG","country":"GB","latitude":"50.7166700","longitude":"-2.4333300","localeAltName":null},{"geonameid":2641435,"name":"Northallerton","admin1":"ENG","country":"GB","latitude":"54.3390100","longitude":"-1.4324300","localeAltName":null},{"geonameid":2656407,"name":"Banbridge","admin1":"NIR","country":"GB","latitude":"54.3500000","longitude":"-6.2833300","localeAltName":null},{"geonameid":2653755,"name":"Carmarthen","admin1":"WLS","country":"GB","latitude":"51.8555200","longitude":"-4.3053500","localeAltName":null},{"geonameid":2642910,"name":"Matlock","admin1":"ENG","country":"GB","latitude":"53.1383800","longitude":"-1.5556000","localeAltName":null},{"geonameid":2657060,"name":"Armagh","admin1":"NIR","country":"GB","latitude":"54.3500000","longitude":"-6.6666700","localeAltName":null},{"geonameid":2647311,"name":"Haverfordwest","admin1":"WLS","country":"GB","latitude":"51.8016900","longitude":"-4.9691400","localeAltName":null},{"geonameid":2649984,"name":"Enniskillen","admin1":"NIR","country":"GB","latitude":"54.3461500","longitude":"-7.6413300","localeAltName":null},{"geonameid":2636744,"name":"Strabane","admin1":"NIR","country":"GB","latitude":"54.8237300","longitude":"-7.4691600","localeAltName":null},{"geonameid":2649207,"name":"Forfar","admin1":"SCT","country":"GB","latitude":"56.6438200","longitude":"-2.8900100","localeAltName":null},{"geonameid":2644501,"name":"Limavady","admin1":"NIR","country":"GB","latitude":"55.0504500","longitude":"-6.9507400","localeAltName":null},{"geonameid":2651587,"name":"Dalkeith","admin1":"SCT","country":"GB","latitude":"55.8931700","longitude":"-3.0680600","localeAltName":null},{"geonameid":2648683,"name":"Giffnock","admin1":"SCT","country":"GB","latitude":"55.8037300","longitude":"-4.2948800","localeAltName":null},{"geonameid":2650729,"name":"Dungannon","admin1":"NIR","country":"GB","latitude":"54.5034400","longitude":"-6.7672300","localeAltName":null},{"geonameid":2636002,"name":"Thornbury","admin1":"ENG","country":"GB","latitude":"51.6088900","longitude":"-2.5202800","localeAltName":null},{"geonameid":2652417,"name":"Cookstown","admin1":"NIR","country":"GB","latitude":"54.6430500","longitude":"-6.7459500","localeAltName":null},{"geonameid":2641128,"name":"Oakham","admin1":"ENG","country":"GB","latitude":"52.6666700","longitude":"-0.7333300","localeAltName":null},{"geonameid":2641036,"name":"Oldbury","admin1":"ENG","country":"GB","latitude":"52.5000000","longitude":"-2.0166700","localeAltName":null},{"geonameid":2651023,"name":"Downpatrick","admin1":"NIR","country":"GB","latitude":"54.3281400","longitude":"-5.7152900","localeAltName":null},{"geonameid":2642372,"name":"Mold","admin1":"WLS","country":"GB","latitude":"53.1667400","longitude":"-3.1414300","localeAltName":null},{"geonameid":2648484,"name":"Glenfield","admin1":"ENG","country":"GB","latitude":"52.6466000","longitude":"-1.1949300","localeAltName":null},{"geonameid":2654092,"name":"Caernarfon","admin1":"WLS","country":"GB","latitude":"53.1412600","longitude":"-4.2701600","localeAltName":null},{"geonameid":2656488,"name":"Ballymoney","admin1":"NIR","country":"GB","latitude":"55.0708000","longitude":"-6.5100900","localeAltName":null},{"geonameid":2643208,"name":"Magherafelt","admin1":"NIR","country":"GB","latitude":"54.7535600","longitude":"-6.6065600","localeAltName":null},{"geonameid":2647686,"name":"Haddington","admin1":"SCT","country":"GB","latitude":"55.9561200","longitude":"-2.7833200","localeAltName":null},{"geonameid":2636790,"name":"Stornoway","admin1":"SCT","country":"GB","latitude":"58.2092500","longitude":"-6.3864900","localeAltName":null},{"geonameid":2645198,"name":"Kirkwall","admin1":"SCT","country":"GB","latitude":"58.9847900","longitude":"-2.9587300","localeAltName":null},{"geonameid":2644605,"name":"Lerwick","admin1":"SCT","country":"GB","latitude":"60.1533900","longitude":"-1.1442700","localeAltName":null},{"geonameid":2656531,"name":"Ballycastle","admin1":"NIR","country":"GB","latitude":"55.2044400","longitude":"-6.2429800","localeAltName":null},{"geonameid":2638925,"name":"Ruthin","admin1":"WLS","country":"GB","latitude":"53.1136800","longitude":"-3.3178200","localeAltName":null},{"geonameid":2644122,"name":"Llandrindod Wells","admin1":"WLS","country":"GB","latitude":"52.2416400","longitude":"-3.3786800","localeAltName":null},{"geonameid":2644037,"name":"Llangefni","admin1":"WLS","country":"GB","latitude":"53.2556100","longitude":"-4.3106300","localeAltName":null},{"geonameid":2652426,"name":"Conwy","admin1":"WLS","country":"GB","latitude":"53.2807700","longitude":"-3.8303900","localeAltName":null},{"geonameid":2643825,"name":"Lochgilphead","admin1":"SCT","country":"GB","latitude":"56.0379600","longitude":"-5.4320600","localeAltName":null},{"geonameid":2657850,"name":"Aberaeron","admin1":"WLS","country":"GB","latitude":"52.2424700","longitude":"-4.2587100","localeAltName":null},{"geonameid":2641513,"name":"Newtown St Boswells","admin1":"SCT","country":"GB","latitude":"55.5788700","longitude":"-2.6687400","localeAltName":null},{"geonameid":12104476,"name":"Saint Andrews Quay","admin1":"ENG","country":"GB","latitude":"53.7272200","longitude":"-0.3761800","localeAltName":null},{"geonameid":2639989,"name":"Port Talbot","admin1":"WLS","country":"GB","latitude":"51.5924100","longitude":"-3.7801900","localeAltName":null},{"geonameid":11951657,"name":"Sauchen","admin1":"SCT","country":"GB","latitude":"57.1868500","longitude":"-2.4986800","localeAltName":null},{"geonameid":11902915,"name":"Clubmoor","admin1":"ENG","country":"GB","latitude":"53.4333200","longitude":"-2.9335800","localeAltName":null},{"geonameid":11591741,"name":"Highland","admin1":"SCT","country":"GB","latitude":"57.4856600","longitude":"-4.2282300","localeAltName":null},{"geonameid":2633332,"name":"Ystrad Mynach","admin1":"WLS","country":"GB","latitude":"51.6427600","longitude":"-3.2362000","localeAltName":null},{"geonameid":3345284,"name":"Clydach Vale","admin1":"WLS","country":"GB","latitude":"51.6266500","longitude":"-3.4801500","localeAltName":null},{"geonameid":2645097,"name":"Knowsley","admin1":"ENG","country":"GB","latitude":"53.4540100","longitude":"-2.8539600","localeAltName":null},{"geonameid":2637483,"name":"South Bank","admin1":"ENG","country":"GB","latitude":"54.5666700","longitude":"-1.1500000","localeAltName":null}],"countries":[{"geonameid":6251999,"name":"Canada","country":"CA","localeAltName":null},{"geonameid":2921044,"name":"Federal Republic of Germany","country":"DE","localeAltName":"Germany"},{"geonameid":3175395,"name":"Italian Republic","country":"IT","localeAltName":null},{"geonameid":2750405,"name":"Kingdom of the Netherlands","country":"NL","localeAltName":"Netherlands"},{"geonameid":798549,"name":"România","country":"RO","localeAltName":null},{"geonameid":2658434,"name":"Switzerland","country":"CH","localeAltName":"Switzerland"},{"geonameid":2635167,"name":"United Kingdom of Great Britain and Northern Ireland","country":"GB","localeAltName":"United Kingdom"},{"geonameid":6252001,"name":"United States","country":"US","localeAltName":null}]},"__N_SSG":true}