{"pageProps":{"locale":"ro","admin2":{"geonameid":8334981,"name":"Comuna Cungrea","country":"RO","admin1":"29","admin2":"126503","admin3":"","latitude":"44.6849700","longitude":"24.3927400"},"admin1":{"geonameid":671857,"name":"Olt","admin1":"29"},"locations":[{"geonameid":686514,"name":"Aldeşti","asciiname":"Aldesti","alternatenames":"Aldesti,Aldeşti,Otesti,Oteşti","latitude":"44.7000000","longitude":"24.3833300","fclass":"P","fcode":"PPL","country":"RO","cc2":"","admin1":"29","admin2":"126503","admin3":"","admin4":"","population":0,"elevation":0,"gtopo30":217,"timezone":"Europe/Bucharest","moddate":"2016-02-07T00:00:00.000Z"},{"geonameid":682411,"name":"Cepești","asciiname":"Cepesti","alternatenames":"Cepesti,Cepestii,Cepeşti,Cepeştii","latitude":"44.7120400","longitude":"24.3856800","fclass":"P","fcode":"PPL","country":"RO","cc2":"RO","admin1":"29","admin2":"126503","admin3":"","admin4":"","population":378,"elevation":0,"gtopo30":226,"timezone":"Europe/Bucharest","moddate":"2013-04-21T00:00:00.000Z"},{"geonameid":682388,"name":"Cerbeni","asciiname":"Cerbeni","alternatenames":"Cerbeni,Cerbenii","latitude":"44.7333300","longitude":"24.3833300","fclass":"P","fcode":"PPL","country":"RO","cc2":"","admin1":"29","admin2":"126503","admin3":"","admin4":"","population":0,"elevation":0,"gtopo30":321,"timezone":"Europe/Bucharest","moddate":"2016-02-07T00:00:00.000Z"},{"geonameid":679959,"name":"Cungrea","asciiname":"Cungrea","alternatenames":"Cungrea","latitude":"44.6666700","longitude":"24.3833300","fclass":"P","fcode":"PPLA2","country":"RO","cc2":"","admin1":"29","admin2":"126503","admin3":"","admin4":"","population":2542,"elevation":0,"gtopo30":211,"timezone":"Europe/Bucharest","moddate":"2012-06-12T00:00:00.000Z"},{"geonameid":675786,"name":"Ibănești","asciiname":"Ibanesti","alternatenames":"","latitude":"44.6471400","longitude":"24.3850600","fclass":"P","fcode":"PPL","country":"RO","cc2":"","admin1":"29","admin2":"126503","admin3":"","admin4":"","population":281,"elevation":0,"gtopo30":190,"timezone":"Europe/Bucharest","moddate":"2013-04-21T00:00:00.000Z"},{"geonameid":673423,"name":"Miești","asciiname":"Miesti","alternatenames":"","latitude":"44.6602300","longitude":"24.4151800","fclass":"P","fcode":"PPL","country":"RO","cc2":"","admin1":"29","admin2":"126503","admin3":"","admin4":"","population":290,"elevation":0,"gtopo30":281,"timezone":"Europe/Bucharest","moddate":"2013-04-21T00:00:00.000Z"},{"geonameid":671597,"name":"Oteștii de Jos","asciiname":"Otestii de Jos","alternatenames":"","latitude":"44.6925300","longitude":"24.3814600","fclass":"P","fcode":"PPL","country":"RO","cc2":"","admin1":"29","admin2":"126503","admin3":"","admin4":"","population":459,"elevation":0,"gtopo30":212,"timezone":"Europe/Bucharest","moddate":"2013-04-21T00:00:00.000Z"},{"geonameid":671596,"name":"Oteștii de Sus","asciiname":"Otestii de Sus","alternatenames":"","latitude":"44.7178600","longitude":"24.3875600","fclass":"P","fcode":"PPL","country":"RO","cc2":"","admin1":"29","admin2":"126503","admin3":"","admin4":"","population":363,"elevation":0,"gtopo30":237,"timezone":"Europe/Bucharest","moddate":"2013-04-21T00:00:00.000Z"},{"geonameid":669909,"name":"Popeşti","asciiname":"Popesti","alternatenames":"","latitude":"44.7166700","longitude":"24.4166700","fclass":"P","fcode":"PPL","country":"RO","cc2":"","admin1":"29","admin2":"126503","admin3":"","admin4":"","population":0,"elevation":0,"gtopo30":268,"timezone":"Europe/Bucharest","moddate":"2016-02-07T00:00:00.000Z"},{"geonameid":666375,"name":"Spătaru","asciiname":"Spataru","alternatenames":"Spataru,Spatarul,Spătaru,Spătarul","latitude":"44.6978200","longitude":"24.4124400","fclass":"P","fcode":"PPL","country":"RO","cc2":"RO","admin1":"29","admin2":"126503","admin3":"","admin4":"","population":430,"elevation":0,"gtopo30":225,"timezone":"Europe/Bucharest","moddate":"2013-04-21T00:00:00.000Z"},{"geonameid":664130,"name":"Urluiasca","asciiname":"Urluiasca","alternatenames":"","latitude":"44.6666700","longitude":"24.3833300","fclass":"P","fcode":"PPL","country":"RO","cc2":"","admin1":"29","admin2":"126503","admin3":"","admin4":"","population":0,"elevation":0,"gtopo30":211,"timezone":"Europe/Bucharest","moddate":"2016-02-07T00:00:00.000Z"},{"geonameid":663323,"name":"Valea Vai de Ei","asciiname":"Valea Vai de Ei","alternatenames":"","latitude":"44.6666700","longitude":"24.4166700","fclass":"P","fcode":"PPL","country":"RO","cc2":"","admin1":"29","admin2":"126503","admin3":"","admin4":"","population":0,"elevation":0,"gtopo30":267,"timezone":"Europe/Bucharest","moddate":"2016-02-07T00:00:00.000Z"}],"admin3":[],"alternateNames":[]},"__N_SSG":true}