{"pageProps":{"locale":"ro","admin2":{"geonameid":675455,"name":"Comuna Iteşti","country":"RO","admin1":"04","admin2":"26379","admin3":"","latitude":"46.6736800","longitude":"26.8555500"},"admin1":{"geonameid":685947,"name":"Bacău","admin1":"04"},"locations":[{"geonameid":684194,"name":"Borleanu","asciiname":"Borleanu","alternatenames":"Borleanu,Borleanul,Borlesti,Borleşti,Burlesti,Burleşti","latitude":"46.6833300","longitude":"26.8166700","fclass":"P","fcode":"PPL","country":"RO","cc2":"","admin1":"04","admin2":"26379","admin3":"","admin4":"","population":0,"elevation":0,"gtopo30":248,"timezone":"Europe/Bucharest","moddate":"2016-02-07T00:00:00.000Z"},{"geonameid":681434,"name":"Ciumași","asciiname":"Ciumasi","alternatenames":"Ciumasi,Ciumaşi,Ciuniasi","latitude":"46.6778300","longitude":"26.8388500","fclass":"P","fcode":"PPL","country":"RO","cc2":"RO","admin1":"04","admin2":"26379","admin3":"","admin4":"","population":221,"elevation":0,"gtopo30":297,"timezone":"Europe/Bucharest","moddate":"2013-04-21T00:00:00.000Z"},{"geonameid":678744,"name":"Dumbrava","asciiname":"Dumbrava","alternatenames":"","latitude":"46.6713000","longitude":"26.9028900","fclass":"P","fcode":"PPL","country":"RO","cc2":"","admin1":"04","admin2":"26379","admin3":"","admin4":"","population":215,"elevation":0,"gtopo30":196,"timezone":"Europe/Bucharest","moddate":"2013-04-21T00:00:00.000Z"},{"geonameid":678483,"name":"Făgețel","asciiname":"Fagetel","alternatenames":"Fagetel,Fagetelul,Făgetelul,Făgeţel","latitude":"46.6876900","longitude":"26.8157700","fclass":"P","fcode":"PPL","country":"RO","cc2":"RO","admin1":"04","admin2":"26379","admin3":"","admin4":"","population":5,"elevation":0,"gtopo30":302,"timezone":"Europe/Bucharest","moddate":"2013-04-21T00:00:00.000Z"},{"geonameid":675456,"name":"Iteşti","asciiname":"Itesti","alternatenames":"","latitude":"46.6530900","longitude":"26.8725600","fclass":"P","fcode":"PPLA2","country":"RO","cc2":"","admin1":"04","admin2":"26379","admin3":"","admin4":"","population":0,"elevation":0,"gtopo30":241,"timezone":"Europe/Bucharest","moddate":"2012-06-12T00:00:00.000Z"}],"admin3":[],"alternateNames":[]},"__N_SSG":true}