{"pageProps":{"locale":"ro","admin2":{"geonameid":673944,"name":"Comuna Mănăştiur","country":"RO","admin1":"36","admin2":"157736","admin3":"","latitude":"45.8680800","longitude":"22.0532900"},"admin1":{"geonameid":665091,"name":"Timiş","admin1":"36"},"locations":[{"geonameid":673945,"name":"Mănăştiur","asciiname":"Manastiur","alternatenames":"Manastiur,Mănăştiur","latitude":"45.8166700","longitude":"22.0666700","fclass":"P","fcode":"PPLA2","country":"RO","cc2":"","admin1":"36","admin2":"157736","admin3":"","admin4":"","population":1757,"elevation":0,"gtopo30":151,"timezone":"Europe/Bucharest","moddate":"2012-06-12T00:00:00.000Z"},{"geonameid":671549,"name":"Pădurani","asciiname":"Padurani","alternatenames":"","latitude":"45.8785600","longitude":"22.0626100","fclass":"P","fcode":"PPL","country":"RO","cc2":"","admin1":"36","admin2":"157736","admin3":"","admin4":"","population":107,"elevation":0,"gtopo30":154,"timezone":"Europe/Bucharest","moddate":"2013-04-21T00:00:00.000Z"},{"geonameid":668981,"name":"Remetea-Luncă","asciiname":"Remetea-Lunca","alternatenames":"","latitude":"45.8633600","longitude":"22.0455500","fclass":"P","fcode":"PPL","country":"RO","cc2":"","admin1":"36","admin2":"157736","admin3":"","admin4":"","population":418,"elevation":0,"gtopo30":142,"timezone":"Europe/Bucharest","moddate":"2013-04-21T00:00:00.000Z"},{"geonameid":664760,"name":"Topla","asciiname":"Topla","alternatenames":"","latitude":"45.8976900","longitude":"22.0393800","fclass":"P","fcode":"PPL","country":"RO","cc2":"","admin1":"36","admin2":"157736","admin3":"","admin4":"","population":6,"elevation":0,"gtopo30":171,"timezone":"Europe/Bucharest","moddate":"2013-04-21T00:00:00.000Z"}],"admin3":[],"alternateNames":[]},"__N_SSG":true}