{"pageProps":{"locale":"ro","admin2":{"geonameid":666331,"name":"Comuna Spulber","country":"RO","admin1":"40","admin2":"178965","admin3":"","latitude":"45.7465400","longitude":"26.7392500"},"admin1":{"geonameid":662447,"name":"Vrancea","admin1":"40","localeAltName":"Vrancea"},"locations":[{"geonameid":682645,"name":"Carşocheşti","asciiname":"Carsochesti","alternatenames":"","latitude":"45.7333300","longitude":"26.7500000","fclass":"P","fcode":"PPLX","country":"RO","cc2":"","admin1":"40","admin2":"178965","admin3":"","admin4":"","population":0,"elevation":0,"gtopo30":554,"timezone":"Europe/Bucharest","moddate":"2016-02-07T00:00:00.000Z"},{"geonameid":682644,"name":"Carșochești-Corăbița","asciiname":"Carsochesti-Corabita","alternatenames":"Carsochesti-Corabita,Carşocheşti-Corăbiţă,Corabita Carsochesti,Corăbiţa Carsocheşti","latitude":"45.7313300","longitude":"26.7567800","fclass":"P","fcode":"PPL","country":"RO","cc2":"RO","admin1":"40","admin2":"178965","admin3":"","admin4":"","population":336,"elevation":0,"gtopo30":489,"timezone":"Europe/Bucharest","moddate":"2013-04-21T00:00:00.000Z"},{"geonameid":679038,"name":"Dosu Ţapului","asciiname":"Dosu Tapului","alternatenames":"","latitude":"45.7500000","longitude":"26.7000000","fclass":"P","fcode":"PPLX","country":"RO","cc2":"","admin1":"40","admin2":"178965","admin3":"","admin4":"","population":0,"elevation":0,"gtopo30":577,"timezone":"Europe/Bucharest","moddate":"2016-02-07T00:00:00.000Z"},{"geonameid":678398,"name":"Faţa Ţipăului","asciiname":"Fata Tipaului","alternatenames":"","latitude":"45.7500000","longitude":"26.7000000","fclass":"P","fcode":"PPLX","country":"RO","cc2":"","admin1":"40","admin2":"178965","admin3":"","admin4":"","population":0,"elevation":0,"gtopo30":577,"timezone":"Europe/Bucharest","moddate":"2016-02-07T00:00:00.000Z"},{"geonameid":672875,"name":"Morărești","asciiname":"Moraresti","alternatenames":"","latitude":"45.7396100","longitude":"26.7577300","fclass":"P","fcode":"PPL","country":"RO","cc2":"","admin1":"40","admin2":"178965","admin3":"","admin4":"","population":52,"elevation":0,"gtopo30":477,"timezone":"Europe/Bucharest","moddate":"2013-04-21T00:00:00.000Z"},{"geonameid":671194,"name":"Păvălari","asciiname":"Pavalari","alternatenames":"","latitude":"45.7382600","longitude":"26.6829200","fclass":"P","fcode":"PPL","country":"RO","cc2":"","admin1":"40","admin2":"178965","admin3":"","admin4":"","population":118,"elevation":0,"gtopo30":723,"timezone":"Europe/Bucharest","moddate":"2013-04-21T00:00:00.000Z"},{"geonameid":670269,"name":"Poduri de Jos","asciiname":"Poduri de Jos","alternatenames":"","latitude":"45.7500000","longitude":"26.7500000","fclass":"P","fcode":"PPLX","country":"RO","cc2":"","admin1":"40","admin2":"178965","admin3":"","admin4":"","population":0,"elevation":0,"gtopo30":525,"timezone":"Europe/Bucharest","moddate":"2016-02-07T00:00:00.000Z"},{"geonameid":670268,"name":"Poduri de Sus","asciiname":"Poduri de Sus","alternatenames":"","latitude":"45.7500000","longitude":"26.7500000","fclass":"P","fcode":"PPLX","country":"RO","cc2":"","admin1":"40","admin2":"178965","admin3":"","admin4":"","population":0,"elevation":0,"gtopo30":525,"timezone":"Europe/Bucharest","moddate":"2016-02-07T00:00:00.000Z"},{"geonameid":666332,"name":"Spulber","asciiname":"Spulber","alternatenames":"Spulber,Spulberu","latitude":"45.7518600","longitude":"26.7608000","fclass":"P","fcode":"PPLA2","country":"RO","cc2":"RO","admin1":"40","admin2":"178965","admin3":"","admin4":"","population":500,"elevation":0,"gtopo30":476,"timezone":"Europe/Bucharest","moddate":"2013-04-21T00:00:00.000Z"},{"geonameid":665039,"name":"Țipău","asciiname":"Tipau","alternatenames":"Tipau,Tipua,Ţipua,Ţipău","latitude":"45.7551000","longitude":"26.7258200","fclass":"P","fcode":"PPL","country":"RO","cc2":"RO","admin1":"40","admin2":"178965","admin3":"","admin4":"","population":304,"elevation":0,"gtopo30":642,"timezone":"Europe/Bucharest","moddate":"2013-04-21T00:00:00.000Z"},{"geonameid":664838,"name":"Tojanii","asciiname":"Tojanii","alternatenames":"Dodu Dojanului,Dosu Tojanului,Tojanii","latitude":"45.7500000","longitude":"26.7500000","fclass":"P","fcode":"PPLX","country":"RO","cc2":"","admin1":"40","admin2":"178965","admin3":"","admin4":"","population":0,"elevation":0,"gtopo30":525,"timezone":"Europe/Bucharest","moddate":"2016-02-07T00:00:00.000Z"}],"admin3":[],"alternateNames":[{"alternatenameId":391637,"geonameid":662447,"isoLanguage":"ro","alternateName":"Vrancea","isPreferredName":true,"isShortName":true,"isColloquial":false,"isHistoric":false}]},"__N_SSG":true}