{"pageProps":{"locale":"ro","admin2":{"geonameid":681482,"name":"Comuna Ciuchici","country":"RO","admin1":"12","admin2":"51984","admin3":"","latitude":"44.9391400","longitude":"21.6141900"},"admin1":{"geonameid":682714,"name":"Caraş-Severin","admin1":"12"},"locations":[{"geonameid":681483,"name":"Ciuchici","asciiname":"Ciuchici","alternatenames":"Ciuchici,Ciuchiciu,Cukic,Cukič","latitude":"44.9413900","longitude":"21.6100000","fclass":"P","fcode":"PPLA2","country":"RO","cc2":"","admin1":"12","admin2":"51984","admin3":"","admin4":"","population":1222,"elevation":0,"gtopo30":131,"timezone":"Europe/Bucharest","moddate":"2012-06-12T00:00:00.000Z"},{"geonameid":674225,"name":"Macoviște","asciiname":"Macoviste","alternatenames":"Macoviste,Macovişte,Makoviste,Makovište","latitude":"44.9392000","longitude":"21.6558000","fclass":"P","fcode":"PPL","country":"RO","cc2":"RO","admin1":"12","admin2":"51984","admin3":"","admin4":"","population":193,"elevation":0,"gtopo30":147,"timezone":"Europe/Bucharest","moddate":"2013-04-21T00:00:00.000Z"},{"geonameid":672249,"name":"Nicolinț","asciiname":"Nicolint","alternatenames":"Nicolint,Nicolinti,Nicolinţ,Nicolinţi,Nikolinci","latitude":"44.9539200","longitude":"21.5558000","fclass":"P","fcode":"PPL","country":"RO","cc2":"RO","admin1":"12","admin2":"51984","admin3":"","admin4":"","population":329,"elevation":0,"gtopo30":129,"timezone":"Europe/Bucharest","moddate":"2013-04-21T00:00:00.000Z"},{"geonameid":670963,"name":"Petrilova","asciiname":"Petrilova","alternatenames":"Petrila,Petrilova,Petrilovo","latitude":"44.9190200","longitude":"21.6298000","fclass":"P","fcode":"PPL","country":"RO","cc2":"RO","admin1":"12","admin2":"51984","admin3":"","admin4":"","population":243,"elevation":0,"gtopo30":196,"timezone":"Europe/Bucharest","moddate":"2013-04-21T00:00:00.000Z"}],"admin3":[],"alternateNames":[]},"__N_SSG":true}