{"pageProps":{"locale":"ro","admin2":{"geonameid":683131,"name":"Comuna Buturugeni","country":"RO","admin1":"42","admin2":"101617","admin3":"","latitude":"44.3466100","longitude":"25.8338200"},"admin1":{"geonameid":677104,"name":"Giurgiu","admin1":"42"},"locations":[{"geonameid":683132,"name":"Buturugeni","asciiname":"Buturugeni","alternatenames":"Buturugeni,Buturugenii,Buturugenii-Falcoianca","latitude":"44.3652800","longitude":"25.8352800","fclass":"P","fcode":"PPLA2","country":"RO","cc2":"","admin1":"42","admin2":"101617","admin3":"","admin4":"","population":4078,"elevation":0,"gtopo30":96,"timezone":"Europe/Bucharest","moddate":"2012-06-12T00:00:00.000Z"},{"geonameid":671540,"name":"Pădureni","asciiname":"Padureni","alternatenames":"Gascesti,Gasti,Gistesti,Gâşceşti,Gâşti,Gîşteşti,Padureni,Pădureni","latitude":"44.3457600","longitude":"25.8046900","fclass":"P","fcode":"PPL","country":"RO","cc2":"RO","admin1":"42","admin2":"101617","admin3":"","admin4":"","population":1597,"elevation":0,"gtopo30":83,"timezone":"Europe/Bucharest","moddate":"2013-04-21T00:00:00.000Z"},{"geonameid":670452,"name":"Plopi","asciiname":"Plopi","alternatenames":"","latitude":"44.3666700","longitude":"25.8333300","fclass":"P","fcode":"PPLX","country":"RO","cc2":"","admin1":"42","admin2":"101617","admin3":"","admin4":"","population":0,"elevation":0,"gtopo30":96,"timezone":"Europe/Bucharest","moddate":"2016-02-07T00:00:00.000Z"},{"geonameid":670298,"name":"Podu Ilfovățului","asciiname":"Podu Ilfovatului","alternatenames":"Podu Gistei,Podu Gîştei,Podu Ilfovatului,Podu Ilfovăţului","latitude":"44.3187200","longitude":"25.8191200","fclass":"P","fcode":"PPL","country":"RO","cc2":"RO","admin1":"42","admin2":"101617","admin3":"","admin4":"","population":18,"elevation":0,"gtopo30":81,"timezone":"Europe/Bucharest","moddate":"2013-04-21T00:00:00.000Z"},{"geonameid":669795,"name":"Poșta","asciiname":"Posta","alternatenames":"","latitude":"44.3538300","longitude":"25.8761200","fclass":"P","fcode":"PPL","country":"RO","cc2":"","admin1":"42","admin2":"101617","admin3":"","admin4":"","population":490,"elevation":0,"gtopo30":91,"timezone":"Europe/Bucharest","moddate":"2013-04-21T00:00:00.000Z"},{"geonameid":669602,"name":"Prisiceni","asciiname":"Prisiceni","alternatenames":"","latitude":"44.3666700","longitude":"25.8500000","fclass":"P","fcode":"PPLX","country":"RO","cc2":"","admin1":"42","admin2":"101617","admin3":"","admin4":"","population":0,"elevation":0,"gtopo30":88,"timezone":"Europe/Bucharest","moddate":"2016-02-07T00:00:00.000Z"},{"geonameid":667745,"name":"Saxani","asciiname":"Saxani","alternatenames":"Saxani,Saxoni","latitude":"44.3666700","longitude":"25.8333300","fclass":"P","fcode":"PPLX","country":"RO","cc2":"RO","admin1":"42","admin2":"101617","admin3":"","admin4":"","population":0,"elevation":0,"gtopo30":96,"timezone":"Europe/Bucharest","moddate":"2016-02-07T00:00:00.000Z"}],"admin3":[],"alternateNames":[]},"__N_SSG":true}