{"pageProps":{"locale":"ro","admin2":{"geonameid":683631,"name":"Comuna Broşteni","country":"RO","admin1":"26","admin2":"110875","admin3":"","latitude":"44.7469800","longitude":"22.9908300"},"admin1":{"geonameid":673612,"name":"Mehedinţi","admin1":"26"},"locations":[{"geonameid":683646,"name":"Broşteni","asciiname":"Brosteni","alternatenames":"","latitude":"44.7608300","longitude":"22.9794400","fclass":"P","fcode":"PPLA2","country":"RO","cc2":"","admin1":"26","admin2":"110875","admin3":"","admin4":"","population":3017,"elevation":0,"gtopo30":183,"timezone":"Europe/Bucharest","moddate":"2012-06-12T00:00:00.000Z"},{"geonameid":682981,"name":"Călieni","asciiname":"Calieni","alternatenames":"","latitude":"44.7500000","longitude":"22.9666700","fclass":"P","fcode":"PPLX","country":"RO","cc2":"","admin1":"26","admin2":"110875","admin3":"","admin4":"","population":0,"elevation":0,"gtopo30":262,"timezone":"Europe/Bucharest","moddate":"2016-02-07T00:00:00.000Z"},{"geonameid":682821,"name":"Căpățânești","asciiname":"Capatanesti","alternatenames":"","latitude":"44.7500000","longitude":"22.9833300","fclass":"P","fcode":"PPL","country":"RO","cc2":"","admin1":"26","admin2":"110875","admin3":"","admin4":"","population":108,"elevation":0,"gtopo30":240,"timezone":"Europe/Bucharest","moddate":"2015-11-20T00:00:00.000Z"},{"geonameid":680967,"name":"Conduleşti","asciiname":"Condulesti","alternatenames":"","latitude":"44.7500000","longitude":"23.0000000","fclass":"P","fcode":"PPLX","country":"RO","cc2":"","admin1":"26","admin2":"110875","admin3":"","admin4":"","population":0,"elevation":0,"gtopo30":170,"timezone":"Europe/Bucharest","moddate":"2016-02-07T00:00:00.000Z"},{"geonameid":677663,"name":"Găleata","asciiname":"Galeata","alternatenames":"","latitude":"44.7500000","longitude":"22.9666700","fclass":"P","fcode":"PPLX","country":"RO","cc2":"","admin1":"26","admin2":"110875","admin3":"","admin4":"","population":0,"elevation":0,"gtopo30":262,"timezone":"Europe/Bucharest","moddate":"2016-02-07T00:00:00.000Z"},{"geonameid":674337,"name":"Luncșoara","asciiname":"Luncsoara","alternatenames":"Barzescu,Birzescu,Bârzescu,Bîrzescu,Luncsoara,Luncşoara","latitude":"44.7276300","longitude":"23.0425400","fclass":"P","fcode":"PPL","country":"RO","cc2":"RO","admin1":"26","admin2":"110875","admin3":"","admin4":"","population":334,"elevation":0,"gtopo30":165,"timezone":"Europe/Bucharest","moddate":"2013-04-21T00:00:00.000Z"},{"geonameid":674269,"name":"Lupșa de Jos","asciiname":"Lupsa de Jos","alternatenames":"","latitude":"44.7313000","longitude":"22.9957200","fclass":"P","fcode":"PPL","country":"RO","cc2":"","admin1":"26","admin2":"110875","admin3":"","admin4":"","population":612,"elevation":0,"gtopo30":199,"timezone":"Europe/Bucharest","moddate":"2013-04-21T00:00:00.000Z"},{"geonameid":674268,"name":"Lupșa de Sus","asciiname":"Lupsa de Sus","alternatenames":"","latitude":"44.7320800","longitude":"22.9469200","fclass":"P","fcode":"PPL","country":"RO","cc2":"","admin1":"26","admin2":"110875","admin3":"","admin4":"","population":608,"elevation":0,"gtopo30":244,"timezone":"Europe/Bucharest","moddate":"2013-04-21T00:00:00.000Z"},{"geonameid":673540,"name":"Meriș","asciiname":"Meris","alternatenames":"Merisu,Merisul,Merişu","latitude":"44.7827600","longitude":"22.9781500","fclass":"P","fcode":"PPL","country":"RO","cc2":"RO","admin1":"26","admin2":"110875","admin3":"","admin4":"","population":580,"elevation":0,"gtopo30":174,"timezone":"Europe/Bucharest","moddate":"2013-04-21T00:00:00.000Z"}],"admin3":[],"alternateNames":[]},"__N_SSG":true}