{"pageProps":{"locale":"ro","admin2":{"geonameid":684833,"name":"Comuna Bâra","country":"RO","admin1":"28","admin2":"121386","admin3":"","latitude":"47.0131900","longitude":"27.0401600"},"admin1":{"geonameid":672460,"name":"Neamţ","admin1":"28"},"locations":[{"geonameid":685602,"name":"Balomireşti","asciiname":"Balomiresti","alternatenames":"","latitude":"47.0333300","longitude":"27.0333300","fclass":"P","fcode":"PPLX","country":"RO","cc2":"","admin1":"28","admin2":"121386","admin3":"","admin4":"","population":0,"elevation":0,"gtopo30":247,"timezone":"Europe/Bucharest","moddate":"2016-02-07T00:00:00.000Z"},{"geonameid":684834,"name":"Bâra","asciiname":"Bara","alternatenames":"Bara,Bira,Bâra,Bîra","latitude":"47.0333300","longitude":"27.0500000","fclass":"P","fcode":"PPLA2","country":"RO","cc2":"","admin1":"28","admin2":"121386","admin3":"","admin4":"","population":4436,"elevation":0,"gtopo30":206,"timezone":"Europe/Bucharest","moddate":"2012-06-12T00:00:00.000Z"},{"geonameid":684832,"name":"Bâra-Sat","asciiname":"Bara-Sat","alternatenames":"Bara-Sat,Bira-Sat,Bâra-Sat,Bîra-Sat","latitude":"47.0166700","longitude":"27.0333300","fclass":"P","fcode":"PPLX","country":"RO","cc2":"RO","admin1":"28","admin2":"121386","admin3":"","admin4":"","population":0,"elevation":0,"gtopo30":255,"timezone":"Europe/Bucharest","moddate":"2020-03-08T00:00:00.000Z"},{"geonameid":684831,"name":"Bâra-Târg","asciiname":"Bara-Targ","alternatenames":"Bara-Targ,Bira-Tirg,Bâra-Târg,Bîra-Tîrg","latitude":"47.0166700","longitude":"27.0333300","fclass":"P","fcode":"PPLX","country":"RO","cc2":"RO","admin1":"28","admin2":"121386","admin3":"","admin4":"","population":0,"elevation":0,"gtopo30":255,"timezone":"Europe/Bucharest","moddate":"2020-03-08T00:00:00.000Z"},{"geonameid":672374,"name":"Negrești","asciiname":"Negresti","alternatenames":"Calugarita,Calugarita Negresti,Călugăriţa,Călugăriţa Negreşti,Negresti,Negreşti","latitude":"47.0066000","longitude":"27.0701200","fclass":"P","fcode":"PPL","country":"RO","cc2":"RO","admin1":"28","admin2":"121386","admin3":"","admin4":"","population":259,"elevation":0,"gtopo30":265,"timezone":"Europe/Bucharest","moddate":"2013-04-21T00:00:00.000Z"},{"geonameid":669015,"name":"Rediu","asciiname":"Rediu","alternatenames":"","latitude":"47.0098600","longitude":"27.0053400","fclass":"P","fcode":"PPL","country":"RO","cc2":"","admin1":"28","admin2":"121386","admin3":"","admin4":"","population":866,"elevation":0,"gtopo30":213,"timezone":"Europe/Bucharest","moddate":"2013-04-21T00:00:00.000Z"},{"geonameid":667812,"name":"Satu Nou","asciiname":"Satu Nou","alternatenames":"","latitude":"47.0166700","longitude":"27.0333300","fclass":"P","fcode":"PPL","country":"RO","cc2":"","admin1":"28","admin2":"121386","admin3":"","admin4":"","population":0,"elevation":0,"gtopo30":255,"timezone":"Europe/Bucharest","moddate":"2016-02-07T00:00:00.000Z"}],"admin3":[],"alternateNames":[]},"__N_SSG":true}