{"pageProps":{"locale":"ro","admin2":{"geonameid":665411,"name":"Comuna Tătuleşti","country":"RO","admin1":"29","admin2":"129317","admin3":"","latitude":"44.6638600","longitude":"24.6140500"},"admin1":{"geonameid":671857,"name":"Olt","admin1":"29"},"locations":[{"geonameid":685394,"name":"Bărbălăi","asciiname":"Barbalai","alternatenames":"","latitude":"44.6571400","longitude":"24.6021200","fclass":"P","fcode":"PPL","country":"RO","cc2":"","admin1":"29","admin2":"129317","admin3":"","admin4":"","population":159,"elevation":0,"gtopo30":240,"timezone":"Europe/Bucharest","moddate":"2013-04-21T00:00:00.000Z"},{"geonameid":682886,"name":"Călugăru","asciiname":"Calugaru","alternatenames":"Calugari,Calugaru,Călugări,Călugăru","latitude":"44.6666700","longitude":"24.6166700","fclass":"P","fcode":"PPL","country":"RO","cc2":"","admin1":"29","admin2":"129317","admin3":"","admin4":"","population":0,"elevation":0,"gtopo30":244,"timezone":"Europe/Bucharest","moddate":"2016-02-07T00:00:00.000Z"},{"geonameid":674495,"name":"Lunca","asciiname":"Lunca","alternatenames":"Lunca,Turbati,Turbaţi","latitude":"44.6613400","longitude":"24.6208000","fclass":"P","fcode":"PPL","country":"RO","cc2":"RO","admin1":"29","admin2":"129317","admin3":"","admin4":"","population":44,"elevation":0,"gtopo30":258,"timezone":"Europe/Bucharest","moddate":"2013-04-21T00:00:00.000Z"},{"geonameid":11001787,"name":"Măgura","asciiname":"Magura","alternatenames":"","latitude":"44.6679200","longitude":"24.6229300","fclass":"P","fcode":"PPL","country":"RO","cc2":"","admin1":"29","admin2":"129317","admin3":"","admin4":"","population":93,"elevation":0,"gtopo30":265,"timezone":"Europe/Bucharest","moddate":"2015-12-19T00:00:00.000Z"},{"geonameid":673142,"name":"Mircești","asciiname":"Mircesti","alternatenames":"","latitude":"44.6816200","longitude":"24.6133900","fclass":"P","fcode":"PPL","country":"RO","cc2":"","admin1":"29","admin2":"129317","admin3":"","admin4":"","population":126,"elevation":0,"gtopo30":282,"timezone":"Europe/Bucharest","moddate":"2013-04-21T00:00:00.000Z"},{"geonameid":672892,"name":"Momaiu","asciiname":"Momaiu","alternatenames":"Momaiu,Momaiul","latitude":"44.6746700","longitude":"24.6071200","fclass":"P","fcode":"PPL","country":"RO","cc2":"RO","admin1":"29","admin2":"129317","admin3":"","admin4":"","population":138,"elevation":0,"gtopo30":264,"timezone":"Europe/Bucharest","moddate":"2013-04-21T00:00:00.000Z"},{"geonameid":665413,"name":"Tătuleşti","asciiname":"Tatulesti","alternatenames":"Tatulesti,Tătuleşti","latitude":"44.6333300","longitude":"24.6333300","fclass":"P","fcode":"PPLA2","country":"RO","cc2":"","admin1":"29","admin2":"129317","admin3":"","admin4":"","population":1324,"elevation":0,"gtopo30":250,"timezone":"Europe/Bucharest","moddate":"2012-06-12T00:00:00.000Z"}],"admin3":[],"alternateNames":[]},"__N_SSG":true}