{"pageProps":{"locale":"ro","admin2":{"geonameid":665599,"name":"Comuna Talpa","country":"RO","admin1":"35","admin2":"154521","admin3":"","latitude":"44.2807000","longitude":"25.3091900"},"admin1":{"geonameid":665283,"name":"Teleorman","admin1":"35"},"locations":[{"geonameid":674764,"name":"Linia Costii","asciiname":"Linia Costii","alternatenames":"Linia Costei,Linia Costii","latitude":"44.2778900","longitude":"25.3135000","fclass":"P","fcode":"PPL","country":"RO","cc2":"RO","admin1":"35","admin2":"154521","admin3":"","admin4":"","population":263,"elevation":0,"gtopo30":118,"timezone":"Europe/Bucharest","moddate":"2013-04-21T00:00:00.000Z"},{"geonameid":668589,"name":"Rotărești","asciiname":"Rotaresti","alternatenames":"","latitude":"44.2575700","longitude":"25.3272800","fclass":"P","fcode":"PPL","country":"RO","cc2":"","admin1":"35","admin2":"154521","admin3":"","admin4":"","population":407,"elevation":0,"gtopo30":115,"timezone":"Europe/Bucharest","moddate":"2013-04-21T00:00:00.000Z"},{"geonameid":665592,"name":"Talpa Poștei","asciiname":"Talpa Postei","alternatenames":"","latitude":"44.3166700","longitude":"25.2833300","fclass":"P","fcode":"PPL","country":"RO","cc2":"","admin1":"35","admin2":"154521","admin3":"","admin4":"","population":102,"elevation":0,"gtopo30":123,"timezone":"Europe/Bucharest","moddate":"2016-01-04T00:00:00.000Z"},{"geonameid":665598,"name":"Talpa-Bâscoveni","asciiname":"Talpa-Bascoveni","alternatenames":"Talpa Bacoveni,Talpa Bâcoveni,Talpa-Bascoveni,Talpa-Biscoveni,Talpa-Bâscoveni,Talpa-Bîscoveni","latitude":"44.2706700","longitude":"25.3235200","fclass":"P","fcode":"PPL","country":"RO","cc2":"RO","admin1":"35","admin2":"154521","admin3":"","admin4":"","population":576,"elevation":0,"gtopo30":115,"timezone":"Europe/Bucharest","moddate":"2013-04-21T00:00:00.000Z"},{"geonameid":665597,"name":"Talpa-Ioneşti","asciiname":"Talpa-Ionesti","alternatenames":"","latitude":"44.3000000","longitude":"25.2833300","fclass":"P","fcode":"PPL","country":"RO","cc2":"","admin1":"35","admin2":"154521","admin3":"","admin4":"","population":0,"elevation":0,"gtopo30":119,"timezone":"Europe/Bucharest","moddate":"2016-02-07T00:00:00.000Z"},{"geonameid":665595,"name":"Talpa-Lefeşti","asciiname":"Talpa-Lefesti","alternatenames":"Lefesti,Lefestii,Lefeşti,Talpa-Lefesti,Talpa-Lefeşti","latitude":"44.2833300","longitude":"25.2833300","fclass":"P","fcode":"PPL","country":"RO","cc2":"","admin1":"35","admin2":"154521","admin3":"","admin4":"","population":0,"elevation":0,"gtopo30":119,"timezone":"Europe/Bucharest","moddate":"2020-06-10T00:00:00.000Z"},{"geonameid":665593,"name":"Talpa-Ogrăzile","asciiname":"Talpa-Ograzile","alternatenames":"","latitude":"44.2872600","longitude":"25.2932800","fclass":"P","fcode":"PPL","country":"RO","cc2":"","admin1":"35","admin2":"154521","admin3":"","admin4":"","population":1326,"elevation":0,"gtopo30":118,"timezone":"Europe/Bucharest","moddate":"2013-04-21T00:00:00.000Z"},{"geonameid":665588,"name":"Talpa-Trivalea","asciiname":"Talpa-Trivalea","alternatenames":"Talpa-Trivalea","latitude":"44.2833300","longitude":"25.2833300","fclass":"P","fcode":"PPL","country":"RO","cc2":"","admin1":"35","admin2":"154521","admin3":"","admin4":"","population":2309,"elevation":0,"gtopo30":119,"timezone":"Europe/Bucharest","moddate":"2018-12-05T00:00:00.000Z"}],"admin3":[],"alternateNames":[]},"__N_SSG":true}