{"pageProps":{"locale":"ro","admin2":{"geonameid":662129,"name":"Comuna Zorleni","country":"RO","admin1":"38","admin2":"167179","admin3":"","latitude":"46.2507800","longitude":"27.7386600"},"admin1":{"geonameid":663116,"name":"Vaslui","admin1":"38"},"locations":[{"geonameid":679617,"name":"Dealu Mare","asciiname":"Dealu Mare","alternatenames":"Dealu Mare,Lupu Costache,Profesor Barbu Zaharescu,Zaharescu","latitude":"46.2244900","longitude":"27.7213100","fclass":"P","fcode":"PPL","country":"RO","cc2":"RO","admin1":"38","admin2":"167179","admin3":"","admin4":"","population":266,"elevation":0,"gtopo30":204,"timezone":"Europe/Bucharest","moddate":"2013-04-21T00:00:00.000Z"},{"geonameid":676489,"name":"Gura Similei","asciiname":"Gura Similei","alternatenames":"","latitude":"46.2666700","longitude":"27.7000000","fclass":"P","fcode":"PPLX","country":"RO","cc2":"","admin1":"38","admin2":"167179","admin3":"","admin4":"","population":0,"elevation":0,"gtopo30":68,"timezone":"Europe/Bucharest","moddate":"2016-02-07T00:00:00.000Z"},{"geonameid":675478,"name":"Islaz","asciiname":"Islaz","alternatenames":"","latitude":"46.2666700","longitude":"27.7166700","fclass":"P","fcode":"PPL","country":"RO","cc2":"","admin1":"38","admin2":"167179","admin3":"","admin4":"","population":0,"elevation":0,"gtopo30":70,"timezone":"Europe/Bucharest","moddate":"2016-02-07T00:00:00.000Z"},{"geonameid":675012,"name":"La Saivane","asciiname":"La Saivane","alternatenames":"","latitude":"46.2666700","longitude":"27.7166700","fclass":"P","fcode":"PPLX","country":"RO","cc2":"","admin1":"38","admin2":"167179","admin3":"","admin4":"","population":0,"elevation":0,"gtopo30":70,"timezone":"Europe/Bucharest","moddate":"2016-02-07T00:00:00.000Z"},{"geonameid":673260,"name":"Mânăstirea Bujorăni","asciiname":"Manastirea Bujorani","alternatenames":"Manastirea Bujorani,Minastirea Bujorani,Mânăstirea Bujorăni,Mînăstirea Bujorăni","latitude":"46.2666700","longitude":"27.7166700","fclass":"P","fcode":"PPL","country":"RO","cc2":"","admin1":"38","admin2":"167179","admin3":"","admin4":"","population":0,"elevation":0,"gtopo30":70,"timezone":"Europe/Bucharest","moddate":"2020-03-08T00:00:00.000Z"},{"geonameid":669923,"name":"Popeni","asciiname":"Popeni","alternatenames":"","latitude":"46.2466700","longitude":"27.8052000","fclass":"P","fcode":"PPL","country":"RO","cc2":"","admin1":"38","admin2":"167179","admin3":"","admin4":"","population":2634,"elevation":0,"gtopo30":116,"timezone":"Europe/Bucharest","moddate":"2013-04-21T00:00:00.000Z"},{"geonameid":667114,"name":"Simila","asciiname":"Simila","alternatenames":"","latitude":"46.2633400","longitude":"27.7012300","fclass":"P","fcode":"PPL","country":"RO","cc2":"","admin1":"38","admin2":"167179","admin3":"","admin4":"","population":821,"elevation":0,"gtopo30":70,"timezone":"Europe/Bucharest","moddate":"2013-04-21T00:00:00.000Z"},{"geonameid":662130,"name":"Zorleni","asciiname":"Zorleni","alternatenames":"Zorleni","latitude":"46.2666700","longitude":"27.7166700","fclass":"P","fcode":"PPLA2","country":"RO","cc2":"","admin1":"38","admin2":"167179","admin3":"","admin4":"","population":9511,"elevation":0,"gtopo30":70,"timezone":"Europe/Bucharest","moddate":"2012-06-12T00:00:00.000Z"}],"admin3":[],"alternateNames":[]},"__N_SSG":true}