{"pageProps":{"locale":"ro","admin2":{"geonameid":664033,"name":"Comuna Văculeşti","country":"RO","admin1":"07","admin2":"39612","admin3":"","latitude":"47.8822900","longitude":"26.3859000"},"admin1":{"geonameid":684038,"name":"Botoşani","admin1":"07"},"locations":[{"geonameid":676882,"name":"Gorovei","asciiname":"Gorovei","alternatenames":"Gorovei,Gorovei-Schit","latitude":"47.8769400","longitude":"26.3448800","fclass":"P","fcode":"PPL","country":"RO","cc2":"RO","admin1":"07","admin2":"39612","admin3":"","admin4":"","population":60,"elevation":0,"gtopo30":312,"timezone":"Europe/Bucharest","moddate":"2013-04-21T00:00:00.000Z"},{"geonameid":669684,"name":"Prelipca","asciiname":"Prelipca","alternatenames":"","latitude":"47.9000000","longitude":"26.3833300","fclass":"P","fcode":"PPL","country":"RO","cc2":"","admin1":"07","admin2":"39612","admin3":"","admin4":"","population":0,"elevation":0,"gtopo30":240,"timezone":"Europe/Bucharest","moddate":"2016-02-07T00:00:00.000Z"},{"geonameid":667779,"name":"Saucenița","asciiname":"Saucenita","alternatenames":"","latitude":"47.8937800","longitude":"26.3972400","fclass":"P","fcode":"PPL","country":"RO","cc2":"","admin1":"07","admin2":"39612","admin3":"","admin4":"","population":932,"elevation":0,"gtopo30":203,"timezone":"Europe/Bucharest","moddate":"2013-04-21T00:00:00.000Z"},{"geonameid":664034,"name":"Văculeşti","asciiname":"Vaculesti","alternatenames":"Vaculesti,Văculeşti","latitude":"47.8833300","longitude":"26.4166700","fclass":"P","fcode":"PPLA2","country":"RO","cc2":"","admin1":"07","admin2":"39612","admin3":"","admin4":"","population":2247,"elevation":0,"gtopo30":226,"timezone":"Europe/Bucharest","moddate":"2012-06-12T00:00:00.000Z"}],"admin3":[],"alternateNames":[]},"__N_SSG":true}