{"pageProps":{"locale":"ro","admin2":{"geonameid":679244,"name":"Comuna Dobreşti","country":"RO","admin1":"05","admin2":"29154","admin3":"","latitude":"46.8446500","longitude":"22.2693100"},"admin1":{"geonameid":684878,"name":"Bihor","admin1":"05"},"locations":[{"geonameid":680733,"name":"Cornișești","asciiname":"Cornisesti","alternatenames":"Carpestii Mari,Cirpestii Mari,Cornisesti,Cornişeşti,Cârpeştii Mari,Cîrpeştii Mari","latitude":"46.8286400","longitude":"22.2352400","fclass":"P","fcode":"PPL","country":"RO","cc2":"RO","admin1":"05","admin2":"29154","admin3":"","admin4":"","population":335,"elevation":0,"gtopo30":146,"timezone":"Europe/Bucharest","moddate":"2013-04-21T00:00:00.000Z"},{"geonameid":680233,"name":"Crânceşti","asciiname":"Crancesti","alternatenames":"Crancesti,Crincesti,Crânceşti,Crînceşti","latitude":"46.8166700","longitude":"22.2500000","fclass":"P","fcode":"PPL","country":"RO","cc2":"RO","admin1":"05","admin2":"29154","admin3":"","admin4":"","population":0,"elevation":0,"gtopo30":155,"timezone":"Europe/Bucharest","moddate":"2020-03-08T00:00:00.000Z"},{"geonameid":679248,"name":"Dobreşti","asciiname":"Dobresti","alternatenames":"Dobresti,Dobresti in Bihor,Dobreşti,Dobreşti in Bihor","latitude":"46.8500000","longitude":"22.3000000","fclass":"P","fcode":"PPLA2","country":"RO","cc2":"","admin1":"05","admin2":"29154","admin3":"","admin4":"","population":5573,"elevation":0,"gtopo30":273,"timezone":"Europe/Bucharest","moddate":"2012-06-12T00:00:00.000Z"},{"geonameid":676208,"name":"Hidișel","asciiname":"Hidisel","alternatenames":"","latitude":"46.8344400","longitude":"22.2584200","fclass":"P","fcode":"PPL","country":"RO","cc2":"","admin1":"05","admin2":"29154","admin3":"","admin4":"","population":767,"elevation":0,"gtopo30":155,"timezone":"Europe/Bucharest","moddate":"2013-04-21T00:00:00.000Z"},{"geonameid":674356,"name":"Luncasprie","asciiname":"Luncasprie","alternatenames":"Luncasprie,Lunccasprie","latitude":"46.8500000","longitude":"22.3166700","fclass":"P","fcode":"PPL","country":"RO","cc2":"","admin1":"05","admin2":"29154","admin3":"","admin4":"","population":0,"elevation":0,"gtopo30":229,"timezone":"Europe/Bucharest","moddate":"2016-02-07T00:00:00.000Z"},{"geonameid":669399,"name":"Răcaș","asciiname":"Racas","alternatenames":"","latitude":"46.8740000","longitude":"22.3310800","fclass":"P","fcode":"PPL","country":"RO","cc2":"","admin1":"05","admin2":"29154","admin3":"","admin4":"","population":142,"elevation":0,"gtopo30":463,"timezone":"Europe/Bucharest","moddate":"2013-04-21T00:00:00.000Z"},{"geonameid":664776,"name":"Topa de Jos","asciiname":"Topa de Jos","alternatenames":"","latitude":"46.8464500","longitude":"22.2338200","fclass":"P","fcode":"PPL","country":"RO","cc2":"","admin1":"05","admin2":"29154","admin3":"","admin4":"","population":269,"elevation":0,"gtopo30":195,"timezone":"Europe/Bucharest","moddate":"2013-04-21T00:00:00.000Z"},{"geonameid":664775,"name":"Topa de Sus","asciiname":"Topa de Sus","alternatenames":"","latitude":"46.8649700","longitude":"22.2510400","fclass":"P","fcode":"PPL","country":"RO","cc2":"","admin1":"05","admin2":"29154","admin3":"","admin4":"","population":803,"elevation":0,"gtopo30":174,"timezone":"Europe/Bucharest","moddate":"2013-04-21T00:00:00.000Z"}],"admin3":[],"alternateNames":[]},"__N_SSG":true}