{"pageProps":{"locale":"ro","admin2":{"geonameid":678558,"name":"Comuna Epureni","country":"RO","admin1":"38","admin2":"163789","admin3":"","latitude":"46.2422800","longitude":"27.8958200"},"admin1":{"geonameid":663116,"name":"Vaslui","admin1":"38"},"locations":[{"geonameid":684800,"name":"Bârlăleşti","asciiname":"Barlalesti","alternatenames":"Barlalesti,Birlalesti,Bârlăleşti,Bîrlăleşti","latitude":"46.2166700","longitude":"27.9000000","fclass":"P","fcode":"PPL","country":"RO","cc2":"RO","admin1":"38","admin2":"163789","admin3":"","admin4":"","population":0,"elevation":0,"gtopo30":147,"timezone":"Europe/Bucharest","moddate":"2020-03-08T00:00:00.000Z"},{"geonameid":683210,"name":"Bursuci","asciiname":"Bursuci","alternatenames":"","latitude":"46.2216400","longitude":"27.8634700","fclass":"P","fcode":"PPL","country":"RO","cc2":"","admin1":"38","admin2":"163789","admin3":"","admin4":"","population":875,"elevation":0,"gtopo30":163,"timezone":"Europe/Bucharest","moddate":"2013-04-21T00:00:00.000Z"},{"geonameid":678563,"name":"Epureni","asciiname":"Epureni","alternatenames":"Epureni","latitude":"46.2469300","longitude":"27.9112300","fclass":"P","fcode":"PPLA2","country":"RO","cc2":"","admin1":"38","admin2":"163789","admin3":"","admin4":"","population":1031,"elevation":0,"gtopo30":90,"timezone":"Europe/Bucharest","moddate":"2013-04-21T00:00:00.000Z"},{"geonameid":677602,"name":"Gara Epureni","asciiname":"Gara Epureni","alternatenames":"","latitude":"46.2333300","longitude":"27.9166700","fclass":"P","fcode":"PPLX","country":"RO","cc2":"","admin1":"38","admin2":"163789","admin3":"","admin4":"","population":0,"elevation":0,"gtopo30":67,"timezone":"Europe/Bucharest","moddate":"2016-02-07T00:00:00.000Z"},{"geonameid":677592,"name":"Gara Suzana","asciiname":"Gara Suzana","alternatenames":"","latitude":"46.2500000","longitude":"27.9000000","fclass":"P","fcode":"PPLX","country":"RO","cc2":"","admin1":"38","admin2":"163789","admin3":"","admin4":"","population":0,"elevation":0,"gtopo30":156,"timezone":"Europe/Bucharest","moddate":"2016-02-07T00:00:00.000Z"},{"geonameid":676019,"name":"Horga","asciiname":"Horga","alternatenames":"","latitude":"46.2783900","longitude":"27.8917200","fclass":"P","fcode":"PPL","country":"RO","cc2":"","admin1":"38","admin2":"163789","admin3":"","admin4":"","population":451,"elevation":0,"gtopo30":137,"timezone":"Europe/Bucharest","moddate":"2013-04-21T00:00:00.000Z"}],"admin3":[],"alternateNames":[]},"__N_SSG":true}