{"pageProps":{"locale":"ro","admin2":{"geonameid":675677,"name":"Comuna Ileanda","country":"RO","admin1":"31","admin2":"141580","admin3":"","latitude":"47.3450100","longitude":"23.6082700"},"admin1":{"geonameid":668248,"name":"Sălaj","admin1":"31"},"locations":[{"geonameid":684756,"name":"Bârsăuţa","asciiname":"Barsauta","alternatenames":"Barsauta,Birsauta,Bârsăuţa,Bîrsăuţa,Bărsăuta","latitude":"47.3500000","longitude":"23.7000000","fclass":"P","fcode":"PPL","country":"RO","cc2":"RO","admin1":"31","admin2":"141580","admin3":"","admin4":"","population":0,"elevation":0,"gtopo30":410,"timezone":"Europe/Bucharest","moddate":"2020-03-08T00:00:00.000Z"},{"geonameid":684624,"name":"Bizușa Băi","asciiname":"Bizusa Bai","alternatenames":"Baile Bizusa,Bizusa-Bai,Bizuşa-Băi,Băile Bizusa","latitude":"47.3427400","longitude":"23.6036800","fclass":"P","fcode":"PPL","country":"RO","cc2":"RO","admin1":"31","admin2":"141580","admin3":"","admin4":"","population":76,"elevation":0,"gtopo30":219,"timezone":"Europe/Bucharest","moddate":"2013-04-21T00:00:00.000Z"},{"geonameid":679842,"name":"Dăbâceni","asciiname":"Dabaceni","alternatenames":"Dabaceni,Dabiceni,Dăbâceni,Dăbîceni","latitude":"47.3027200","longitude":"23.6009200","fclass":"P","fcode":"PPL","country":"RO","cc2":"RO","admin1":"31","admin2":"141580","admin3":"","admin4":"","population":204,"elevation":0,"gtopo30":235,"timezone":"Europe/Bucharest","moddate":"2013-04-21T00:00:00.000Z"},{"geonameid":679143,"name":"Dolheni","asciiname":"Dolheni","alternatenames":"","latitude":"47.3600100","longitude":"23.6571600","fclass":"P","fcode":"PPL","country":"RO","cc2":"","admin1":"31","admin2":"141580","admin3":"","admin4":"","population":179,"elevation":0,"gtopo30":261,"timezone":"Europe/Bucharest","moddate":"2013-04-21T00:00:00.000Z"},{"geonameid":675678,"name":"Ileanda","asciiname":"Ileanda","alternatenames":"Ileanda,Nagyilonda","latitude":"47.3333300","longitude":"23.6333300","fclass":"P","fcode":"PPLA2","country":"RO","cc2":"","admin1":"31","admin2":"141580","admin3":"","admin4":"","population":2546,"elevation":0,"gtopo30":239,"timezone":"Europe/Bucharest","moddate":"2012-06-12T00:00:00.000Z"},{"geonameid":674510,"name":"Luminișu","asciiname":"Luminisu","alternatenames":"Luminisu,Luminişu,Sacatura,Săcătura","latitude":"47.3618800","longitude":"23.6093500","fclass":"P","fcode":"PPL","country":"RO","cc2":"RO","admin1":"31","admin2":"141580","admin3":"","admin4":"","population":132,"elevation":0,"gtopo30":300,"timezone":"Europe/Bucharest","moddate":"2013-04-21T00:00:00.000Z"},{"geonameid":674018,"name":"Măleni","asciiname":"Maleni","alternatenames":"","latitude":"47.3590000","longitude":"23.6370100","fclass":"P","fcode":"PPL","country":"RO","cc2":"","admin1":"31","admin2":"141580","admin3":"","admin4":"","population":14,"elevation":0,"gtopo30":297,"timezone":"Europe/Bucharest","moddate":"2013-04-21T00:00:00.000Z"},{"geonameid":672391,"name":"Negreni","asciiname":"Negreni","alternatenames":"","latitude":"47.3428900","longitude":"23.5614300","fclass":"P","fcode":"PPL","country":"RO","cc2":"","admin1":"31","admin2":"141580","admin3":"","admin4":"","population":132,"elevation":0,"gtopo30":239,"timezone":"Europe/Bucharest","moddate":"2013-04-21T00:00:00.000Z"},{"geonameid":671121,"name":"Perii Vadului","asciiname":"Perii Vadului","alternatenames":"","latitude":"47.3499300","longitude":"23.5668200","fclass":"P","fcode":"PPL","country":"RO","cc2":"","admin1":"31","admin2":"141580","admin3":"","admin4":"","population":188,"elevation":0,"gtopo30":228,"timezone":"Europe/Bucharest","moddate":"2013-04-21T00:00:00.000Z"},{"geonameid":670321,"name":"Podișu","asciiname":"Podisu","alternatenames":"Ciumeni,Podisu,Podişu","latitude":"47.3192400","longitude":"23.5974700","fclass":"P","fcode":"PPL","country":"RO","cc2":"RO","admin1":"31","admin2":"141580","admin3":"","admin4":"","population":198,"elevation":0,"gtopo30":213,"timezone":"Europe/Bucharest","moddate":"2013-04-21T00:00:00.000Z"},{"geonameid":669135,"name":"Răstoci","asciiname":"Rastoci","alternatenames":"","latitude":"47.3602300","longitude":"23.5303900","fclass":"P","fcode":"PPL","country":"RO","cc2":"","admin1":"31","admin2":"141580","admin3":"","admin4":"","population":193,"elevation":0,"gtopo30":229,"timezone":"Europe/Bucharest","moddate":"2013-04-21T00:00:00.000Z"},{"geonameid":668763,"name":"Rogna","asciiname":"Rogna","alternatenames":"","latitude":"47.3372400","longitude":"23.5929000","fclass":"P","fcode":"PPL","country":"RO","cc2":"","admin1":"31","admin2":"141580","admin3":"","admin4":"","population":141,"elevation":0,"gtopo30":214,"timezone":"Europe/Bucharest","moddate":"2013-04-21T00:00:00.000Z"},{"geonameid":667938,"name":"Șasa","asciiname":"Sasa","alternatenames":"","latitude":"47.3756300","longitude":"23.6399900","fclass":"P","fcode":"PPL","country":"RO","cc2":"","admin1":"31","admin2":"141580","admin3":"","admin4":"","population":122,"elevation":0,"gtopo30":408,"timezone":"Europe/Bucharest","moddate":"2013-04-21T00:00:00.000Z"}],"admin3":[],"alternateNames":[]},"__N_SSG":true}