{"pageProps":{"locale":"ro","admin2":{"geonameid":666432,"name":"Comuna Şopotu Nou","country":"RO","admin1":"12","admin2":"54163","admin3":"","latitude":"44.7965000","longitude":"21.8513500"},"admin1":{"geonameid":682714,"name":"Caraş-Severin","admin1":"12"},"locations":[{"geonameid":681533,"name":"Cârșa Roșie","asciiname":"Carsa Rosie","alternatenames":"","latitude":"44.7848900","longitude":"21.8140600","fclass":"P","fcode":"PPL","country":"RO","cc2":"","admin1":"12","admin2":"54163","admin3":"","admin4":"","population":94,"elevation":0,"gtopo30":464,"timezone":"Europe/Bucharest","moddate":"2013-04-21T00:00:00.000Z"},{"geonameid":837598,"name":"Cracu Almăi","asciiname":"Cracu Almai","alternatenames":"","latitude":"44.7763900","longitude":"21.8475000","fclass":"P","fcode":"PPL","country":"RO","cc2":"","admin1":"12","admin2":"54163","admin3":"","admin4":"","population":0,"elevation":0,"gtopo30":371,"timezone":"Europe/Bucharest","moddate":"2016-02-07T00:00:00.000Z"},{"geonameid":678818,"name":"Driștie","asciiname":"Dristie","alternatenames":"","latitude":"44.8359400","longitude":"21.8576100","fclass":"P","fcode":"PPL","country":"RO","cc2":"","admin1":"12","admin2":"54163","admin3":"","admin4":"","population":35,"elevation":0,"gtopo30":202,"timezone":"Europe/Bucharest","moddate":"2013-04-21T00:00:00.000Z"},{"geonameid":669996,"name":"Poienile Boinei","asciiname":"Poienile Boinei","alternatenames":"Poienile Boinei,Pojenile Bojne","latitude":"44.7921400","longitude":"21.8800400","fclass":"P","fcode":"PPL","country":"RO","cc2":"RO","admin1":"12","admin2":"54163","admin3":"","admin4":"","population":53,"elevation":0,"gtopo30":542,"timezone":"Europe/Bucharest","moddate":"2013-04-21T00:00:00.000Z"},{"geonameid":669384,"name":"Răchita","asciiname":"Rachita","alternatenames":"","latitude":"44.7810300","longitude":"21.8472600","fclass":"P","fcode":"PPL","country":"RO","cc2":"","admin1":"12","admin2":"54163","admin3":"","admin4":"","population":183,"elevation":0,"gtopo30":434,"timezone":"Europe/Bucharest","moddate":"2013-04-21T00:00:00.000Z"},{"geonameid":669090,"name":"Ravensca","asciiname":"Ravensca","alternatenames":"Ravencka,Ravensca","latitude":"44.7741100","longitude":"21.9156300","fclass":"P","fcode":"PPL","country":"RO","cc2":"RO","admin1":"12","admin2":"54163","admin3":"","admin4":"","population":227,"elevation":0,"gtopo30":736,"timezone":"Europe/Bucharest","moddate":"2013-04-21T00:00:00.000Z"},{"geonameid":666433,"name":"Şopotu Nou","asciiname":"Sopotu Nou","alternatenames":"Novi Sopot,Sopotu Nou,Sopotul-Nou,Şopotu Nou,Şopotul-Nou","latitude":"44.8419400","longitude":"21.8627800","fclass":"P","fcode":"PPLA2","country":"RO","cc2":"","admin1":"12","admin2":"54163","admin3":"","admin4":"","population":1397,"elevation":0,"gtopo30":418,"timezone":"Europe/Bucharest","moddate":"2012-06-12T00:00:00.000Z"},{"geonameid":666313,"name":"Stăncilova","asciiname":"Stancilova","alternatenames":"","latitude":"44.8162300","longitude":"21.8127800","fclass":"P","fcode":"PPL","country":"RO","cc2":"","admin1":"12","admin2":"54163","admin3":"","admin4":"","population":442,"elevation":0,"gtopo30":371,"timezone":"Europe/Bucharest","moddate":"2013-04-21T00:00:00.000Z"},{"geonameid":664827,"name":"Toma","asciiname":"Toma","alternatenames":"","latitude":"44.8166700","longitude":"21.8666700","fclass":"P","fcode":"PPLX","country":"RO","cc2":"","admin1":"12","admin2":"54163","admin3":"","admin4":"","population":0,"elevation":0,"gtopo30":299,"timezone":"Europe/Bucharest","moddate":"2016-02-07T00:00:00.000Z"},{"geonameid":664188,"name":"Urcu","asciiname":"Urcu","alternatenames":"","latitude":"44.8066000","longitude":"21.8355500","fclass":"P","fcode":"PPL","country":"RO","cc2":"","admin1":"12","admin2":"54163","admin3":"","admin4":"","population":52,"elevation":0,"gtopo30":258,"timezone":"Europe/Bucharest","moddate":"2013-04-20T00:00:00.000Z"},{"geonameid":663484,"name":"Valea Răchitei","asciiname":"Valea Rachitei","alternatenames":"","latitude":"44.7597300","longitude":"21.8730600","fclass":"P","fcode":"PPL","country":"RO","cc2":"","admin1":"12","admin2":"54163","admin3":"","admin4":"","population":119,"elevation":0,"gtopo30":549,"timezone":"Europe/Bucharest","moddate":"2013-04-20T00:00:00.000Z"},{"geonameid":663460,"name":"Valea Roșie","asciiname":"Valea Rosie","alternatenames":"","latitude":"44.7964000","longitude":"21.8162800","fclass":"P","fcode":"PPL","country":"RO","cc2":"","admin1":"12","admin2":"54163","admin3":"","admin4":"","population":75,"elevation":0,"gtopo30":498,"timezone":"Europe/Bucharest","moddate":"2013-04-20T00:00:00.000Z"}],"admin3":[],"alternateNames":[]},"__N_SSG":true}