{"pageProps":{"locale":"ro","admin2":{"geonameid":675292,"name":"Comuna Jariştea","country":"RO","admin1":"40","admin2":"176506","admin3":"","latitude":"45.7998700","longitude":"27.0425700"},"admin1":{"geonameid":662447,"name":"Vrancea","admin1":"40","localeAltName":"Vrancea"},"locations":[{"geonameid":683311,"name":"Buluc","asciiname":"Buluc","alternatenames":"","latitude":"45.7833300","longitude":"27.0500000","fclass":"P","fcode":"PPLX","country":"RO","cc2":"","admin1":"40","admin2":"176506","admin3":"","admin4":"","population":0,"elevation":0,"gtopo30":201,"timezone":"Europe/Bucharest","moddate":"2016-02-07T00:00:00.000Z"},{"geonameid":675293,"name":"Jariştea","asciiname":"Jaristea","alternatenames":"Jaristea,Jariştea","latitude":"45.7833300","longitude":"27.0666700","fclass":"P","fcode":"PPLA2","country":"RO","cc2":"","admin1":"40","admin2":"176506","admin3":"","admin4":"","population":4088,"elevation":0,"gtopo30":153,"timezone":"Europe/Bucharest","moddate":"2012-06-12T00:00:00.000Z"},{"geonameid":671533,"name":"Pădureni","asciiname":"Padureni","alternatenames":"","latitude":"45.7933900","longitude":"27.0355100","fclass":"P","fcode":"PPL","country":"RO","cc2":"","admin1":"40","admin2":"176506","admin3":"","admin4":"","population":568,"elevation":0,"gtopo30":270,"timezone":"Europe/Bucharest","moddate":"2013-04-21T00:00:00.000Z"},{"geonameid":670045,"name":"Poiana Părului","asciiname":"Poiana Parului","alternatenames":"","latitude":"45.7833300","longitude":"27.0500000","fclass":"P","fcode":"PPL","country":"RO","cc2":"","admin1":"40","admin2":"176506","admin3":"","admin4":"","population":0,"elevation":0,"gtopo30":201,"timezone":"Europe/Bucharest","moddate":"2016-02-07T00:00:00.000Z"},{"geonameid":667621,"name":"Scânteia","asciiname":"Scanteia","alternatenames":"Scanteta,Scinteia,Scânteta,Scînteia","latitude":"45.8227200","longitude":"27.0261200","fclass":"P","fcode":"PPL","country":"RO","cc2":"RO","admin1":"40","admin2":"176506","admin3":"","admin4":"","population":263,"elevation":0,"gtopo30":306,"timezone":"Europe/Bucharest","moddate":"2013-04-21T00:00:00.000Z"},{"geonameid":667660,"name":"Schitu Buhu","asciiname":"Schitu Buhu","alternatenames":"","latitude":"45.7833300","longitude":"27.0500000","fclass":"P","fcode":"PPLX","country":"RO","cc2":"","admin1":"40","admin2":"176506","admin3":"","admin4":"","population":0,"elevation":0,"gtopo30":201,"timezone":"Europe/Bucharest","moddate":"2016-02-07T00:00:00.000Z"},{"geonameid":663151,"name":"Vărsătura","asciiname":"Varsatura","alternatenames":"Varsatura,Varsatura Padureni,Vărsătura,Vărsătura Padureni","latitude":"45.7887400","longitude":"27.0445000","fclass":"P","fcode":"PPL","country":"RO","cc2":"RO","admin1":"40","admin2":"176506","admin3":"","admin4":"","population":576,"elevation":0,"gtopo30":228,"timezone":"Europe/Bucharest","moddate":"2013-04-20T00:00:00.000Z"}],"admin3":[],"alternateNames":[{"alternatenameId":391637,"geonameid":662447,"isoLanguage":"ro","alternateName":"Vrancea","isPreferredName":true,"isShortName":true,"isColloquial":false,"isHistoric":false}]},"__N_SSG":true}