{"pageProps":{"locale":"ro","admin2":{"geonameid":667971,"name":"Comuna Sărmaş","country":"RO","admin1":"20","admin2":"85528","admin3":"","latitude":"46.8868000","longitude":"25.4428900"},"admin1":{"geonameid":676309,"name":"Harghita","admin1":"20"},"locations":[{"geonameid":677799,"name":"Fundoaia","asciiname":"Fundoaia","alternatenames":"Fundoaia,Fundoja","latitude":"46.8851000","longitude":"25.4656100","fclass":"P","fcode":"PPL","country":"RO","cc2":"RO","admin1":"20","admin2":"85528","admin3":"","admin4":"","population":658,"elevation":0,"gtopo30":824,"timezone":"Europe/Bucharest","moddate":"2020-04-20T00:00:00.000Z"},{"geonameid":676093,"name":"Hodoșa","asciiname":"Hodosa","alternatenames":"Ditro Hodas,Ditró Hodas,Hodos,Hodosa,Hodosa-de-Ciuc,Hodoşa,Hodoşa-de-Ciuc","latitude":"46.8655800","longitude":"25.4462000","fclass":"P","fcode":"PPL","country":"RO","cc2":"RO","admin1":"20","admin2":"85528","admin3":"","admin4":"","population":1592,"elevation":0,"gtopo30":699,"timezone":"Europe/Bucharest","moddate":"2013-04-21T00:00:00.000Z"},{"geonameid":670549,"name":"Platonești","asciiname":"Platonesti","alternatenames":"Platonest,Platonesti,Platoneşti","latitude":"46.9064200","longitude":"25.4181600","fclass":"P","fcode":"PPL","country":"RO","cc2":"RO","admin1":"20","admin2":"85528","admin3":"","admin4":"","population":556,"elevation":0,"gtopo30":709,"timezone":"Europe/Bucharest","moddate":"2020-04-20T00:00:00.000Z"},{"geonameid":668475,"name":"Runc","asciiname":"Runc","alternatenames":"Runc,Runk","latitude":"46.8895800","longitude":"25.4414100","fclass":"P","fcode":"PPL","country":"RO","cc2":"RO","admin1":"20","admin2":"85528","admin3":"","admin4":"","population":700,"elevation":0,"gtopo30":704,"timezone":"Europe/Bucharest","moddate":"2020-04-20T00:00:00.000Z"},{"geonameid":667972,"name":"Sărmaş","asciiname":"Sarmas","alternatenames":"Salamas,Salamàs,Salarnas,Salarnás,Sarmas,Sarmasul,Sărmaş,Sărmaşul","latitude":"46.8802000","longitude":"25.4546200","fclass":"P","fcode":"PPLA2","country":"RO","cc2":"","admin1":"20","admin2":"85528","admin3":"","admin4":"","population":4074,"elevation":0,"gtopo30":757,"timezone":"Europe/Bucharest","moddate":"2020-04-20T00:00:00.000Z"}],"admin3":[],"alternateNames":[]},"__N_SSG":true}