{"pageProps":{"locale":"ro","admin2":{"geonameid":683083,"name":"Comuna Cacica","country":"RO","admin1":"34","admin2":"147526","admin3":"","latitude":"47.6555300","longitude":"25.8667300"},"admin1":{"geonameid":665849,"name":"Suceava","admin1":"34"},"locations":[{"geonameid":683084,"name":"Cacica","asciiname":"Cacica","alternatenames":"","latitude":"47.6333300","longitude":"25.9000000","fclass":"P","fcode":"PPLA2","country":"RO","cc2":"","admin1":"34","admin2":"147526","admin3":"","admin4":"","population":4438,"elevation":0,"gtopo30":456,"timezone":"Europe/Bucharest","moddate":"2012-06-12T00:00:00.000Z"},{"geonameid":674064,"name":"Maidan","asciiname":"Maidan","alternatenames":"","latitude":"47.6621800","longitude":"25.8220100","fclass":"P","fcode":"PPL","country":"RO","cc2":"","admin1":"34","admin2":"147526","admin3":"","admin4":"","population":102,"elevation":0,"gtopo30":544,"timezone":"Europe/Bucharest","moddate":"2016-01-02T00:00:00.000Z"},{"geonameid":670679,"name":"Pârteştii de Sus","asciiname":"Partestii de Sus","alternatenames":"Partestii de Sus,Pirtestii de Sus,Pârteştii de Sus,Pîrteştii de Sus,Părteştii de Sus","latitude":"47.6500000","longitude":"25.9166700","fclass":"P","fcode":"PPL","country":"RO","cc2":"RO","admin1":"34","admin2":"147526","admin3":"","admin4":"","population":0,"elevation":0,"gtopo30":429,"timezone":"Europe/Bucharest","moddate":"2020-03-08T00:00:00.000Z"},{"geonameid":668460,"name":"Runcu","asciiname":"Runcu","alternatenames":"","latitude":"47.6736600","longitude":"25.8454400","fclass":"P","fcode":"PPL","country":"RO","cc2":"","admin1":"34","admin2":"147526","admin3":"","admin4":"","population":184,"elevation":0,"gtopo30":540,"timezone":"Europe/Bucharest","moddate":"2013-04-21T00:00:00.000Z"},{"geonameid":666485,"name":"Solonețu Nou","asciiname":"Solonetu Nou","alternatenames":"","latitude":"47.6563400","longitude":"25.8510200","fclass":"P","fcode":"PPL","country":"RO","cc2":"","admin1":"34","admin2":"147526","admin3":"","admin4":"","population":673,"elevation":0,"gtopo30":477,"timezone":"Europe/Bucharest","moddate":"2016-01-02T00:00:00.000Z"}],"admin3":[],"alternateNames":[{"alternatenameId":393492,"geonameid":665849,"isoLanguage":"en","alternateName":"Suceava","isPreferredName":true,"isShortName":true,"isColloquial":false,"isHistoric":false}]},"__N_SSG":true}