{"pageProps":{"locale":"en","admin2":{"geonameid":3333188,"name":"Borough of Rochdale","country":"GB","admin1":"ENG","admin2":"L2","admin3":"","latitude":"53.5833300","longitude":"-2.1666700","localeAltName":"Rochdale"},"admin1":{"geonameid":6269131,"name":"England","admin1":"ENG","localeAltName":"England"},"locations":[{"geonameid":2655632,"name":"Birch","asciiname":"Birch","alternatenames":"","latitude":"53.5674300","longitude":"-2.2255900","fclass":"P","fcode":"PPL","country":"GB","cc2":"","admin1":"ENG","admin2":"L2","admin3":"","admin4":"","population":0,"elevation":0,"gtopo30":111,"timezone":"Europe/London","moddate":"2008-07-03T00:00:00.000Z"},{"geonameid":2653542,"name":"Castleton","asciiname":"Castleton","alternatenames":"Castleton","latitude":"53.5833300","longitude":"-2.1833300","fclass":"P","fcode":"PPL","country":"GB","cc2":"","admin1":"ENG","admin2":"L2","admin3":"","admin4":"","population":0,"elevation":0,"gtopo30":131,"timezone":"Europe/London","moddate":"2018-07-04T00:00:00.000Z"},{"geonameid":6691236,"name":"Firgrove","asciiname":"Firgrove","alternatenames":"","latitude":"53.6157500","longitude":"-2.1246900","fclass":"P","fcode":"PPLX","country":"GB","cc2":"","admin1":"ENG","admin2":"L2","admin3":"00BP002","admin4":"","population":0,"elevation":0,"gtopo30":149,"timezone":"Europe/London","moddate":"2011-03-03T00:00:00.000Z"},{"geonameid":10345349,"name":"Hopwood","asciiname":"Hopwood","alternatenames":"","latitude":"53.5700900","longitude":"-2.1882500","fclass":"P","fcode":"PPL","country":"GB","cc2":"","admin1":"ENG","admin2":"L2","admin3":"","admin4":"","population":0,"elevation":0,"gtopo30":121,"timezone":"Europe/London","moddate":"2015-06-22T00:00:00.000Z"},{"geonameid":2644367,"name":"Littleborough","asciiname":"Littleborough","alternatenames":"Littleborough","latitude":"53.6441300","longitude":"-2.0958100","fclass":"P","fcode":"PPL","country":"GB","cc2":"","admin1":"ENG","admin2":"L2","admin3":"","admin4":"","population":13807,"elevation":0,"gtopo30":150,"timezone":"Europe/London","moddate":"2013-12-11T00:00:00.000Z"},{"geonameid":2642593,"name":"Middleton","asciiname":"Middleton","alternatenames":"Middleton","latitude":"53.5500000","longitude":"-2.2000000","fclass":"P","fcode":"PPL","country":"GB","cc2":"","admin1":"ENG","admin2":"L2","admin3":"","admin4":"","population":45589,"elevation":0,"gtopo30":87,"timezone":"Europe/London","moddate":"2013-08-05T00:00:00.000Z"},{"geonameid":2642483,"name":"Milnrow","asciiname":"Milnrow","alternatenames":"","latitude":"53.6111500","longitude":"-2.1126600","fclass":"P","fcode":"PPL","country":"GB","cc2":"","admin1":"ENG","admin2":"L2","admin3":"00BP002","admin4":"","population":13061,"elevation":0,"gtopo30":148,"timezone":"Europe/London","moddate":"2011-03-03T00:00:00.000Z"},{"geonameid":2641634,"name":"New Hey","asciiname":"New Hey","alternatenames":"","latitude":"53.6000000","longitude":"-2.0833300","fclass":"P","fcode":"PPL","country":"GB","cc2":"","admin1":"ENG","admin2":"L2","admin3":"","admin4":"","population":0,"elevation":0,"gtopo30":205,"timezone":"Europe/London","moddate":"2013-07-11T00:00:00.000Z"},{"geonameid":2639272,"name":"Rochdale","asciiname":"Rochdale","alternatenames":"Recedham,Rocdeilis,Rochdale,Rochdejl,Ročdeilis,lochideil,luo qi dai er,rotchideru,rwchdyl,Рочдейл,Рочдејл,راچڈیل,روچدیل,ロッチデール,羅奇代爾,로치데일","latitude":"53.6176600","longitude":"-2.1552000","fclass":"P","fcode":"PPLA2","country":"GB","cc2":"","admin1":"ENG","admin2":"L2","admin3":"30UM","admin4":"","population":97550,"elevation":0,"gtopo30":127,"timezone":"Europe/London","moddate":"2011-03-03T00:00:00.000Z"},{"geonameid":6691239,"name":"Shore","asciiname":"Shore","alternatenames":"","latitude":"53.6494200","longitude":"-2.1117600","fclass":"P","fcode":"PPLX","country":"GB","cc2":"","admin1":"ENG","admin2":"L2","admin3":"00CY006","admin4":"","population":0,"elevation":0,"gtopo30":191,"timezone":"Europe/London","moddate":"2011-03-03T00:00:00.000Z"},{"geonameid":2637603,"name":"Smithy Bridge","asciiname":"Smithy Bridge","alternatenames":"","latitude":"53.6330000","longitude":"-2.1137600","fclass":"P","fcode":"PPL","country":"GB","cc2":"","admin1":"ENG","admin2":"L2","admin3":"00BP002","admin4":"","population":0,"elevation":0,"gtopo30":142,"timezone":"Europe/London","moddate":"2011-03-03T00:00:00.000Z"},{"geonameid":6691240,"name":"Smithybridge","asciiname":"Smithybridge","alternatenames":"","latitude":"53.6445400","longitude":"-2.0875700","fclass":"P","fcode":"PPLX","country":"GB","cc2":"","admin1":"ENG","admin2":"L2","admin3":"","admin4":"","population":0,"elevation":0,"gtopo30":175,"timezone":"Europe/London","moddate":"2010-05-25T00:00:00.000Z"},{"geonameid":2634782,"name":"Wardle","asciiname":"Wardle","alternatenames":"Wardle","latitude":"53.6500000","longitude":"-2.1333300","fclass":"P","fcode":"PPL","country":"GB","cc2":"","admin1":"ENG","admin2":"L2","admin3":"","admin4":"","population":7250,"elevation":0,"gtopo30":200,"timezone":"Europe/London","moddate":"2013-08-05T00:00:00.000Z"}],"admin3":[],"alternateNames":[{"alternatenameId":8666516,"geonameid":3333188,"isoLanguage":"en","alternateName":"Rochdale","isPreferredName":true,"isShortName":true,"isColloquial":false,"isHistoric":false},{"alternatenameId":1626647,"geonameid":6269131,"isoLanguage":"en","alternateName":"England","isPreferredName":true,"isShortName":true,"isColloquial":false,"isHistoric":false}]},"__N_SSG":true}