{"pageProps":{"locale":"ro","admin2":{"geonameid":664474,"name":"Oraş Turceni","country":"RO","admin1":"19","admin2":"82617","admin3":"","latitude":"44.7177900","longitude":"23.3541900"},"admin1":{"geonameid":676898,"name":"Gorj","admin1":"19"},"locations":[{"geonameid":677216,"name":"Gârbovu","asciiname":"Garbovu","alternatenames":"Garbovu,Girbovu,Gârbovu,Gîrbovu","latitude":"44.7316300","longitude":"23.3465500","fclass":"P","fcode":"PPL","country":"RO","cc2":"RO","admin1":"19","admin2":"82617","admin3":"","admin4":"","population":472,"elevation":0,"gtopo30":135,"timezone":"Europe/Bucharest","moddate":"2013-04-21T00:00:00.000Z"},{"geonameid":675224,"name":"Jilțu","asciiname":"Jiltu","alternatenames":"","latitude":"44.6895500","longitude":"23.3789000","fclass":"P","fcode":"PPL","country":"RO","cc2":"","admin1":"19","admin2":"82617","admin3":"","admin4":"","population":319,"elevation":0,"gtopo30":125,"timezone":"Europe/Bucharest","moddate":"2013-04-21T00:00:00.000Z"},{"geonameid":672611,"name":"Murgești","asciiname":"Murgesti","alternatenames":"","latitude":"44.7108500","longitude":"23.3637200","fclass":"P","fcode":"PPL","country":"RO","cc2":"","admin1":"19","admin2":"82617","admin3":"","admin4":"","population":800,"elevation":0,"gtopo30":135,"timezone":"Europe/Bucharest","moddate":"2013-04-21T00:00:00.000Z"},{"geonameid":667999,"name":"Sărdăneştii de Sus","asciiname":"Sardanestii de Sus","alternatenames":"Sardanestii de Sus,Stramba,Strimba,Strâmba,Strîmba,Sărdăneştii de Sus","latitude":"44.7666700","longitude":"23.3166700","fclass":"P","fcode":"PPLX","country":"RO","cc2":"","admin1":"19","admin2":"82617","admin3":"","admin4":"","population":0,"elevation":0,"gtopo30":143,"timezone":"Europe/Bucharest","moddate":"2016-02-07T00:00:00.000Z"},{"geonameid":666032,"name":"Stolojani-Jiu","asciiname":"Stolojani-Jiu","alternatenames":"","latitude":"44.6666700","longitude":"23.3833300","fclass":"P","fcode":"PPL","country":"RO","cc2":"","admin1":"19","admin2":"82617","admin3":"","admin4":"","population":0,"elevation":0,"gtopo30":131,"timezone":"Europe/Bucharest","moddate":"2016-02-07T00:00:00.000Z"},{"geonameid":665968,"name":"Strâmba-Jiu","asciiname":"Stramba-Jiu","alternatenames":"Stramba-Jiu,Stramba-de-Jiu,Strimba-Jiu,Strâmba-Jiu,Strâmba-de-Jiu,Strîmba-Jiu","latitude":"44.7500000","longitude":"23.3333300","fclass":"P","fcode":"PPL","country":"RO","cc2":"RO","admin1":"19","admin2":"82617","admin3":"","admin4":"","population":0,"elevation":0,"gtopo30":137,"timezone":"Europe/Bucharest","moddate":"2020-03-08T00:00:00.000Z"},{"geonameid":664475,"name":"Turceni","asciiname":"Turceni","alternatenames":"Turceni,Turcenii de Sus","latitude":"44.6833300","longitude":"23.3666700","fclass":"P","fcode":"PPLA2","country":"RO","cc2":"","admin1":"19","admin2":"82617","admin3":"","admin4":"","population":8458,"elevation":0,"gtopo30":127,"timezone":"Europe/Bucharest","moddate":"2012-06-12T00:00:00.000Z"},{"geonameid":664473,"name":"Turcenii de Jos","asciiname":"Turcenii de Jos","alternatenames":"Turceni de Jos,Turcenii de Jos","latitude":"44.6500000","longitude":"23.4000000","fclass":"P","fcode":"PPL","country":"RO","cc2":"","admin1":"19","admin2":"82617","admin3":"","admin4":"","population":0,"elevation":0,"gtopo30":140,"timezone":"Europe/Bucharest","moddate":"2016-02-07T00:00:00.000Z"},{"geonameid":663318,"name":"Valea Viei","asciiname":"Valea Viei","alternatenames":"Valea Viei,Valea Vii","latitude":"44.7410000","longitude":"23.3344200","fclass":"P","fcode":"PPL","country":"RO","cc2":"RO","admin1":"19","admin2":"82617","admin3":"","admin4":"","population":519,"elevation":0,"gtopo30":148,"timezone":"Europe/Bucharest","moddate":"2013-04-20T00:00:00.000Z"}],"admin3":[],"alternateNames":[]},"__N_SSG":true}