{"pageProps":{"locale":"ro","admin2":{"geonameid":669502,"name":"Comuna Pufeşti","country":"RO","admin1":"40","admin2":"177352","admin3":"","latitude":"46.0111100","longitude":"27.2090100"},"admin1":{"geonameid":662447,"name":"Vrancea","admin1":"40","localeAltName":"Vrancea"},"locations":[{"geonameid":681673,"name":"Ciorani","asciiname":"Ciorani","alternatenames":"Ciorani,Cioranii","latitude":"45.9882400","longitude":"27.2161400","fclass":"P","fcode":"PPL","country":"RO","cc2":"RO","admin1":"40","admin2":"177352","admin3":"","admin4":"","population":1077,"elevation":0,"gtopo30":78,"timezone":"Europe/Bucharest","moddate":"2013-04-21T00:00:00.000Z"},{"geonameid":679113,"name":"Domnești-Sat","asciiname":"Domnesti-Sat","alternatenames":"Domnesti,Domnesti-Sat,Domnestii,Domnestii-Sat,Domneşti,Domneşti-Sat,Domneştii,Domneştii-Sat","latitude":"46.0274700","longitude":"27.2164400","fclass":"P","fcode":"PPL","country":"RO","cc2":"RO","admin1":"40","admin2":"177352","admin3":"","admin4":"","population":118,"elevation":0,"gtopo30":78,"timezone":"Europe/Bucharest","moddate":"2013-04-21T00:00:00.000Z"},{"geonameid":679111,"name":"Domnești-Târg","asciiname":"Domnesti-Targ","alternatenames":"Domnesti-Tirg,Domnești-Tîrg","latitude":"46.0166700","longitude":"27.1833300","fclass":"P","fcode":"PPL","country":"RO","cc2":"","admin1":"40","admin2":"177352","admin3":"","admin4":"","population":1169,"elevation":0,"gtopo30":98,"timezone":"Europe/Bucharest","moddate":"2016-01-11T00:00:00.000Z"},{"geonameid":669504,"name":"Pufeşti","asciiname":"Pufesti","alternatenames":"Pufesti,Pufestii,Pufeşti,Pufeştii","latitude":"46.0000000","longitude":"27.2000000","fclass":"P","fcode":"PPLA2","country":"RO","cc2":"","admin1":"40","admin2":"177352","admin3":"","admin4":"","population":4179,"elevation":0,"gtopo30":86,"timezone":"Europe/Bucharest","moddate":"2012-06-12T00:00:00.000Z"}],"admin3":[],"alternateNames":[{"alternatenameId":391637,"geonameid":662447,"isoLanguage":"ro","alternateName":"Vrancea","isPreferredName":true,"isShortName":true,"isColloquial":false,"isHistoric":false}]},"__N_SSG":true}