{"pageProps":{"locale":"ro","admin2":{"geonameid":680310,"name":"Comuna Crasna","country":"RO","admin1":"19","admin2":"79834","admin3":"","latitude":"45.1706500","longitude":"23.5562500"},"admin1":{"geonameid":676898,"name":"Gorj","admin1":"19"},"locations":[{"geonameid":686321,"name":"Aninișu din Deal","asciiname":"Aninisu din Deal","alternatenames":"Aninisu din Deal,Aninişu din Deal,Aninsul din Deal,Aninşul din Deal","latitude":"45.1777900","longitude":"23.6167900","fclass":"P","fcode":"PPL","country":"RO","cc2":"RO","admin1":"19","admin2":"79834","admin3":"","admin4":"","population":285,"elevation":0,"gtopo30":509,"timezone":"Europe/Bucharest","moddate":"2013-04-21T00:00:00.000Z"},{"geonameid":686320,"name":"Aninișu din Vale","asciiname":"Aninisu din Vale","alternatenames":"Aninisiu-din-Vale,Aninisu,Aninisu din Vale,Aninisul-din-Vale,Aninişiu-din-Vale,Aninişu,Aninişu din Vale,Aninişul-din-Vale","latitude":"45.1740400","longitude":"23.6086700","fclass":"P","fcode":"PPL","country":"RO","cc2":"RO","admin1":"19","admin2":"79834","admin3":"","admin4":"","population":570,"elevation":0,"gtopo30":452,"timezone":"Europe/Bucharest","moddate":"2013-04-21T00:00:00.000Z"},{"geonameid":683108,"name":"Buzești","asciiname":"Buzesti","alternatenames":"","latitude":"45.1228300","longitude":"23.5127300","fclass":"P","fcode":"PPL","country":"RO","cc2":"","admin1":"19","admin2":"79834","admin3":"","admin4":"","population":463,"elevation":0,"gtopo30":366,"timezone":"Europe/Bucharest","moddate":"2013-04-21T00:00:00.000Z"},{"geonameid":682648,"name":"Cărpiniș","asciiname":"Carpinis","alternatenames":"","latitude":"45.1840700","longitude":"23.5805200","fclass":"P","fcode":"PPL","country":"RO","cc2":"","admin1":"19","admin2":"79834","admin3":"","admin4":"","population":1084,"elevation":0,"gtopo30":489,"timezone":"Europe/Bucharest","moddate":"2013-04-21T00:00:00.000Z"},{"geonameid":680319,"name":"Crasna","asciiname":"Crasna","alternatenames":"Crasna,Crasna Ungureni","latitude":"45.1666700","longitude":"23.5000000","fclass":"P","fcode":"PPLA2","country":"RO","cc2":"","admin1":"19","admin2":"79834","admin3":"","admin4":"","population":5466,"elevation":0,"gtopo30":445,"timezone":"Europe/Bucharest","moddate":"2012-06-12T00:00:00.000Z"},{"geonameid":680307,"name":"Crasna din Deal","asciiname":"Crasna din Deal","alternatenames":"Crasna,Crasna din Deal","latitude":"45.1850600","longitude":"23.5437400","fclass":"P","fcode":"PPL","country":"RO","cc2":"RO","admin1":"19","admin2":"79834","admin3":"","admin4":"","population":505,"elevation":0,"gtopo30":542,"timezone":"Europe/Bucharest","moddate":"2013-04-21T00:00:00.000Z"},{"geonameid":680306,"name":"Crasna din Vale","asciiname":"Crasna din Vale","alternatenames":"","latitude":"45.1666700","longitude":"23.5333300","fclass":"P","fcode":"PPL","country":"RO","cc2":"","admin1":"19","admin2":"79834","admin3":"","admin4":"","population":0,"elevation":0,"gtopo30":448,"timezone":"Europe/Bucharest","moddate":"2016-02-07T00:00:00.000Z"},{"geonameid":678945,"name":"Drăgoiești","asciiname":"Dragoiesti","alternatenames":"","latitude":"45.1799800","longitude":"23.5079700","fclass":"P","fcode":"PPL","country":"RO","cc2":"","admin1":"19","admin2":"79834","admin3":"","admin4":"","population":584,"elevation":0,"gtopo30":506,"timezone":"Europe/Bucharest","moddate":"2013-04-21T00:00:00.000Z"},{"geonameid":678706,"name":"Dumbrăveni","asciiname":"Dumbraveni","alternatenames":"Dumbraveni,Dumbrăveni,Turbati,Turbaţi","latitude":"45.1495600","longitude":"23.5136000","fclass":"P","fcode":"PPL","country":"RO","cc2":"RO","admin1":"19","admin2":"79834","admin3":"","admin4":"","population":668,"elevation":0,"gtopo30":406,"timezone":"Europe/Bucharest","moddate":"2013-04-21T00:00:00.000Z"},{"geonameid":671000,"name":"Petreşti","asciiname":"Petresti","alternatenames":"","latitude":"45.1666700","longitude":"23.5833300","fclass":"P","fcode":"PPL","country":"RO","cc2":"","admin1":"19","admin2":"79834","admin3":"","admin4":"","population":0,"elevation":0,"gtopo30":428,"timezone":"Europe/Bucharest","moddate":"2016-02-07T00:00:00.000Z"},{"geonameid":669246,"name":"Radoși","asciiname":"Radosi","alternatenames":"","latitude":"45.1886100","longitude":"23.5962900","fclass":"P","fcode":"PPL","country":"RO","cc2":"","admin1":"19","admin2":"79834","admin3":"","admin4":"","population":841,"elevation":0,"gtopo30":516,"timezone":"Europe/Bucharest","moddate":"2013-04-21T00:00:00.000Z"}],"admin3":[],"alternateNames":[]},"__N_SSG":true}