{"pageProps":{"locale":"ro","admin2":{"geonameid":679512,"name":"Comuna Deleni","country":"RO","admin1":"38","admin2":"163324","admin3":"","latitude":"46.5348600","longitude":"27.7572600"},"admin1":{"geonameid":663116,"name":"Vaslui","admin1":"38"},"locations":[{"geonameid":683331,"name":"Bulboaca","asciiname":"Bulboaca","alternatenames":"","latitude":"46.5508400","longitude":"27.7792100","fclass":"P","fcode":"PPL","country":"RO","cc2":"","admin1":"38","admin2":"163324","admin3":"","admin4":"","population":412,"elevation":0,"gtopo30":90,"timezone":"Europe/Bucharest","moddate":"2013-04-21T00:00:00.000Z"},{"geonameid":679524,"name":"Deleni","asciiname":"Deleni","alternatenames":"Deleni","latitude":"46.5500000","longitude":"27.7500000","fclass":"P","fcode":"PPLA2","country":"RO","cc2":"","admin1":"38","admin2":"163324","admin3":"","admin4":"","population":2627,"elevation":0,"gtopo30":241,"timezone":"Europe/Bucharest","moddate":"2012-06-12T00:00:00.000Z"},{"geonameid":679508,"name":"Deleni de Jos","asciiname":"Deleni de Jos","alternatenames":"","latitude":"46.5333300","longitude":"27.7500000","fclass":"P","fcode":"PPLX","country":"RO","cc2":"","admin1":"38","admin2":"163324","admin3":"","admin4":"","population":0,"elevation":0,"gtopo30":227,"timezone":"Europe/Bucharest","moddate":"2016-02-07T00:00:00.000Z"},{"geonameid":679507,"name":"Deleni de Sus","asciiname":"Deleni de Sus","alternatenames":"","latitude":"46.5333300","longitude":"27.7500000","fclass":"P","fcode":"PPLX","country":"RO","cc2":"","admin1":"38","admin2":"163324","admin3":"","admin4":"","population":0,"elevation":0,"gtopo30":227,"timezone":"Europe/Bucharest","moddate":"2016-02-07T00:00:00.000Z"},{"geonameid":672860,"name":"Moreni","asciiname":"Moreni","alternatenames":"","latitude":"46.5131200","longitude":"27.7416400","fclass":"P","fcode":"PPL","country":"RO","cc2":"","admin1":"38","admin2":"163324","admin3":"","admin4":"","population":35,"elevation":0,"gtopo30":181,"timezone":"Europe/Bucharest","moddate":"2013-04-21T00:00:00.000Z"},{"geonameid":662179,"name":"Zizinca","asciiname":"Zizinca","alternatenames":"","latitude":"46.5448000","longitude":"27.7475400","fclass":"P","fcode":"PPL","country":"RO","cc2":"","admin1":"38","admin2":"163324","admin3":"","admin4":"","population":284,"elevation":0,"gtopo30":254,"timezone":"Europe/Bucharest","moddate":"2013-04-20T00:00:00.000Z"}],"admin3":[],"alternateNames":[]},"__N_SSG":true}