{"pageProps":{"locale":"ro","admin2":{"geonameid":683925,"name":"Comuna Brăduleţ","country":"RO","admin1":"03","admin2":"14753","admin3":"","latitude":"45.2750200","longitude":"24.7737200"},"admin1":{"geonameid":686192,"name":"Argeş","admin1":"03"},"locations":[{"geonameid":686410,"name":"Alunișu","asciiname":"Alunisu","alternatenames":"Alunisu,Alunisul,Alunişu,Alunişul","latitude":"45.2951000","longitude":"24.7742700","fclass":"P","fcode":"PPL","country":"RO","cc2":"RO","admin1":"03","admin2":"14753","admin3":"","admin4":"","population":23,"elevation":0,"gtopo30":611,"timezone":"Europe/Bucharest","moddate":"2013-04-21T00:00:00.000Z"},{"geonameid":683945,"name":"Brădetu","asciiname":"Bradetu","alternatenames":"Bradet,Bradetu,Brădet,Brădetu","latitude":"45.3099200","longitude":"24.7621200","fclass":"P","fcode":"PPL","country":"RO","cc2":"RO","admin1":"03","admin2":"14753","admin3":"","admin4":"","population":589,"elevation":0,"gtopo30":639,"timezone":"Europe/Bucharest","moddate":"2013-04-21T00:00:00.000Z"},{"geonameid":683926,"name":"Brăduleţ","asciiname":"Bradulet","alternatenames":"Bradulet,Brateni,Bratienii,Brăduleţ,Brăteni,Brătienii","latitude":"45.2833300","longitude":"24.7666700","fclass":"P","fcode":"PPLA2","country":"RO","cc2":"","admin1":"03","admin2":"14753","admin3":"","admin4":"","population":2130,"elevation":0,"gtopo30":685,"timezone":"Europe/Bucharest","moddate":"2012-06-12T00:00:00.000Z"},{"geonameid":683512,"name":"Bucura","asciiname":"Bucura","alternatenames":"","latitude":"45.3166700","longitude":"24.7666700","fclass":"P","fcode":"PPLX","country":"RO","cc2":"","admin1":"03","admin2":"14753","admin3":"","admin4":"","population":0,"elevation":0,"gtopo30":704,"timezone":"Europe/Bucharest","moddate":"2016-02-07T00:00:00.000Z"},{"geonameid":680664,"name":"Cosaci","asciiname":"Cosaci","alternatenames":"Cosaci,Cosacii","latitude":"45.2768400","longitude":"24.7852300","fclass":"P","fcode":"PPL","country":"RO","cc2":"RO","admin1":"03","admin2":"14753","admin3":"","admin4":"","population":180,"elevation":0,"gtopo30":598,"timezone":"Europe/Bucharest","moddate":"2013-04-21T00:00:00.000Z"},{"geonameid":677652,"name":"Galeșu","asciiname":"Galesu","alternatenames":"Galesu,Galesul,Galeşu,Galeşul","latitude":"45.2717700","longitude":"24.7640900","fclass":"P","fcode":"PPL","country":"RO","cc2":"RO","admin1":"03","admin2":"14753","admin3":"","admin4":"","population":561,"elevation":0,"gtopo30":678,"timezone":"Europe/Bucharest","moddate":"2013-04-21T00:00:00.000Z"},{"geonameid":670915,"name":"Piatra","asciiname":"Piatra","alternatenames":"","latitude":"45.2488700","longitude":"24.7703300","fclass":"P","fcode":"PPL","country":"RO","cc2":"","admin1":"03","admin2":"14753","admin3":"","admin4":"","population":86,"elevation":0,"gtopo30":556,"timezone":"Europe/Bucharest","moddate":"2013-04-21T00:00:00.000Z"},{"geonameid":668662,"name":"Roşeşti","asciiname":"Rosesti","alternatenames":"","latitude":"45.2833300","longitude":"24.7500000","fclass":"P","fcode":"PPLX","country":"RO","cc2":"","admin1":"03","admin2":"14753","admin3":"","admin4":"","population":0,"elevation":0,"gtopo30":771,"timezone":"Europe/Bucharest","moddate":"2016-02-07T00:00:00.000Z"},{"geonameid":668181,"name":"Sălcioara","asciiname":"Salcioara","alternatenames":"Salcioara,Seci,Sălcioara","latitude":"45.3166700","longitude":"24.7666700","fclass":"P","fcode":"PPLX","country":"RO","cc2":"","admin1":"03","admin2":"14753","admin3":"","admin4":"","population":0,"elevation":0,"gtopo30":704,"timezone":"Europe/Bucharest","moddate":"2020-06-10T00:00:00.000Z"},{"geonameid":666777,"name":"Slămnești","asciiname":"Slamnesti","alternatenames":"Slamnesti,Slamnestii,Slămneşti,Slămneştii","latitude":"45.2699400","longitude":"24.7713900","fclass":"P","fcode":"PPL","country":"RO","cc2":"RO","admin1":"03","admin2":"14753","admin3":"","admin4":"","population":162,"elevation":0,"gtopo30":626,"timezone":"Europe/Bucharest","moddate":"2013-04-21T00:00:00.000Z"},{"geonameid":664335,"name":"Uleni","asciiname":"Uleni","alternatenames":"Uleni,Ulenil","latitude":"45.2651800","longitude":"24.7819600","fclass":"P","fcode":"PPL","country":"RO","cc2":"RO","admin1":"03","admin2":"14753","admin3":"","admin4":"","population":168,"elevation":0,"gtopo30":585,"timezone":"Europe/Bucharest","moddate":"2013-04-21T00:00:00.000Z"},{"geonameid":664233,"name":"Ungureni","asciiname":"Ungureni","alternatenames":"","latitude":"45.2555600","longitude":"24.7731900","fclass":"P","fcode":"PPL","country":"RO","cc2":"","admin1":"03","admin2":"14753","admin3":"","admin4":"","population":117,"elevation":0,"gtopo30":555,"timezone":"Europe/Bucharest","moddate":"2013-04-20T00:00:00.000Z"}],"admin3":[],"alternateNames":[]},"__N_SSG":true}