{"pageProps":{"locale":"ro","admin2":{"geonameid":669028,"name":"Comuna Reci","country":"RO","admin1":"15","admin2":"64773","admin3":"","latitude":"45.8191300","longitude":"25.9555200"},"admin1":{"geonameid":680428,"name":"Covasna","admin1":"15"},"locations":[{"geonameid":686313,"name":"Aninoasa","asciiname":"Aninoasa","alternatenames":"Aninoasa,Egerpatak,Аниноаса","latitude":"45.8167100","longitude":"25.9669700","fclass":"P","fcode":"PPL","country":"RO","cc2":"RO","admin1":"15","admin2":"64773","admin3":"","admin4":"","population":414,"elevation":0,"gtopo30":529,"timezone":"Europe/Bucharest","moddate":"2013-04-21T00:00:00.000Z"},{"geonameid":684644,"name":"Bita","asciiname":"Bita","alternatenames":"","latitude":"45.8348300","longitude":"25.9754400","fclass":"P","fcode":"PPL","country":"RO","cc2":"","admin1":"15","admin2":"64773","admin3":"","admin4":"","population":318,"elevation":0,"gtopo30":525,"timezone":"Europe/Bucharest","moddate":"2013-04-21T00:00:00.000Z"},{"geonameid":680986,"name":"Comolău","asciiname":"Comolau","alternatenames":"Comalau,Comalaul,Comolau,Comolău,Comălău,Comălăul,Komollo,Komollò,Komolló","latitude":"45.8500000","longitude":"25.9000000","fclass":"P","fcode":"PPL","country":"RO","cc2":"","admin1":"15","admin2":"64773","admin3":"","admin4":"","population":0,"elevation":0,"gtopo30":536,"timezone":"Europe/Bucharest","moddate":"2016-02-07T00:00:00.000Z"},{"geonameid":669029,"name":"Reci","asciiname":"Reci","alternatenames":"Rety,Rèty","latitude":"45.8500000","longitude":"25.9333300","fclass":"P","fcode":"PPLA2","country":"RO","cc2":"","admin1":"15","admin2":"64773","admin3":"","admin4":"","population":2204,"elevation":0,"gtopo30":531,"timezone":"Europe/Bucharest","moddate":"2012-06-12T00:00:00.000Z"},{"geonameid":668307,"name":"Saciova","asciiname":"Saciova","alternatenames":"Saciova,Szacsava","latitude":"45.7843500","longitude":"25.9576100","fclass":"P","fcode":"PPL","country":"RO","cc2":"RO","admin1":"15","admin2":"64773","admin3":"","admin4":"","population":136,"elevation":0,"gtopo30":564,"timezone":"Europe/Bucharest","moddate":"2013-04-21T00:00:00.000Z"}],"admin3":[],"alternateNames":[]},"__N_SSG":true}