{"pageProps":{"locale":"ro","admin2":{"geonameid":680933,"name":"Comuna Copăcele","country":"RO","admin1":"12","admin2":"52062","admin3":"","latitude":"45.4803600","longitude":"22.0872000"},"admin1":{"geonameid":682714,"name":"Caraş-Severin","admin1":"12"},"locations":[{"geonameid":680934,"name":"Copăcele","asciiname":"Copacele","alternatenames":"Copacele,Copăcele","latitude":"45.5000000","longitude":"22.1000000","fclass":"P","fcode":"PPLA2","country":"RO","cc2":"","admin1":"12","admin2":"52062","admin3":"","admin4":"","population":1309,"elevation":0,"gtopo30":214,"timezone":"Europe/Bucharest","moddate":"2012-06-12T00:00:00.000Z"},{"geonameid":671914,"name":"Ohaba Mâtnic","asciiname":"Ohaba Matnic","alternatenames":"Ohaba Matnic,Ohaba Mitnic,Ohaba Mâtnic,Ohaba Mîtnic,Ohaba-Matnic,Ohaba-Matnicuiul,Ohaba-Matnicului,Ohaba-Mâtnic,Ohaba-Mâtnicuiul,Ohaba-Mâtnicului","latitude":"45.4666700","longitude":"22.0666700","fclass":"P","fcode":"PPL","country":"RO","cc2":"RO","admin1":"12","admin2":"52062","admin3":"","admin4":"","population":0,"elevation":0,"gtopo30":209,"timezone":"Europe/Bucharest","moddate":"2020-03-08T00:00:00.000Z"},{"geonameid":668482,"name":"Ruginosu","asciiname":"Ruginosu","alternatenames":"Ruginosi,Ruginosu","latitude":"45.4602800","longitude":"22.1142400","fclass":"P","fcode":"PPL","country":"RO","cc2":"RO","admin1":"12","admin2":"52062","admin3":"","admin4":"","population":144,"elevation":0,"gtopo30":222,"timezone":"Europe/Bucharest","moddate":"2013-04-21T00:00:00.000Z"},{"geonameid":662134,"name":"Zorile","asciiname":"Zorile","alternatenames":"","latitude":"45.4935400","longitude":"22.0631700","fclass":"P","fcode":"PPL","country":"RO","cc2":"","admin1":"12","admin2":"52062","admin3":"","admin4":"","population":632,"elevation":0,"gtopo30":257,"timezone":"Europe/Bucharest","moddate":"2013-04-20T00:00:00.000Z"}],"admin3":[],"alternateNames":[]},"__N_SSG":true}