{"pageProps":{"locale":"ro","admin2":{"geonameid":686185,"name":"Comuna Argetoaia","country":"RO","admin1":"17","admin2":"70744","admin3":"","latitude":"44.5092000","longitude":"23.3759300"},"admin1":{"geonameid":679134,"name":"jud. Dolj","admin1":"17"},"locations":[{"geonameid":686186,"name":"Argetoaia","asciiname":"Argetoaia","alternatenames":"Argetoaia","latitude":"44.5166700","longitude":"23.3666700","fclass":"P","fcode":"PPLA2","country":"RO","cc2":"","admin1":"17","admin2":"70744","admin3":"","admin4":"","population":4862,"elevation":0,"gtopo30":158,"timezone":"Europe/Bucharest","moddate":"2019-05-09T00:00:00.000Z"},{"geonameid":686184,"name":"Argetoaia de Jos","asciiname":"Argetoaia de Jos","alternatenames":"","latitude":"44.5000000","longitude":"23.4000000","fclass":"P","fcode":"PPLX","country":"RO","cc2":"","admin1":"17","admin2":"70744","admin3":"","admin4":"","population":0,"elevation":0,"gtopo30":135,"timezone":"Europe/Bucharest","moddate":"2016-02-07T00:00:00.000Z"},{"geonameid":686050,"name":"Atârnaţi","asciiname":"Atarnati","alternatenames":"Atarnati,Atirnati,Atârnati,Atârnaţi,Atîrnaţi","latitude":"44.5166700","longitude":"23.3666700","fclass":"P","fcode":"PPLX","country":"RO","cc2":"RO","admin1":"17","admin2":"70744","admin3":"","admin4":"","population":0,"elevation":0,"gtopo30":158,"timezone":"Europe/Bucharest","moddate":"2020-03-08T00:00:00.000Z"},{"geonameid":685726,"name":"Bălăceşti","asciiname":"Balacesti","alternatenames":"","latitude":"44.5000000","longitude":"23.3666700","fclass":"P","fcode":"PPLX","country":"RO","cc2":"","admin1":"17","admin2":"70744","admin3":"","admin4":"","population":0,"elevation":0,"gtopo30":158,"timezone":"Europe/Bucharest","moddate":"2016-02-07T00:00:00.000Z"},{"geonameid":685420,"name":"Băranu","asciiname":"Baranu","alternatenames":"Baranu,Baranul,Băranu,Băranul","latitude":"44.4968500","longitude":"23.3872500","fclass":"P","fcode":"PPL","country":"RO","cc2":"RO","admin1":"17","admin2":"70744","admin3":"","admin4":"","population":121,"elevation":0,"gtopo30":156,"timezone":"Europe/Bucharest","moddate":"2013-04-21T00:00:00.000Z"},{"geonameid":685084,"name":"Berbeșu","asciiname":"Berbesu","alternatenames":"Berbesu,Berbesu-Iordachesti,Berbesul,Berbeşu,Berbeşu-Iordăcheşti","latitude":"44.5045700","longitude":"23.3499900","fclass":"P","fcode":"PPL","country":"RO","cc2":"RO","admin1":"17","admin2":"70744","admin3":"","admin4":"","population":133,"elevation":0,"gtopo30":181,"timezone":"Europe/Bucharest","moddate":"2013-04-21T00:00:00.000Z"},{"geonameid":681856,"name":"Câmpu Crucii","asciiname":"Campu Crucii","alternatenames":"Campu Crucii,Campul Crucii,Cimpu Crucii,Câmpu Crucii,Câmpul Crucii,Cîmpu Crucii","latitude":"44.5000000","longitude":"23.3833300","fclass":"P","fcode":"PPLX","country":"RO","cc2":"RO","admin1":"17","admin2":"70744","admin3":"","admin4":"","population":0,"elevation":0,"gtopo30":143,"timezone":"Europe/Bucharest","moddate":"2020-03-08T00:00:00.000Z"},{"geonameid":676833,"name":"Grădinăreşti","asciiname":"Gradinaresti","alternatenames":"Argetoaia-Gradinaresti,Argetoaia-Grădinăreşti,Gradinaresti,Grădinăreşti","latitude":"44.5166700","longitude":"23.3666700","fclass":"P","fcode":"PPLX","country":"RO","cc2":"","admin1":"17","admin2":"70744","admin3":"","admin4":"","population":0,"elevation":0,"gtopo30":158,"timezone":"Europe/Bucharest","moddate":"2016-02-07T00:00:00.000Z"},{"geonameid":675527,"name":"Iordăchești","asciiname":"Iordachesti","alternatenames":"","latitude":"44.5061000","longitude":"23.3663800","fclass":"P","fcode":"PPL","country":"RO","cc2":"","admin1":"17","admin2":"70744","admin3":"","admin4":"","population":104,"elevation":0,"gtopo30":166,"timezone":"Europe/Bucharest","moddate":"2013-04-21T00:00:00.000Z"},{"geonameid":674886,"name":"Leordoasa","asciiname":"Leordoasa","alternatenames":"","latitude":"44.5108700","longitude":"23.4138000","fclass":"P","fcode":"PPL","country":"RO","cc2":"","admin1":"17","admin2":"70744","admin3":"","admin4":"","population":463,"elevation":0,"gtopo30":232,"timezone":"Europe/Bucharest","moddate":"2013-04-21T00:00:00.000Z"},{"geonameid":674245,"name":"Macea","asciiname":"Macea","alternatenames":"","latitude":"44.5166700","longitude":"23.3833300","fclass":"P","fcode":"PPL","country":"RO","cc2":"","admin1":"17","admin2":"70744","admin3":"","admin4":"","population":0,"elevation":0,"gtopo30":229,"timezone":"Europe/Bucharest","moddate":"2016-02-07T00:00:00.000Z"},{"geonameid":673979,"name":"Malumnic","asciiname":"Malumnic","alternatenames":"Malumnicu,Malunuuca","latitude":"44.5176100","longitude":"23.3195900","fclass":"P","fcode":"PPL","country":"RO","cc2":"RO","admin1":"17","admin2":"70744","admin3":"","admin4":"","population":161,"elevation":0,"gtopo30":262,"timezone":"Europe/Bucharest","moddate":"2013-04-21T00:00:00.000Z"},{"geonameid":673014,"name":"Moara Câmpu Crucii","asciiname":"Moara Campu Crucii","alternatenames":"Moara Campu Crucii,Moara Cimpu Crucii,Moara Câmpu Crucii,Moara Cîmpu Crucii","latitude":"44.5166700","longitude":"23.3666700","fclass":"P","fcode":"PPLX","country":"RO","cc2":"","admin1":"17","admin2":"70744","admin3":"","admin4":"","population":0,"elevation":0,"gtopo30":158,"timezone":"Europe/Bucharest","moddate":"2020-03-08T00:00:00.000Z"},{"geonameid":672150,"name":"Novac","asciiname":"Novac","alternatenames":"Novac,Novaci,Novacu","latitude":"44.4984100","longitude":"23.3754600","fclass":"P","fcode":"PPL","country":"RO","cc2":"RO","admin1":"17","admin2":"70744","admin3":"","admin4":"","population":177,"elevation":0,"gtopo30":171,"timezone":"Europe/Bucharest","moddate":"2013-04-21T00:00:00.000Z"},{"geonameid":670766,"name":"Piria","asciiname":"Piria","alternatenames":"","latitude":"44.5068000","longitude":"23.3142500","fclass":"P","fcode":"PPL","country":"RO","cc2":"","admin1":"17","admin2":"70744","admin3":"","admin4":"","population":448,"elevation":0,"gtopo30":198,"timezone":"Europe/Bucharest","moddate":"2013-04-21T00:00:00.000Z"},{"geonameid":670085,"name":"Poiana Fântânii","asciiname":"Poiana Fantanii","alternatenames":"Atirnati Barbosi,Atirnati-Balacesti,Atîrnaţi Bărboşi,Atîrnaţi-Bălăceşti,Poiana Fintinii,Poiana Fîntînii","latitude":"44.5142900","longitude":"23.3666700","fclass":"P","fcode":"PPL","country":"RO","cc2":"RO","admin1":"17","admin2":"70744","admin3":"","admin4":"","population":208,"elevation":0,"gtopo30":175,"timezone":"Europe/Bucharest","moddate":"2013-04-21T00:00:00.000Z"},{"geonameid":668212,"name":"Salcia","asciiname":"Salcia","alternatenames":"","latitude":"44.4819500","longitude":"23.4464500","fclass":"P","fcode":"PPL","country":"RO","cc2":"","admin1":"17","admin2":"70744","admin3":"","admin4":"","population":1427,"elevation":0,"gtopo30":142,"timezone":"Europe/Bucharest","moddate":"2013-04-21T00:00:00.000Z"},{"geonameid":665365,"name":"Teascu din Deal","asciiname":"Teascu din Deal","alternatenames":"Teascu din Deal,Teascul din Deal","latitude":"44.5244200","longitude":"23.3897600","fclass":"P","fcode":"PPL","country":"RO","cc2":"RO","admin1":"17","admin2":"70744","admin3":"","admin4":"","population":92,"elevation":0,"gtopo30":272,"timezone":"Europe/Bucharest","moddate":"2013-04-21T00:00:00.000Z"},{"geonameid":664100,"name":"Ursoaia","asciiname":"Ursoaia","alternatenames":"","latitude":"44.5332000","longitude":"23.4033700","fclass":"P","fcode":"PPL","country":"RO","cc2":"","admin1":"17","admin2":"70744","admin3":"","admin4":"","population":49,"elevation":0,"gtopo30":233,"timezone":"Europe/Bucharest","moddate":"2013-04-20T00:00:00.000Z"}],"admin3":[],"alternateNames":[]},"__N_SSG":true}