{"pageProps":{"locale":"en","admin2":{"geonameid":3333189,"name":"Rotherham","country":"GB","admin1":"ENG","admin2":"L3","admin3":"","latitude":"53.4166700","longitude":"-1.2500000","localeAltName":"Rotherham"},"admin1":{"geonameid":6269131,"name":"England","admin1":"ENG","localeAltName":"England"},"locations":[{"geonameid":2657524,"name":"Aldwarke","asciiname":"Aldwarke","alternatenames":"Aldwark,Aldwarke","latitude":"53.4472500","longitude":"-1.3258800","fclass":"P","fcode":"PPL","country":"GB","cc2":"","admin1":"ENG","admin2":"L3","admin3":"00CF018","admin4":"","population":0,"elevation":0,"gtopo30":27,"timezone":"Europe/London","moddate":"2011-03-03T00:00:00.000Z"},{"geonameid":2656868,"name":"Aston","asciiname":"Aston","alternatenames":"","latitude":"53.3622300","longitude":"-1.3013600","fclass":"P","fcode":"PPL","country":"GB","cc2":"","admin1":"ENG","admin2":"L3","admin3":"00CF001","admin4":"","population":0,"elevation":0,"gtopo30":94,"timezone":"Europe/London","moddate":"2016-06-22T00:00:00.000Z"},{"geonameid":2655525,"name":"Blackburn","asciiname":"Blackburn","alternatenames":"","latitude":"53.4333300","longitude":"-1.3666700","fclass":"P","fcode":"PPL","country":"GB","cc2":"","admin1":"ENG","admin2":"L3","admin3":"","admin4":"","population":0,"elevation":0,"gtopo30":38,"timezone":"Europe/London","moddate":"2009-08-13T00:00:00.000Z"},{"geonameid":2654922,"name":"Bramley","asciiname":"Bramley","alternatenames":"","latitude":"53.4166700","longitude":"-1.2666700","fclass":"P","fcode":"PPLA3","country":"GB","cc2":"","admin1":"ENG","admin2":"L3","admin3":"00CF002","admin4":"","population":0,"elevation":0,"gtopo30":132,"timezone":"Europe/London","moddate":"2011-07-31T00:00:00.000Z"},{"geonameid":2654912,"name":"Brampton en le Morthen","asciiname":"Brampton en le Morthen","alternatenames":"Brampton,Brampton en le Morthen,Brampton en le Morthern","latitude":"53.3882400","longitude":"-1.2718400","fclass":"P","fcode":"PPL","country":"GB","cc2":"","admin1":"ENG","admin2":"L3","admin3":"00CF019","admin4":"","population":0,"elevation":0,"gtopo30":124,"timezone":"Europe/London","moddate":"2016-06-22T00:00:00.000Z"},{"geonameid":2653891,"name":"Canklow","asciiname":"Canklow","alternatenames":"","latitude":"53.4181200","longitude":"-1.3608900","fclass":"P","fcode":"PPL","country":"GB","cc2":"","admin1":"ENG","admin2":"L3","admin3":"00CF004","admin4":"","population":0,"elevation":0,"gtopo30":34,"timezone":"Europe/London","moddate":"2011-03-03T00:00:00.000Z"},{"geonameid":6693717,"name":"Catcliffe","asciiname":"Catcliffe","alternatenames":"","latitude":"53.3931600","longitude":"-1.3620700","fclass":"P","fcode":"PPL","country":"GB","cc2":"","admin1":"ENG","admin2":"L3","admin3":"00CF005","admin4":"","population":1766,"elevation":0,"gtopo30":46,"timezone":"Europe/London","moddate":"2011-03-03T00:00:00.000Z"},{"geonameid":2651241,"name":"Dinnington","asciiname":"Dinnington","alternatenames":"Dinnington","latitude":"53.3666700","longitude":"-1.2000000","fclass":"P","fcode":"PPL","country":"GB","cc2":"","admin1":"ENG","admin2":"L3","admin3":"00CF007","admin4":"","population":19860,"elevation":0,"gtopo30":116,"timezone":"Europe/London","moddate":"2017-06-12T00:00:00.000Z"},{"geonameid":2649386,"name":"Firbeck","asciiname":"Firbeck","alternatenames":"","latitude":"53.3909000","longitude":"-1.1532400","fclass":"P","fcode":"PPL","country":"GB","cc2":"","admin1":"ENG","admin2":"L3","admin3":"00CF008","admin4":"","population":0,"elevation":0,"gtopo30":47,"timezone":"Europe/London","moddate":"2011-03-03T00:00:00.000Z"},{"geonameid":2648672,"name":"Gildingwells","asciiname":"Gildingwells","alternatenames":"Gildingwells","latitude":"53.3625800","longitude":"-1.1633300","fclass":"P","fcode":"PPL","country":"GB","cc2":"","admin1":"ENG","admin2":"L3","admin3":"00CF009","admin4":"","population":0,"elevation":0,"gtopo30":69,"timezone":"Europe/London","moddate":"2011-03-03T00:00:00.000Z"},{"geonameid":2648181,"name":"Greasbrough","asciiname":"Greasbrough","alternatenames":"","latitude":"53.4567400","longitude":"-1.3738300","fclass":"P","fcode":"PPL","country":"GB","cc2":"","admin1":"ENG","admin2":"L3","admin3":"00CF024","admin4":"","population":0,"elevation":0,"gtopo30":58,"timezone":"Europe/London","moddate":"2011-03-03T00:00:00.000Z"},{"geonameid":2647407,"name":"Harthill","asciiname":"Harthill","alternatenames":"Harthill","latitude":"53.3166700","longitude":"-1.2666700","fclass":"P","fcode":"PPL","country":"GB","cc2":"","admin1":"ENG","admin2":"L3","admin3":"00CF010","admin4":"","population":1684,"elevation":0,"gtopo30":107,"timezone":"Europe/London","moddate":"2017-06-12T00:00:00.000Z"},{"geonameid":6620337,"name":"Hellaby","asciiname":"Hellaby","alternatenames":"","latitude":"53.4225700","longitude":"-1.2412500","fclass":"P","fcode":"PPL","country":"GB","cc2":"","admin1":"ENG","admin2":"L3","admin3":"00CF002","admin4":"","population":1100,"elevation":0,"gtopo30":105,"timezone":"Europe/London","moddate":"2011-03-03T00:00:00.000Z"},{"geonameid":2646644,"name":"Hooton Roberts","asciiname":"Hooton Roberts","alternatenames":"","latitude":"53.4670200","longitude":"-1.2733900","fclass":"P","fcode":"PPL","country":"GB","cc2":"","admin1":"ENG","admin2":"L3","admin3":"00CF012","admin4":"","population":0,"elevation":0,"gtopo30":35,"timezone":"Europe/London","moddate":"2011-03-03T00:00:00.000Z"},{"geonameid":2645569,"name":"Kilnhurst","asciiname":"Kilnhurst","alternatenames":"","latitude":"53.4705900","longitude":"-1.3036700","fclass":"P","fcode":"PPL","country":"GB","cc2":"","admin1":"ENG","admin2":"L3","admin3":"00CF018","admin4":"","population":0,"elevation":0,"gtopo30":21,"timezone":"Europe/London","moddate":"2011-03-03T00:00:00.000Z"},{"geonameid":2645538,"name":"Kimberworth","asciiname":"Kimberworth","alternatenames":"Kimberworth","latitude":"53.4334100","longitude":"-1.3930800","fclass":"P","fcode":"PPL","country":"GB","cc2":"","admin1":"ENG","admin2":"L3","admin3":"00CF024","admin4":"","population":0,"elevation":0,"gtopo30":105,"timezone":"Europe/London","moddate":"2011-03-03T00:00:00.000Z"},{"geonameid":2645174,"name":"Kiveton Park","asciiname":"Kiveton Park","alternatenames":"Kiveton,Kiveton Park","latitude":"53.3412000","longitude":"-1.2549800","fclass":"P","fcode":"PPL","country":"GB","cc2":"","admin1":"ENG","admin2":"L3","admin3":"00CF023","admin4":"","population":8703,"elevation":0,"gtopo30":103,"timezone":"Europe/London","moddate":"2017-06-12T00:00:00.000Z"},{"geonameid":2644812,"name":"Laughton en le Morthen","asciiname":"Laughton en le Morthen","alternatenames":"Laughton,Laughton en le Morthen,Laughton en le Morthern","latitude":"53.3878300","longitude":"-1.2225700","fclass":"P","fcode":"PPL","country":"GB","cc2":"","admin1":"ENG","admin2":"L3","admin3":"00CF028","admin4":"","population":971,"elevation":0,"gtopo30":132,"timezone":"Europe/London","moddate":"2017-06-12T00:00:00.000Z"},{"geonameid":2643144,"name":"Maltby","asciiname":"Maltby","alternatenames":"Maltby i South Yorkshire,مالتبی، یورک‌شر جنوبی","latitude":"53.4166700","longitude":"-1.2000000","fclass":"P","fcode":"PPLA3","country":"GB","cc2":"","admin1":"ENG","admin2":"L3","admin3":"00CF029","admin4":"","population":17513,"elevation":0,"gtopo30":90,"timezone":"Europe/London","moddate":"2017-06-12T00:00:00.000Z"},{"geonameid":2640928,"name":"Orgreave","asciiname":"Orgreave","alternatenames":"","latitude":"53.3833300","longitude":"-1.3666700","fclass":"P","fcode":"PPLA3","country":"GB","cc2":"","admin1":"ENG","admin2":"L3","admin3":"00CF015","admin4":"","population":0,"elevation":0,"gtopo30":-30,"timezone":"Europe/London","moddate":"2011-07-31T00:00:00.000Z"},{"geonameid":2640610,"name":"Park Gate","asciiname":"Park Gate","alternatenames":"","latitude":"53.4500000","longitude":"-1.3500000","fclass":"P","fcode":"PPL","country":"GB","cc2":"","admin1":"ENG","admin2":"L3","admin3":"","admin4":"","population":0,"elevation":0,"gtopo30":28,"timezone":"Europe/London","moddate":"2013-07-11T00:00:00.000Z"},{"geonameid":2639588,"name":"Rawmarsh","asciiname":"Rawmarsh","alternatenames":"","latitude":"53.4606200","longitude":"-1.3443700","fclass":"P","fcode":"PPL","country":"GB","cc2":"","admin1":"ENG","admin2":"L3","admin3":"00CF024","admin4":"","population":18616,"elevation":0,"gtopo30":81,"timezone":"Europe/London","moddate":"2011-03-03T00:00:00.000Z"},{"geonameid":2639093,"name":"Rotherham","asciiname":"Rotherham","alternatenames":"Roderamas,Rodurum,Roteram,Roterem,Rotergem,Rotherdam,Rotherham,lodeoleom,luo se lei mu,ratrham,rozaramu,Родъръм,Ротерам,Ротергем,Ротерем,Ռոտերեմ,راترهام,ロザラム,羅瑟勒姆,로더럼","latitude":"53.4301200","longitude":"-1.3567800","fclass":"P","fcode":"PPLA2","country":"GB","cc2":"","admin1":"ENG","admin2":"L3","admin3":"00CF004","admin4":"","population":117618,"elevation":0,"gtopo30":41,"timezone":"Europe/London","moddate":"2011-03-03T00:00:00.000Z"},{"geonameid":2636447,"name":"Swallownest","asciiname":"Swallownest","alternatenames":"","latitude":"53.3639700","longitude":"-1.3145800","fclass":"P","fcode":"PPL","country":"GB","cc2":"","admin1":"ENG","admin2":"L3","admin3":"00CF001","admin4":"","population":0,"elevation":0,"gtopo30":96,"timezone":"Europe/London","moddate":"2016-06-22T00:00:00.000Z"},{"geonameid":2636374,"name":"Swinton","asciiname":"Swinton","alternatenames":"Swinton","latitude":"53.4833300","longitude":"-1.3166700","fclass":"P","fcode":"PPL","country":"GB","cc2":"","admin1":"ENG","admin2":"L3","admin3":"","admin4":"","population":0,"elevation":0,"gtopo30":54,"timezone":"Europe/London","moddate":"2013-07-11T00:00:00.000Z"},{"geonameid":2636121,"name":"Templeborough","asciiname":"Templeborough","alternatenames":"Templeborough,Templebrough","latitude":"53.4183200","longitude":"-1.3874900","fclass":"P","fcode":"PPL","country":"GB","cc2":"","admin1":"ENG","admin2":"L3","admin3":"00CF004","admin4":"","population":0,"elevation":0,"gtopo30":37,"timezone":"Europe/London","moddate":"2011-03-03T00:00:00.000Z"},{"geonameid":2635944,"name":"Thorpe Salvin","asciiname":"Thorpe Salvin","alternatenames":"","latitude":"53.3237900","longitude":"-1.2175200","fclass":"P","fcode":"PPL","country":"GB","cc2":"","admin1":"ENG","admin2":"L3","admin3":"00CF017","admin4":"","population":476,"elevation":0,"gtopo30":110,"timezone":"Europe/London","moddate":"2017-06-12T00:00:00.000Z"},{"geonameid":2635906,"name":"Thrybergh","asciiname":"Thrybergh","alternatenames":"","latitude":"53.4489500","longitude":"-1.2992800","fclass":"P","fcode":"PPL","country":"GB","cc2":"","admin1":"ENG","admin2":"L3","admin3":"00CF018","admin4":"","population":0,"elevation":0,"gtopo30":69,"timezone":"Europe/London","moddate":"2011-03-03T00:00:00.000Z"},{"geonameid":11592633,"name":"Thurcroft","asciiname":"Thurcroft","alternatenames":"","latitude":"53.3917500","longitude":"-1.2524000","fclass":"P","fcode":"PPL","country":"GB","cc2":"","admin1":"ENG","admin2":"L3","admin3":"00CF019","admin4":"","population":0,"elevation":0,"gtopo30":112,"timezone":"Europe/London","moddate":"2017-06-18T00:00:00.000Z"},{"geonameid":2635742,"name":"Todwick","asciiname":"Todwick","alternatenames":"","latitude":"53.3537300","longitude":"-1.2567300","fclass":"P","fcode":"PPLA3","country":"GB","cc2":"","admin1":"ENG","admin2":"L3","admin3":"00CF020","admin4":"","population":1673,"elevation":0,"gtopo30":108,"timezone":"Europe/London","moddate":"2011-07-31T00:00:00.000Z"},{"geonameid":2635540,"name":"Treeton","asciiname":"Treeton","alternatenames":"","latitude":"53.3856400","longitude":"-1.3518900","fclass":"P","fcode":"PPL","country":"GB","cc2":"","admin1":"ENG","admin2":"L3","admin3":"00CF021","admin4":"","population":3189,"elevation":0,"gtopo30":59,"timezone":"Europe/London","moddate":"2017-06-12T00:00:00.000Z"},{"geonameid":2635194,"name":"Ulley","asciiname":"Ulley","alternatenames":"","latitude":"53.3820000","longitude":"-1.3022200","fclass":"P","fcode":"PPLA3","country":"GB","cc2":"","admin1":"ENG","admin2":"L3","admin3":"00CF022","admin4":"","population":0,"elevation":0,"gtopo30":112,"timezone":"Europe/London","moddate":"2011-07-31T00:00:00.000Z"},{"geonameid":2634894,"name":"Wales","asciiname":"Wales","alternatenames":"Uehl's,Wales,Уэльс","latitude":"53.3406100","longitude":"-1.2816200","fclass":"P","fcode":"PPLA3","country":"GB","cc2":"","admin1":"ENG","admin2":"L3","admin3":"00CF023","admin4":"","population":5956,"elevation":0,"gtopo30":110,"timezone":"Europe/London","moddate":"2011-07-31T00:00:00.000Z"},{"geonameid":2634672,"name":"Wath upon Dearne","asciiname":"Wath upon Dearne","alternatenames":"Wath,Wath upon Dearne,Wath-on-Dearne","latitude":"53.5029100","longitude":"-1.3458000","fclass":"P","fcode":"PPL","country":"GB","cc2":"","admin1":"ENG","admin2":"L3","admin3":"00CF003","admin4":"","population":17161,"elevation":0,"gtopo30":35,"timezone":"Europe/London","moddate":"2011-03-03T00:00:00.000Z"},{"geonameid":2634527,"name":"Wentworth","asciiname":"Wentworth","alternatenames":"","latitude":"53.4781600","longitude":"-1.4150000","fclass":"P","fcode":"PPLA3","country":"GB","cc2":"","admin1":"ENG","admin2":"L3","admin3":"00CF024","admin4":"","population":354,"elevation":0,"gtopo30":115,"timezone":"Europe/London","moddate":"2017-06-12T00:00:00.000Z"},{"geonameid":2634347,"name":"West Melton","asciiname":"West Melton","alternatenames":"","latitude":"53.5041500","longitude":"-1.3580000","fclass":"P","fcode":"PPL","country":"GB","cc2":"","admin1":"ENG","admin2":"L3","admin3":"00CF003","admin4":"","population":0,"elevation":0,"gtopo30":42,"timezone":"Europe/London","moddate":"2011-03-03T00:00:00.000Z"},{"geonameid":2634143,"name":"Whiston","asciiname":"Whiston","alternatenames":"","latitude":"53.4085100","longitude":"-1.3151000","fclass":"P","fcode":"PPLA3","country":"GB","cc2":"","admin1":"ENG","admin2":"L3","admin3":"00CF025","admin4":"","population":0,"elevation":0,"gtopo30":66,"timezone":"Europe/London","moddate":"2011-07-31T00:00:00.000Z"},{"geonameid":2633977,"name":"Wickersley","asciiname":"Wickersley","alternatenames":"Wickersley","latitude":"53.4212800","longitude":"-1.2811500","fclass":"P","fcode":"PPL","country":"GB","cc2":"","admin1":"ENG","admin2":"L3","admin3":"00CF026","admin4":"","population":0,"elevation":0,"gtopo30":145,"timezone":"Europe/London","moddate":"2011-03-03T00:00:00.000Z"},{"geonameid":2633639,"name":"Woodhouse Mill","asciiname":"Woodhouse Mill","alternatenames":"","latitude":"53.3640700","longitude":"-1.3377600","fclass":"P","fcode":"PPL","country":"GB","cc2":"","admin1":"ENG","admin2":"L3","admin3":"00CF001","admin4":"","population":0,"elevation":0,"gtopo30":61,"timezone":"Europe/London","moddate":"2016-06-22T00:00:00.000Z"},{"geonameid":2633624,"name":"Woodsetts","asciiname":"Woodsetts","alternatenames":"Woodsetts","latitude":"53.3480400","longitude":"-1.1720400","fclass":"P","fcode":"PPL","country":"GB","cc2":"","admin1":"ENG","admin2":"L3","admin3":"00CF027","admin4":"","population":1746,"elevation":0,"gtopo30":62,"timezone":"Europe/London","moddate":"2017-06-12T00:00:00.000Z"}],"admin3":[{"geonameid":7300745,"name":"Aston cum Aughton","admin3":"00CF001"},{"geonameid":7291257,"name":"Bramley","admin3":"00CF002"},{"geonameid":7292341,"name":"Brampton Bierlow","admin3":"00CF003"},{"geonameid":7301041,"name":"Brinsworth","admin3":"00CF004"},{"geonameid":7292216,"name":"Catcliffe","admin3":"00CF005"},{"geonameid":7292217,"name":"Dalton","admin3":"00CF006"},{"geonameid":7297067,"name":"Dinnington St. John's","admin3":"00CF007"},{"geonameid":7297068,"name":"Firbeck","admin3":"00CF008"},{"geonameid":7297069,"name":"Gildingwells","admin3":"00CF009"},{"geonameid":7292221,"name":"Harthill with Woodall","admin3":"00CF010"},{"geonameid":7300746,"name":"Hooton Levitt","admin3":"00CF011"},{"geonameid":7300747,"name":"Hooton Roberts","admin3":"00CF012"},{"geonameid":7299050,"name":"Laughton-en-le-Morthen","admin3":"00CF028"},{"geonameid":7291548,"name":"Letwell","admin3":"00CF013"},{"geonameid":7292224,"name":"Maltby","admin3":"00CF029"},{"geonameid":7292222,"name":"North and South Anston","admin3":"00CF014"},{"geonameid":7290893,"name":"Orgreave","admin3":"00CF015"},{"geonameid":7290894,"name":"Ravenfield","admin3":"00CF016"},{"geonameid":7300748,"name":"Thorpe Salvin","admin3":"00CF017"},{"geonameid":7292223,"name":"Thrybergh","admin3":"00CF018"},{"geonameid":7300749,"name":"Thurcroft","admin3":"00CF019"},{"geonameid":7297856,"name":"Todwick","admin3":"00CF020"},{"geonameid":7290895,"name":"Treeton","admin3":"00CF021"},{"geonameid":7297857,"name":"Ulley","admin3":"00CF022"},{"geonameid":7296410,"name":"Wales","admin3":"00CF023"},{"geonameid":7300750,"name":"Wentworth","admin3":"00CF024"},{"geonameid":7290896,"name":"Whiston","admin3":"00CF025"},{"geonameid":7297070,"name":"Wickersley","admin3":"00CF026"},{"geonameid":7290897,"name":"Woodsetts","admin3":"00CF027"}],"alternateNames":[{"alternatenameId":8666517,"geonameid":3333189,"isoLanguage":"en","alternateName":"Rotherham","isPreferredName":true,"isShortName":true,"isColloquial":false,"isHistoric":false},{"alternatenameId":1626647,"geonameid":6269131,"isoLanguage":"en","alternateName":"England","isPreferredName":true,"isShortName":true,"isColloquial":false,"isHistoric":false}]},"__N_SSG":true}