{"pageProps":{"locale":"ro","admin2":{"geonameid":676357,"name":"Comuna Hălmăgel","country":"RO","admin1":"02","admin2":"11174","admin3":"","latitude":"46.2766200","longitude":"22.6318000"},"admin1":{"geonameid":686253,"name":"Arad","admin1":"02"},"locations":[{"geonameid":676358,"name":"Hălmăgel","asciiname":"Halmagel","alternatenames":"Halmagel,Halmagy,Halmágy,Hălmăgel,Kishalmagy,Kishalmágy","latitude":"46.2666700","longitude":"22.6166700","fclass":"P","fcode":"PPLA2","country":"RO","cc2":"","admin1":"02","admin2":"11174","admin3":"","admin4":"","population":1629,"elevation":0,"gtopo30":271,"timezone":"Europe/Bucharest","moddate":"2012-06-12T00:00:00.000Z"},{"geonameid":674335,"name":"Luncșoara","asciiname":"Luncsoara","alternatenames":"Hosszusor,Hosszúsor,Luncsoara,Luncșoara,Lungsora,Lunksora,Vosdoci Lungsoara,Voşdoci Lungşoara","latitude":"46.3211300","longitude":"22.6277300","fclass":"P","fcode":"PPL","country":"RO","cc2":"","admin1":"02","admin2":"11174","admin3":"","admin4":"","population":644,"elevation":0,"gtopo30":433,"timezone":"Europe/Bucharest","moddate":"2013-12-01T00:00:00.000Z"},{"geonameid":666850,"name":"Sârbi","asciiname":"Sarbi","alternatenames":"Raissendorf,Raitzendorf,Sarbi,Sirbi,Szerb,Sârbi,Sîrbi","latitude":"46.2889400","longitude":"22.6424800","fclass":"P","fcode":"PPL","country":"RO","cc2":"","admin1":"02","admin2":"11174","admin3":"","admin4":"","population":200,"elevation":0,"gtopo30":451,"timezone":"Europe/Bucharest","moddate":"2013-04-21T00:00:00.000Z"},{"geonameid":664952,"name":"Târnaviţa","asciiname":"Tarnavita","alternatenames":"Fazekastarno,Fazekastarnó,Tarnavita,Ternavicza,Tirnavita,Tirnovicza,Tirnovita,Târnaviţa,Tîrnaviţa,Tîrnoviţa","latitude":"46.2500000","longitude":"22.6500000","fclass":"P","fcode":"PPL","country":"RO","cc2":"","admin1":"02","admin2":"11174","admin3":"","admin4":"","population":0,"elevation":0,"gtopo30":304,"timezone":"Europe/Bucharest","moddate":"2020-06-10T00:00:00.000Z"},{"geonameid":664840,"name":"Țohești","asciiname":"Tohesti","alternatenames":"Csohesd,Csohosd,Czohesd,Tohesti,Țohești","latitude":"46.2490500","longitude":"22.6148400","fclass":"P","fcode":"PPL","country":"RO","cc2":"","admin1":"02","admin2":"11174","admin3":"","admin4":"","population":153,"elevation":0,"gtopo30":290,"timezone":"Europe/Bucharest","moddate":"2013-12-01T00:00:00.000Z"}],"admin3":[],"alternateNames":[]},"__N_SSG":true}