{"pageProps":{"locale":"en","admin2":{"geonameid":2647716,"name":"Gwynedd","country":"GB","admin1":"WLS","admin2":"Y2","admin3":"","latitude":"52.8333300","longitude":"-3.9166700"},"admin1":{"geonameid":2634895,"name":"Wales","admin1":"WLS","localeAltName":"Wales"},"locations":[{"geonameid":2657857,"name":"Aber","asciiname":"Aber","alternatenames":"","latitude":"53.2333300","longitude":"-4.0166700","fclass":"P","fcode":"PPLA3","country":"GB","cc2":"","admin1":"WLS","admin2":"Y2","admin3":"00NC001","admin4":"","population":0,"elevation":0,"gtopo30":33,"timezone":"Europe/London","moddate":"2011-07-31T00:00:00.000Z"},{"geonameid":2657838,"name":"Aber Cowarch","asciiname":"Aber Cowarch","alternatenames":"","latitude":"52.7500000","longitude":"-3.7000000","fclass":"P","fcode":"PPL","country":"GB","cc2":"","admin1":"WLS","admin2":"Y2","admin3":"00NC051","admin4":"","population":0,"elevation":0,"gtopo30":134,"timezone":"Europe/London","moddate":"2016-06-22T00:00:00.000Z"},{"geonameid":2657834,"name":"Aberdaron","asciiname":"Aberdaron","alternatenames":"Aberdaron,Абердарон","latitude":"52.8044900","longitude":"-4.7116400","fclass":"P","fcode":"PPL","country":"GB","cc2":"","admin1":"WLS","admin2":"Y2","admin3":"00NC002","admin4":"","population":0,"elevation":0,"gtopo30":10,"timezone":"Europe/London","moddate":"2011-03-03T00:00:00.000Z"},{"geonameid":2657825,"name":"Aberdyfi","asciiname":"Aberdyfi","alternatenames":"Aberdovey,Aberdyfi","latitude":"52.5440000","longitude":"-4.0460600","fclass":"P","fcode":"PPL","country":"GB","cc2":"","admin1":"WLS","admin2":"Y2","admin3":"00NC003","admin4":"","population":725,"elevation":0,"gtopo30":14,"timezone":"Europe/London","moddate":"2017-06-12T00:00:00.000Z"},{"geonameid":2657822,"name":"Abererch","asciiname":"Abererch","alternatenames":"Abererch","latitude":"52.9030400","longitude":"-4.3851300","fclass":"P","fcode":"PPL","country":"GB","cc2":"","admin1":"WLS","admin2":"Y2","admin3":"00NC044","admin4":"","population":0,"elevation":0,"gtopo30":11,"timezone":"Europe/London","moddate":"2011-03-03T00:00:00.000Z"},{"geonameid":2657806,"name":"Abergynolwyn","asciiname":"Abergynolwyn","alternatenames":"Abergynolwyn","latitude":"52.6442600","longitude":"-3.9561100","fclass":"P","fcode":"PPL","country":"GB","cc2":"","admin1":"WLS","admin2":"Y2","admin3":"00NC038","admin4":"","population":0,"elevation":0,"gtopo30":39,"timezone":"Europe/London","moddate":"2016-06-22T00:00:00.000Z"},{"geonameid":2657788,"name":"Abersoch","asciiname":"Abersoch","alternatenames":"","latitude":"52.8243700","longitude":"-4.5058400","fclass":"P","fcode":"PPL","country":"GB","cc2":"","admin1":"WLS","admin2":"Y2","admin3":"00NC036","admin4":"","population":783,"elevation":0,"gtopo30":13,"timezone":"Europe/London","moddate":"2017-06-12T00:00:00.000Z"},{"geonameid":2657010,"name":"Arthog","asciiname":"Arthog","alternatenames":"Arthog,Capel Arthog","latitude":"52.7116400","longitude":"-4.0097300","fclass":"P","fcode":"PPL","country":"GB","cc2":"","admin1":"WLS","admin2":"Y2","admin3":"00NC004","admin4":"","population":0,"elevation":0,"gtopo30":6,"timezone":"Europe/London","moddate":"2011-03-03T00:00:00.000Z"},{"geonameid":2656615,"name":"Bala","asciiname":"Bala","alternatenames":"Bala,Y Bala,Бала","latitude":"52.9111100","longitude":"-3.5972200","fclass":"P","fcode":"PPL","country":"GB","cc2":"","admin1":"WLS","admin2":"Y2","admin3":"00NC005","admin4":"","population":1974,"elevation":0,"gtopo30":168,"timezone":"Europe/London","moddate":"2017-06-12T00:00:00.000Z"},{"geonameid":2656397,"name":"Bangor","asciiname":"Bangor","alternatenames":"Ban'nkor,Bangor,Bangoras,baeng-go-eo,ban ge,banga,banghwr,bangori,banjwr,bngwr,bngwr  wlz,byngwr,Μπάνγκορ,Бангор,Բանգոր,בנגור,بانجور,بانغور,بنگور، ولز,بینگور,بینگور، گوینڈ,ბანგორი,バンガー,班戈,뱅고어","latitude":"53.2275200","longitude":"-4.1293600","fclass":"P","fcode":"PPL","country":"GB","cc2":"","admin1":"WLS","admin2":"Y2","admin3":"00NC006","admin4":"","population":17988,"elevation":0,"gtopo30":23,"timezone":"Europe/London","moddate":"2020-05-07T00:00:00.000Z"},{"geonameid":2656311,"name":"Barmouth","asciiname":"Barmouth","alternatenames":"Abermaw,Barmouth,Barmut,Bermo,Бармут,Бармът","latitude":"52.7237700","longitude":"-4.0574800","fclass":"P","fcode":"PPL","country":"GB","cc2":"","admin1":"WLS","admin2":"Y2","admin3":"00NC007","admin4":"","population":2315,"elevation":0,"gtopo30":17,"timezone":"Europe/London","moddate":"2017-06-12T00:00:00.000Z"},{"geonameid":10245170,"name":"Bathesda Bach","asciiname":"Bathesda Bach","alternatenames":"","latitude":"53.0882500","longitude":"-4.2926500","fclass":"P","fcode":"PPLX","country":"GB","cc2":"","admin1":"WLS","admin2":"Y2","admin3":"00NC032","admin4":"","population":0,"elevation":0,"gtopo30":54,"timezone":"Europe/London","moddate":"2015-05-06T00:00:00.000Z"},{"geonameid":2656049,"name":"Beddgelert","asciiname":"Beddgelert","alternatenames":"Beddgelert","latitude":"53.0121000","longitude":"-4.1046400","fclass":"P","fcode":"PPL","country":"GB","cc2":"","admin1":"WLS","admin2":"Y2","admin3":"00NC008","admin4":"","population":0,"elevation":0,"gtopo30":42,"timezone":"Europe/London","moddate":"2015-05-06T00:00:00.000Z"},{"geonameid":2655804,"name":"Bethesda","asciiname":"Bethesda","alternatenames":"Bethesda","latitude":"53.1815000","longitude":"-4.0582800","fclass":"P","fcode":"PPLA3","country":"GB","cc2":"","admin1":"WLS","admin2":"Y2","admin3":"00NC009","admin4":"","population":4735,"elevation":0,"gtopo30":176,"timezone":"Europe/London","moddate":"2017-06-13T00:00:00.000Z"},{"geonameid":2655795,"name":"Betws Garmon","asciiname":"Betws Garmon","alternatenames":"","latitude":"53.0833300","longitude":"-4.1833300","fclass":"P","fcode":"PPL","country":"GB","cc2":"","admin1":"WLS","admin2":"Y2","admin3":"00NC010","admin4":"","population":0,"elevation":0,"gtopo30":277,"timezone":"Europe/London","moddate":"2017-07-21T00:00:00.000Z"},{"geonameid":2655414,"name":"Blaenau-Ffestiniog","asciiname":"Blaenau-Ffestiniog","alternatenames":"Blaenau Festiniog,Blaenau-Ffestiniog","latitude":"52.9946400","longitude":"-3.9369700","fclass":"P","fcode":"PPL","country":"GB","cc2":"","admin1":"WLS","admin2":"Y2","admin3":"00NC023","admin4":"","population":4005,"elevation":0,"gtopo30":231,"timezone":"Europe/London","moddate":"2016-06-22T00:00:00.000Z"},{"geonameid":2655276,"name":"Bodfean","asciiname":"Bodfean","alternatenames":"Bodfean,Boduan,Bodvean","latitude":"52.9166700","longitude":"-4.5000000","fclass":"P","fcode":"PPL","country":"GB","cc2":"GB","admin1":"WLS","admin2":"Y2","admin3":"00NC015","admin4":"","population":0,"elevation":0,"gtopo30":60,"timezone":"Europe/London","moddate":"2016-06-22T00:00:00.000Z"},{"geonameid":9538962,"name":"Bontnewydd","asciiname":"Bontnewydd","alternatenames":"Bont Newydd","latitude":"52.7644800","longitude":"-3.8278300","fclass":"P","fcode":"PPL","country":"GB","cc2":"","admin1":"WLS","admin2":"Y2","admin3":"00NC013","admin4":"","population":0,"elevation":0,"gtopo30":54,"timezone":"Europe/London","moddate":"2014-09-14T00:00:00.000Z"},{"geonameid":8224200,"name":"Bontnewydd","asciiname":"Bontnewydd","alternatenames":"","latitude":"53.1162300","longitude":"-4.2682700","fclass":"P","fcode":"PPL","country":"GB","cc2":"","admin1":"WLS","admin2":"Y2","admin3":"00NC011","admin4":"","population":951,"elevation":0,"gtopo30":35,"timezone":"Europe/London","moddate":"2017-06-12T00:00:00.000Z"},{"geonameid":2655120,"name":"Botwnnog","asciiname":"Botwnnog","alternatenames":"","latitude":"52.8500000","longitude":"-4.5833300","fclass":"P","fcode":"PPL","country":"GB","cc2":"","admin1":"WLS","admin2":"Y2","admin3":"00NC012","admin4":"","population":0,"elevation":0,"gtopo30":25,"timezone":"Europe/London","moddate":"2017-03-22T00:00:00.000Z"},{"geonameid":9538961,"name":"Brithdir Village","asciiname":"Brithdir Village","alternatenames":"","latitude":"52.7548100","longitude":"-3.8278800","fclass":"P","fcode":"PPL","country":"GB","cc2":"","admin1":"WLS","admin2":"Y2","admin3":"00NC013","admin4":"","population":0,"elevation":0,"gtopo30":132,"timezone":"Europe/London","moddate":"2014-09-14T00:00:00.000Z"},{"geonameid":2654445,"name":"Bryn-crug","asciiname":"Bryn-crug","alternatenames":"Bryncrug","latitude":"52.6097900","longitude":"-4.0560200","fclass":"P","fcode":"PPL","country":"GB","cc2":"","admin1":"WLS","admin2":"Y2","admin3":"00NC014","admin4":"","population":0,"elevation":0,"gtopo30":8,"timezone":"Europe/London","moddate":"2017-06-21T00:00:00.000Z"},{"geonameid":2654438,"name":"Bryncir","asciiname":"Bryncir","alternatenames":"Bryncir,Brynkir","latitude":"52.9776800","longitude":"-4.2654100","fclass":"P","fcode":"PPL","country":"GB","cc2":"","admin1":"WLS","admin2":"Y2","admin3":"00NC020","admin4":"","population":0,"elevation":0,"gtopo30":103,"timezone":"Europe/London","moddate":"2011-03-03T00:00:00.000Z"},{"geonameid":2654446,"name":"Bryncroes","asciiname":"Bryncroes","alternatenames":"Bryncroes","latitude":"52.8507700","longitude":"-4.6349100","fclass":"P","fcode":"PPL","country":"GB","cc2":"","admin1":"WLS","admin2":"Y2","admin3":"00NC012","admin4":"","population":0,"elevation":0,"gtopo30":101,"timezone":"Europe/London","moddate":"2011-03-03T00:00:00.000Z"},{"geonameid":11237653,"name":"Caeathro","asciiname":"Caeathro","alternatenames":"","latitude":"53.1315000","longitude":"-4.2408500","fclass":"P","fcode":"PPL","country":"GB","cc2":"","admin1":"WLS","admin2":"Y2","admin3":"00NC063","admin4":"","population":0,"elevation":0,"gtopo30":66,"timezone":"Europe/London","moddate":"2016-08-10T00:00:00.000Z"},{"geonameid":7302206,"name":"Caerdeon","asciiname":"Caerdeon","alternatenames":"","latitude":"52.7431200","longitude":"-4.0022400","fclass":"P","fcode":"PPL","country":"GB","cc2":"","admin1":"WLS","admin2":"Y2","admin3":"00NC007","admin4":"","population":0,"elevation":0,"gtopo30":26,"timezone":"Europe/London","moddate":"2011-03-03T00:00:00.000Z"},{"geonameid":2654092,"name":"Caernarfon","asciiname":"Caernarfon","alternatenames":"Caernarfon,Carnarvon,Karnarvon,Karnarvun,Kernarvonas,ka na fen,kanabeon,kanavu~on,khay r nar wxn,Карнарвон,Карнарвън,קרנארפון,คายร์นาร์วอน,カーナーヴォン,卡納芬,카나번","latitude":"53.1412600","longitude":"-4.2701600","fclass":"P","fcode":"PPLA2","country":"GB","cc2":"","admin1":"WLS","admin2":"Y2","admin3":"00NC016","admin4":"","population":9730,"elevation":0,"gtopo30":33,"timezone":"Europe/London","moddate":"2017-06-12T00:00:00.000Z"},{"geonameid":10245174,"name":"Capeluchaf","asciiname":"Capeluchaf","alternatenames":"","latitude":"53.0223700","longitude":"-4.3422200","fclass":"P","fcode":"PPL","country":"GB","cc2":"","admin1":"WLS","admin2":"Y2","admin3":"00NC017","admin4":"","population":0,"elevation":0,"gtopo30":147,"timezone":"Europe/London","moddate":"2015-05-06T00:00:00.000Z"},{"geonameid":2653714,"name":"Carnguwch","asciiname":"Carnguwch","alternatenames":"Carnguwch","latitude":"52.9500000","longitude":"-4.4166700","fclass":"P","fcode":"PPL","country":"GB","cc2":"","admin1":"WLS","admin2":"Y2","admin3":"00NC056","admin4":"","population":0,"elevation":0,"gtopo30":122,"timezone":"Europe/London","moddate":"2016-06-22T00:00:00.000Z"},{"geonameid":2653013,"name":"Chwilog","asciiname":"Chwilog","alternatenames":"Chwilog","latitude":"52.9199200","longitude":"-4.3319000","fclass":"P","fcode":"PPL","country":"GB","cc2":"","admin1":"WLS","admin2":"Y2","admin3":"00NC049","admin4":"","population":640,"elevation":0,"gtopo30":34,"timezone":"Europe/London","moddate":"2017-06-12T00:00:00.000Z"},{"geonameid":10103962,"name":"Clwt - y - bont","asciiname":"Clwt - y - bont","alternatenames":"","latitude":"53.1453000","longitude":"-4.1350200","fclass":"P","fcode":"PPL","country":"GB","cc2":"","admin1":"WLS","admin2":"Y2","admin3":"00NC030","admin4":"","population":0,"elevation":0,"gtopo30":170,"timezone":"Europe/London","moddate":"2015-02-16T00:00:00.000Z"},{"geonameid":2652722,"name":"Clynnog-fawr","asciiname":"Clynnog-fawr","alternatenames":"Clynnog,Clynnog-fawr","latitude":"53.0211700","longitude":"-4.3667700","fclass":"P","fcode":"PPL","country":"GB","cc2":"GB","admin1":"WLS","admin2":"Y2","admin3":"00NC017","admin4":"","population":0,"elevation":0,"gtopo30":29,"timezone":"Europe/London","moddate":"2015-05-06T00:00:00.000Z"},{"geonameid":11072006,"name":"Coed-y-glyn","asciiname":"Coed-y-glyn","alternatenames":"","latitude":"52.5475200","longitude":"-4.0264500","fclass":"P","fcode":"PPLX","country":"GB","cc2":"","admin1":"WLS","admin2":"Y2","admin3":"00NC003","admin4":"","population":0,"elevation":0,"gtopo30":36,"timezone":"Europe/London","moddate":"2016-02-19T00:00:00.000Z"},{"geonameid":2652330,"name":"Corris","asciiname":"Corris","alternatenames":"Corris","latitude":"52.6514500","longitude":"-3.8431500","fclass":"P","fcode":"PPLA3","country":"GB","cc2":"","admin1":"WLS","admin2":"Y2","admin3":"00NC018","admin4":"","population":0,"elevation":0,"gtopo30":111,"timezone":"Europe/London","moddate":"2011-07-31T00:00:00.000Z"},{"geonameid":2651994,"name":"Criccieth","asciiname":"Criccieth","alternatenames":"Cricieth,Krikijt,Крикийт","latitude":"52.9205300","longitude":"-4.2346000","fclass":"P","fcode":"PPL","country":"GB","cc2":"","admin1":"WLS","admin2":"Y2","admin3":"00NC019","admin4":"","population":1753,"elevation":0,"gtopo30":39,"timezone":"Europe/London","moddate":"2017-06-12T00:00:00.000Z"},{"geonameid":2651877,"name":"Cross Foxes","asciiname":"Cross Foxes","alternatenames":"","latitude":"52.7166700","longitude":"-3.8333300","fclass":"P","fcode":"PPL","country":"GB","cc2":"","admin1":"WLS","admin2":"Y2","admin3":"00NC021","admin4":"","population":0,"elevation":0,"gtopo30":245,"timezone":"Europe/London","moddate":"2016-06-22T00:00:00.000Z"},{"geonameid":2651643,"name":"Cwm-y-glo","asciiname":"Cwm-y-glo","alternatenames":"Cwm-y-glo","latitude":"53.1333300","longitude":"-4.1666700","fclass":"P","fcode":"PPL","country":"GB","cc2":"","admin1":"WLS","admin2":"Y2","admin3":"00NC046","admin4":"","population":0,"elevation":0,"gtopo30":250,"timezone":"Europe/London","moddate":"2016-06-22T00:00:00.000Z"},{"geonameid":10103963,"name":"Deiniolen","asciiname":"Deiniolen","alternatenames":"","latitude":"53.1481900","longitude":"-4.1318500","fclass":"P","fcode":"PPL","country":"GB","cc2":"","admin1":"WLS","admin2":"Y2","admin3":"00NC030","admin4":"","population":1379,"elevation":0,"gtopo30":212,"timezone":"Europe/London","moddate":"2017-06-12T00:00:00.000Z"},{"geonameid":9409849,"name":"Dinas","asciiname":"Dinas","alternatenames":"","latitude":"52.8950000","longitude":"-4.5735700","fclass":"P","fcode":"PPL","country":"GB","cc2":"","admin1":"WLS","admin2":"Y2","admin3":"00NC061","admin4":"","population":0,"elevation":0,"gtopo30":75,"timezone":"Europe/London","moddate":"2014-09-02T00:00:00.000Z"},{"geonameid":2651252,"name":"Dinas Dinlle","asciiname":"Dinas Dinlle","alternatenames":"","latitude":"53.0833300","longitude":"-4.3349200","fclass":"P","fcode":"PPL","country":"GB","cc2":"","admin1":"WLS","admin2":"Y2","admin3":"00NC032","admin4":"","population":0,"elevation":0,"gtopo30":8,"timezone":"Europe/London","moddate":"2015-05-06T00:00:00.000Z"},{"geonameid":2651249,"name":"Dinas Mawddwy","asciiname":"Dinas Mawddwy","alternatenames":"Dinas Mawddwy","latitude":"52.7194900","longitude":"-3.6925200","fclass":"P","fcode":"PPL","country":"GB","cc2":"","admin1":"WLS","admin2":"Y2","admin3":"00NC051","admin4":"","population":0,"elevation":0,"gtopo30":110,"timezone":"Europe/London","moddate":"2011-03-03T00:00:00.000Z"},{"geonameid":2651238,"name":"Dinorwic","asciiname":"Dinorwic","alternatenames":"","latitude":"53.1339500","longitude":"-4.1152800","fclass":"P","fcode":"PPL","country":"GB","cc2":"","admin1":"WLS","admin2":"Y2","admin3":"00NC030","admin4":"","population":0,"elevation":0,"gtopo30":301,"timezone":"Europe/London","moddate":"2015-02-16T00:00:00.000Z"},{"geonameid":2651158,"name":"Dolbenmaen","asciiname":"Dolbenmaen","alternatenames":"Dolmelinllyn","latitude":"52.9643600","longitude":"-4.2275300","fclass":"P","fcode":"PPL","country":"GB","cc2":"","admin1":"WLS","admin2":"Y2","admin3":"00NC020","admin4":"","population":0,"elevation":0,"gtopo30":89,"timezone":"Europe/London","moddate":"2011-03-03T00:00:00.000Z"},{"geonameid":2651154,"name":"Dolgellau","asciiname":"Dolgellau","alternatenames":"Dolgelaj,Dolgellau,Dolgelley,Dolgelly,duo er gai lai,Долгелай,多爾蓋萊","latitude":"52.7422200","longitude":"-3.8861100","fclass":"P","fcode":"PPL","country":"GB","cc2":"","admin1":"WLS","admin2":"Y2","admin3":"00NC021","admin4":"","population":2688,"elevation":0,"gtopo30":13,"timezone":"Europe/London","moddate":"2017-06-12T00:00:00.000Z"},{"geonameid":9166459,"name":"Dolgoch","asciiname":"Dolgoch","alternatenames":"","latitude":"52.6238400","longitude":"-3.9933600","fclass":"P","fcode":"PPL","country":"GB","cc2":"","admin1":"WLS","admin2":"Y2","admin3":"00NC014","admin4":"","population":0,"elevation":0,"gtopo30":61,"timezone":"Europe/London","moddate":"2014-06-19T00:00:00.000Z"},{"geonameid":2650594,"name":"Dyffryn","asciiname":"Dyffryn","alternatenames":"Dyffryn,Morfa Dyffryn","latitude":"52.7833300","longitude":"-4.1000000","fclass":"P","fcode":"PPL","country":"GB","cc2":"GB","admin1":"WLS","admin2":"Y2","admin3":"00NC022","admin4":"","population":0,"elevation":0,"gtopo30":18,"timezone":"Europe/London","moddate":"2016-06-22T00:00:00.000Z"},{"geonameid":8299864,"name":"Dyffryn Ardudwy","asciiname":"Dyffryn Ardudwy","alternatenames":"Dyffryn Ardudwy","latitude":"52.7774800","longitude":"-4.0646800","fclass":"P","fcode":"PPLL","country":"GB","cc2":"","admin1":"WLS","admin2":"Y2","admin3":"00NC022","admin4":"","population":1654,"elevation":0,"gtopo30":227,"timezone":"Europe/London","moddate":"2012-06-06T00:00:00.000Z"},{"geonameid":2650237,"name":"Ederyn","asciiname":"Ederyn","alternatenames":"","latitude":"52.9333300","longitude":"-4.5666700","fclass":"P","fcode":"PPL","country":"GB","cc2":"","admin1":"WLS","admin2":"Y2","admin3":"00NC052","admin4":"","population":0,"elevation":0,"gtopo30":27,"timezone":"Europe/London","moddate":"2016-06-22T00:00:00.000Z"},{"geonameid":10103964,"name":"Fachwen","asciiname":"Fachwen","alternatenames":"","latitude":"53.1347200","longitude":"-4.1409400","fclass":"P","fcode":"PPL","country":"GB","cc2":"","admin1":"WLS","admin2":"Y2","admin3":"00NC030","admin4":"","population":0,"elevation":0,"gtopo30":167,"timezone":"Europe/London","moddate":"2015-02-16T00:00:00.000Z"},{"geonameid":6620357,"name":"Fairbourne","asciiname":"Fairbourne","alternatenames":"","latitude":"52.6968000","longitude":"-4.0561000","fclass":"P","fcode":"PPL","country":"GB","cc2":"","admin1":"WLS","admin2":"Y2","admin3":"00NC004","admin4":"","population":721,"elevation":0,"gtopo30":3,"timezone":"Europe/London","moddate":"2017-06-12T00:00:00.000Z"},{"geonameid":2649493,"name":"Ffestiniog","asciiname":"Ffestiniog","alternatenames":"Ffestiniog","latitude":"52.9599600","longitude":"-3.9324200","fclass":"P","fcode":"PPLA3","country":"GB","cc2":"","admin1":"WLS","admin2":"Y2","admin3":"00NC023","admin4":"","population":0,"elevation":0,"gtopo30":189,"timezone":"Europe/London","moddate":"2011-07-31T00:00:00.000Z"},{"geonameid":10245171,"name":"Ffridd Uchaf","asciiname":"Ffridd Uchaf","alternatenames":"","latitude":"53.0435600","longitude":"-4.1232600","fclass":"P","fcode":"PPL","country":"GB","cc2":"","admin1":"WLS","admin2":"Y2","admin3":"00NC010","admin4":"","population":0,"elevation":0,"gtopo30":213,"timezone":"Europe/London","moddate":"2015-05-06T00:00:00.000Z"},{"geonameid":2649018,"name":"Frongoch","asciiname":"Frongoch","alternatenames":"Frongoch","latitude":"52.9333300","longitude":"-3.6333300","fclass":"P","fcode":"PPL","country":"GB","cc2":"","admin1":"WLS","admin2":"Y2","admin3":"00NC048","admin4":"","population":0,"elevation":0,"gtopo30":237,"timezone":"Europe/London","moddate":"2016-06-22T00:00:00.000Z"},{"geonameid":10103961,"name":"Gallt - y - foel","asciiname":"Gallt - y - foel","alternatenames":"","latitude":"53.1401800","longitude":"-4.1271300","fclass":"P","fcode":"PPL","country":"GB","cc2":"","admin1":"WLS","admin2":"Y2","admin3":"00NC030","admin4":"","population":0,"elevation":0,"gtopo30":283,"timezone":"Europe/London","moddate":"2015-02-16T00:00:00.000Z"},{"geonameid":8299867,"name":"Garndolbenmaen","asciiname":"Garndolbenmaen","alternatenames":"Garn,Garndolbenmaen","latitude":"52.9736600","longitude":"-4.2402100","fclass":"P","fcode":"PPL","country":"GB","cc2":"","admin1":"WLS","admin2":"Y2","admin3":"00NC020","admin4":"","population":101,"elevation":0,"gtopo30":138,"timezone":"Europe/London","moddate":"2012-06-06T00:00:00.000Z"},{"geonameid":2647846,"name":"Groeslon","asciiname":"Groeslon","alternatenames":"Groeslon","latitude":"53.0787100","longitude":"-4.2806100","fclass":"P","fcode":"PPL","country":"GB","cc2":"","admin1":"WLS","admin2":"Y2","admin3":"00NC032","admin4":"","population":880,"elevation":0,"gtopo30":81,"timezone":"Europe/London","moddate":"2017-06-12T00:00:00.000Z"},{"geonameid":2647720,"name":"Gwydir","asciiname":"Gwydir","alternatenames":"Gwydir,Gwydyr","latitude":"52.9833300","longitude":"-4.4166700","fclass":"P","fcode":"PPL","country":"GB","cc2":"GB","admin1":"WLS","admin2":"Y2","admin3":"00NC026","admin4":"","population":0,"elevation":0,"gtopo30":110,"timezone":"Europe/London","moddate":"2016-06-22T00:00:00.000Z"},{"geonameid":2647710,"name":"Gyrngôch","asciiname":"Gyrngoch","alternatenames":"","latitude":"53.0000000","longitude":"-4.3833300","fclass":"P","fcode":"PPL","country":"GB","cc2":"","admin1":"WLS","admin2":"Y2","admin3":"00NC026","admin4":"","population":0,"elevation":0,"gtopo30":205,"timezone":"Europe/London","moddate":"2016-06-22T00:00:00.000Z"},{"geonameid":2647471,"name":"Harlech","asciiname":"Harlech","alternatenames":"Harlech,Kharlekh,harekku,hrlk,Харлех,הרלך,ハーレック","latitude":"52.8594100","longitude":"-4.1083100","fclass":"P","fcode":"PPL","country":"GB","cc2":"","admin1":"WLS","admin2":"Y2","admin3":"00NC025","admin4":"","population":1762,"elevation":0,"gtopo30":62,"timezone":"Europe/London","moddate":"2017-06-12T00:00:00.000Z"},{"geonameid":9612815,"name":"Islawr-Dref","asciiname":"Islawr-Dref","alternatenames":"","latitude":"52.7182300","longitude":"-3.9531900","fclass":"P","fcode":"PPL","country":"GB","cc2":"","admin1":"WLS","admin2":"Y2","admin3":"00NC004","admin4":"","population":0,"elevation":0,"gtopo30":201,"timezone":"Europe/London","moddate":"2014-09-29T00:00:00.000Z"},{"geonameid":8063567,"name":"Llan Ffestiniog","asciiname":"Llan Ffestiniog","alternatenames":"","latitude":"52.9575200","longitude":"-3.9303500","fclass":"P","fcode":"PPL","country":"GB","cc2":"","admin1":"WLS","admin2":"Y2","admin3":"00NC023","admin4":"","population":864,"elevation":0,"gtopo30":205,"timezone":"Europe/London","moddate":"2017-06-12T00:00:00.000Z"},{"geonameid":2644197,"name":"Llanaber","asciiname":"Llanaber","alternatenames":"","latitude":"52.7404200","longitude":"-4.0762300","fclass":"P","fcode":"PPL","country":"GB","cc2":"","admin1":"WLS","admin2":"Y2","admin3":"00NC007","admin4":"","population":0,"elevation":0,"gtopo30":21,"timezone":"Europe/London","moddate":"2014-09-14T00:00:00.000Z"},{"geonameid":2644196,"name":"Llanaelhaiarn","asciiname":"Llanaelhaiarn","alternatenames":"Llanaelhaiarn,Llanaelliaiarn","latitude":"52.9666700","longitude":"-4.4000000","fclass":"P","fcode":"PPL","country":"GB","cc2":"GB","admin1":"WLS","admin2":"Y2","admin3":"00NC026","admin4":"","population":0,"elevation":0,"gtopo30":137,"timezone":"Europe/London","moddate":"2016-06-22T00:00:00.000Z"},{"geonameid":2644191,"name":"Llanarmon","asciiname":"Llanarmon","alternatenames":"","latitude":"52.9279800","longitude":"-4.3473700","fclass":"P","fcode":"PPL","country":"GB","cc2":"","admin1":"WLS","admin2":"Y2","admin3":"00NC049","admin4":"","population":0,"elevation":0,"gtopo30":57,"timezone":"Europe/London","moddate":"2011-03-03T00:00:00.000Z"},{"geonameid":2644176,"name":"Llanbedr","asciiname":"Llanbedr","alternatenames":"Llanbedr","latitude":"52.8166700","longitude":"-4.1000000","fclass":"P","fcode":"PPLA3","country":"GB","cc2":"","admin1":"WLS","admin2":"Y2","admin3":"00NC027","admin4":"","population":385,"elevation":0,"gtopo30":66,"timezone":"Europe/London","moddate":"2017-06-12T00:00:00.000Z"},{"geonameid":2644175,"name":"Llanbedrog","asciiname":"Llanbedrog","alternatenames":"Llanbedrog","latitude":"52.8579600","longitude":"-4.4865800","fclass":"P","fcode":"PPL","country":"GB","cc2":"","admin1":"WLS","admin2":"Y2","admin3":"00NC028","admin4":"","population":613,"elevation":0,"gtopo30":54,"timezone":"Europe/London","moddate":"2017-06-12T00:00:00.000Z"},{"geonameid":2644172,"name":"Llanberis","asciiname":"Llanberis","alternatenames":"Lanberis,Llanberis,Ланберис,Лланберис","latitude":"53.1180900","longitude":"-4.1292300","fclass":"P","fcode":"PPLA3","country":"GB","cc2":"","admin1":"WLS","admin2":"Y2","admin3":"00NC029","admin4":"","population":1844,"elevation":0,"gtopo30":128,"timezone":"Europe/London","moddate":"2017-06-12T00:00:00.000Z"},{"geonameid":2644156,"name":"Llandderfel","asciiname":"Llandderfel","alternatenames":"Llandderfel,Llanderfel","latitude":"52.9212700","longitude":"-3.5156000","fclass":"P","fcode":"PPL","country":"GB","cc2":"","admin1":"WLS","admin2":"Y2","admin3":"00NC031","admin4":"","population":0,"elevation":0,"gtopo30":163,"timezone":"Europe/London","moddate":"2011-03-03T00:00:00.000Z"},{"geonameid":2644146,"name":"Llanddwywe","asciiname":"Llanddwywe","alternatenames":"","latitude":"52.7799200","longitude":"-4.0968600","fclass":"P","fcode":"PPL","country":"GB","cc2":"","admin1":"WLS","admin2":"Y2","admin3":"00NC022","admin4":"","population":0,"elevation":0,"gtopo30":28,"timezone":"Europe/London","moddate":"2011-03-03T00:00:00.000Z"},{"geonameid":2644144,"name":"Llandecwyn","asciiname":"Llandecwyn","alternatenames":"","latitude":"52.9168200","longitude":"-4.0519400","fclass":"P","fcode":"PPL","country":"GB","cc2":"","admin1":"WLS","admin2":"Y2","admin3":"00NC059","admin4":"","population":0,"elevation":0,"gtopo30":14,"timezone":"Europe/London","moddate":"2011-03-03T00:00:00.000Z"},{"geonameid":2644140,"name":"Llandegai","asciiname":"Llandegai","alternatenames":"","latitude":"53.2166700","longitude":"-4.1000000","fclass":"P","fcode":"PPL","country":"GB","cc2":"","admin1":"WLS","admin2":"Y2","admin3":"00NC033","admin4":"","population":0,"elevation":0,"gtopo30":45,"timezone":"Europe/London","moddate":"2016-06-22T00:00:00.000Z"},{"geonameid":2644136,"name":"Llandegwning","asciiname":"Llandegwning","alternatenames":"","latitude":"52.8381600","longitude":"-4.5723700","fclass":"P","fcode":"PPL","country":"GB","cc2":"","admin1":"WLS","admin2":"Y2","admin3":"00NC012","admin4":"","population":0,"elevation":0,"gtopo30":15,"timezone":"Europe/London","moddate":"2011-03-03T00:00:00.000Z"},{"geonameid":2644118,"name":"Llandudwen","asciiname":"Llandudwen","alternatenames":"","latitude":"52.9013700","longitude":"-4.5683900","fclass":"P","fcode":"PPL","country":"GB","cc2":"","admin1":"WLS","admin2":"Y2","admin3":"00NC015","admin4":"","population":0,"elevation":0,"gtopo30":52,"timezone":"Europe/London","moddate":"2011-03-03T00:00:00.000Z"},{"geonameid":2644116,"name":"Llandwrog","asciiname":"Llandwrog","alternatenames":"","latitude":"53.0793100","longitude":"-4.3156500","fclass":"P","fcode":"PPL","country":"GB","cc2":"","admin1":"WLS","admin2":"Y2","admin3":"00NC032","admin4":"","population":0,"elevation":0,"gtopo30":19,"timezone":"Europe/London","moddate":"2015-05-06T00:00:00.000Z"},{"geonameid":2644104,"name":"Llanegryn","asciiname":"Llanegryn","alternatenames":"","latitude":"52.6287400","longitude":"-4.0715100","fclass":"P","fcode":"PPL","country":"GB","cc2":"","admin1":"WLS","admin2":"Y2","admin3":"00NC034","admin4":"","population":0,"elevation":0,"gtopo30":24,"timezone":"Europe/London","moddate":"2014-08-28T00:00:00.000Z"},{"geonameid":2644099,"name":"Llanelltyd","asciiname":"Llanelltyd","alternatenames":"","latitude":"52.7572300","longitude":"-3.9027400","fclass":"P","fcode":"PPL","country":"GB","cc2":"","admin1":"WLS","admin2":"Y2","admin3":"00NC035","admin4":"","population":0,"elevation":0,"gtopo30":10,"timezone":"Europe/London","moddate":"2011-03-03T00:00:00.000Z"},{"geonameid":2644098,"name":"Llanenddwyn","asciiname":"Llanenddwyn","alternatenames":"","latitude":"52.7888800","longitude":"-4.1030100","fclass":"P","fcode":"PPL","country":"GB","cc2":"","admin1":"WLS","admin2":"Y2","admin3":"00NC022","admin4":"","population":0,"elevation":0,"gtopo30":21,"timezone":"Europe/London","moddate":"2011-03-03T00:00:00.000Z"},{"geonameid":2644097,"name":"Llanengan","asciiname":"Llanengan","alternatenames":"","latitude":"52.8139500","longitude":"-4.5317600","fclass":"P","fcode":"PPL","country":"GB","cc2":"","admin1":"WLS","admin2":"Y2","admin3":"00NC036","admin4":"","population":0,"elevation":0,"gtopo30":16,"timezone":"Europe/London","moddate":"2011-03-03T00:00:00.000Z"},{"geonameid":2644092,"name":"Llanfachreth","asciiname":"Llanfachreth","alternatenames":"","latitude":"52.7852700","longitude":"-3.8513100","fclass":"P","fcode":"PPL","country":"GB","cc2":"","admin1":"WLS","admin2":"Y2","admin3":"00NC013","admin4":"","population":0,"elevation":0,"gtopo30":160,"timezone":"Europe/London","moddate":"2014-09-14T00:00:00.000Z"},{"geonameid":2644090,"name":"Llanfaelrhys","asciiname":"Llanfaelrhys","alternatenames":"","latitude":"52.8096400","longitude":"-4.6546800","fclass":"P","fcode":"PPL","country":"GB","cc2":"","admin1":"WLS","admin2":"Y2","admin3":"00NC002","admin4":"","population":0,"elevation":0,"gtopo30":94,"timezone":"Europe/London","moddate":"2011-03-03T00:00:00.000Z"},{"geonameid":2644086,"name":"Llanfair","asciiname":"Llanfair","alternatenames":"","latitude":"52.8441500","longitude":"-4.1154100","fclass":"P","fcode":"PPLA3","country":"GB","cc2":"","admin1":"WLS","admin2":"Y2","admin3":"00NC037","admin4":"","population":0,"elevation":0,"gtopo30":78,"timezone":"Europe/London","moddate":"2011-07-31T00:00:00.000Z"},{"geonameid":2644070,"name":"Llanfihangel Bachellaeth","asciiname":"Llanfihangel Bachellaeth","alternatenames":"Llanfihangel,Llanfihangel Bachellaeth","latitude":"52.8833300","longitude":"-4.5166700","fclass":"P","fcode":"PPL","country":"GB","cc2":"GB","admin1":"WLS","admin2":"Y2","admin3":"00NC015","admin4":"","population":0,"elevation":0,"gtopo30":79,"timezone":"Europe/London","moddate":"2016-06-22T00:00:00.000Z"},{"geonameid":2644058,"name":"Llanfihangel-y-pennant","asciiname":"Llanfihangel-y-pennant","alternatenames":"","latitude":"52.9666700","longitude":"-4.2000000","fclass":"P","fcode":"PPL","country":"GB","cc2":"","admin1":"WLS","admin2":"Y2","admin3":"00NC020","admin4":"","population":0,"elevation":0,"gtopo30":121,"timezone":"Europe/London","moddate":"2016-06-22T00:00:00.000Z"},{"geonameid":2644059,"name":"Llanfihangel-y-Pennant","asciiname":"Llanfihangel-y-Pennant","alternatenames":"","latitude":"52.6609800","longitude":"-3.9652100","fclass":"P","fcode":"PPL","country":"GB","cc2":"","admin1":"WLS","admin2":"Y2","admin3":"00NC038","admin4":"","population":0,"elevation":0,"gtopo30":31,"timezone":"Europe/London","moddate":"2010-08-27T00:00:00.000Z"},{"geonameid":2644056,"name":"Llanfor","asciiname":"Llanfor","alternatenames":"","latitude":"52.9169200","longitude":"-3.5810400","fclass":"P","fcode":"PPL","country":"GB","cc2":"","admin1":"WLS","admin2":"Y2","admin3":"00NC031","admin4":"","population":0,"elevation":0,"gtopo30":172,"timezone":"Europe/London","moddate":"2011-03-03T00:00:00.000Z"},{"geonameid":2644055,"name":"Llanfrothen","asciiname":"Llanfrothen","alternatenames":"","latitude":"52.9507200","longitude":"-4.0511700","fclass":"P","fcode":"PPL","country":"GB","cc2":"","admin1":"WLS","admin2":"Y2","admin3":"00NC039","admin4":"","population":0,"elevation":0,"gtopo30":17,"timezone":"Europe/London","moddate":"2011-03-03T00:00:00.000Z"},{"geonameid":2644033,"name":"Llangelynin","asciiname":"Llangelynin","alternatenames":"","latitude":"52.6432600","longitude":"-4.1116000","fclass":"P","fcode":"PPL","country":"GB","cc2":"","admin1":"WLS","admin2":"Y2","admin3":"00NC040","admin4":"","population":0,"elevation":0,"gtopo30":68,"timezone":"Europe/London","moddate":"2011-03-03T00:00:00.000Z"},{"geonameid":2644026,"name":"Llangian","asciiname":"Llangian","alternatenames":"","latitude":"52.8306700","longitude":"-4.5319900","fclass":"P","fcode":"PPL","country":"GB","cc2":"","admin1":"WLS","admin2":"Y2","admin3":"00NC036","admin4":"","population":0,"elevation":0,"gtopo30":13,"timezone":"Europe/London","moddate":"2011-03-03T00:00:00.000Z"},{"geonameid":2644017,"name":"Llangower","asciiname":"Llangower","alternatenames":"","latitude":"52.8764100","longitude":"-3.6294300","fclass":"P","fcode":"PPL","country":"GB","cc2":"","admin1":"WLS","admin2":"Y2","admin3":"00NC041","admin4":"","population":0,"elevation":0,"gtopo30":171,"timezone":"Europe/London","moddate":"2011-03-03T00:00:00.000Z"},{"geonameid":2644009,"name":"Llangwnadl","asciiname":"Llangwnadl","alternatenames":"","latitude":"52.8666700","longitude":"-4.6666700","fclass":"P","fcode":"PPL","country":"GB","cc2":"","admin1":"WLS","admin2":"Y2","admin3":"00NC061","admin4":"","population":0,"elevation":0,"gtopo30":53,"timezone":"Europe/London","moddate":"2016-06-22T00:00:00.000Z"},{"geonameid":2644005,"name":"Llangybi","asciiname":"Llangybi","alternatenames":"Llangybi","latitude":"52.9333300","longitude":"-4.3500000","fclass":"P","fcode":"PPL","country":"GB","cc2":"","admin1":"WLS","admin2":"Y2","admin3":"00NC049","admin4":"","population":0,"elevation":0,"gtopo30":68,"timezone":"Europe/London","moddate":"2016-06-22T00:00:00.000Z"},{"geonameid":2643982,"name":"Llanllechid","asciiname":"Llanllechid","alternatenames":"","latitude":"53.1970800","longitude":"-4.0629700","fclass":"P","fcode":"PPL","country":"GB","cc2":"","admin1":"WLS","admin2":"Y2","admin3":"00NC042","admin4":"","population":0,"elevation":0,"gtopo30":175,"timezone":"Europe/London","moddate":"2011-03-03T00:00:00.000Z"},{"geonameid":2643978,"name":"Llanllyfni","asciiname":"Llanllyfni","alternatenames":"Llanllyfni","latitude":"53.0435900","longitude":"-4.2852700","fclass":"P","fcode":"PPL","country":"GB","cc2":"","admin1":"WLS","admin2":"Y2","admin3":"00NC043","admin4":"","population":0,"elevation":0,"gtopo30":99,"timezone":"Europe/London","moddate":"2015-05-06T00:00:00.000Z"},{"geonameid":2643972,"name":"Llannor","asciiname":"Llannor","alternatenames":"Llannor,Llanor","latitude":"52.9067500","longitude":"-4.4498700","fclass":"P","fcode":"PPL","country":"GB","cc2":"","admin1":"WLS","admin2":"Y2","admin3":"00NC044","admin4":"","population":0,"elevation":0,"gtopo30":24,"timezone":"Europe/London","moddate":"2011-03-03T00:00:00.000Z"},{"geonameid":2643958,"name":"Llanrug","asciiname":"Llanrug","alternatenames":"","latitude":"53.1478800","longitude":"-4.1959600","fclass":"P","fcode":"PPL","country":"GB","cc2":"","admin1":"WLS","admin2":"Y2","admin3":"00NC046","admin4":"","population":1916,"elevation":0,"gtopo30":119,"timezone":"Europe/London","moddate":"2017-06-12T00:00:00.000Z"},{"geonameid":2643930,"name":"Llanuwchllyn","asciiname":"Llanuwchllyn","alternatenames":"Llanuwchllyn","latitude":"52.8546800","longitude":"-3.6678900","fclass":"P","fcode":"PPL","country":"GB","cc2":"","admin1":"WLS","admin2":"Y2","admin3":"00NC045","admin4":"","population":0,"elevation":0,"gtopo30":175,"timezone":"Europe/London","moddate":"2011-03-03T00:00:00.000Z"},{"geonameid":2643913,"name":"Llanwnda","asciiname":"Llanwnda","alternatenames":"Llanwnda","latitude":"53.1013900","longitude":"-4.2784900","fclass":"P","fcode":"PPLA3","country":"GB","cc2":"","admin1":"WLS","admin2":"Y2","admin3":"00NC047","admin4":"","population":0,"elevation":0,"gtopo30":54,"timezone":"Europe/London","moddate":"2015-05-06T00:00:00.000Z"},{"geonameid":2643898,"name":"Llanycil","asciiname":"Llanycil","alternatenames":"","latitude":"52.9007700","longitude":"-3.6158500","fclass":"P","fcode":"PPL","country":"GB","cc2":"","admin1":"WLS","admin2":"Y2","admin3":"00NC048","admin4":"","population":0,"elevation":0,"gtopo30":175,"timezone":"Europe/London","moddate":"2011-03-03T00:00:00.000Z"},{"geonameid":2643896,"name":"Llanymawddwy","asciiname":"Llanymawddwy","alternatenames":"Llanymawddwy","latitude":"52.7574300","longitude":"-3.6271200","fclass":"P","fcode":"PPL","country":"GB","cc2":"","admin1":"WLS","admin2":"Y2","admin3":"00NC051","admin4":"","population":0,"elevation":0,"gtopo30":162,"timezone":"Europe/London","moddate":"2011-03-03T00:00:00.000Z"},{"geonameid":2643893,"name":"Llanystumdwy","asciiname":"Llanystumdwy","alternatenames":"Llanystumdwy,Llanystymdwy","latitude":"52.9207800","longitude":"-4.2715700","fclass":"P","fcode":"PPL","country":"GB","cc2":"","admin1":"WLS","admin2":"Y2","admin3":"00NC049","admin4":"","population":0,"elevation":0,"gtopo30":16,"timezone":"Europe/London","moddate":"2011-03-03T00:00:00.000Z"},{"geonameid":2643885,"name":"Llithfaen","asciiname":"Llithfaen","alternatenames":"","latitude":"52.9603200","longitude":"-4.4484700","fclass":"P","fcode":"PPL","country":"GB","cc2":"","admin1":"WLS","admin2":"Y2","admin3":"00NC056","admin4":"","population":0,"elevation":0,"gtopo30":203,"timezone":"Europe/London","moddate":"2011-03-03T00:00:00.000Z"},{"geonameid":2643875,"name":"Llwyngwril","asciiname":"Llwyngwril","alternatenames":"","latitude":"52.6676500","longitude":"-4.0841700","fclass":"P","fcode":"PPL","country":"GB","cc2":"","admin1":"WLS","admin2":"Y2","admin3":"00NC040","admin4":"","population":526,"elevation":0,"gtopo30":24,"timezone":"Europe/London","moddate":"2017-06-12T00:00:00.000Z"},{"geonameid":2643224,"name":"Maentwrog","asciiname":"Maentwrog","alternatenames":"Maentwrog","latitude":"52.9460000","longitude":"-3.9878700","fclass":"P","fcode":"PPLA3","country":"GB","cc2":"","admin1":"WLS","admin2":"Y2","admin3":"00NC050","admin4":"","population":0,"elevation":0,"gtopo30":52,"timezone":"Europe/London","moddate":"2011-07-31T00:00:00.000Z"},{"geonameid":2643147,"name":"Mallwyd","asciiname":"Mallwyd","alternatenames":"Mallwyd","latitude":"52.6982800","longitude":"-3.6847100","fclass":"P","fcode":"PPL","country":"GB","cc2":"","admin1":"WLS","admin2":"Y2","admin3":"00NC051","admin4":"","population":0,"elevation":0,"gtopo30":89,"timezone":"Europe/London","moddate":"2011-03-03T00:00:00.000Z"},{"geonameid":2642680,"name":"Meyllteyrn","asciiname":"Meyllteyrn","alternatenames":"","latitude":"52.8666700","longitude":"-4.6166700","fclass":"P","fcode":"PPL","country":"GB","cc2":"","admin1":"WLS","admin2":"Y2","admin3":"00NC012","admin4":"","population":0,"elevation":0,"gtopo30":52,"timezone":"Europe/London","moddate":"2016-06-22T00:00:00.000Z"},{"geonameid":2642447,"name":"Minffordd","asciiname":"Minffordd","alternatenames":"Minffordd,Mynfford","latitude":"52.9246400","longitude":"-4.0821100","fclass":"P","fcode":"PPL","country":"GB","cc2":"","admin1":"WLS","admin2":"Y2","admin3":"00NC054","admin4":"","population":0,"elevation":0,"gtopo30":24,"timezone":"Europe/London","moddate":"2016-06-22T00:00:00.000Z"},{"geonameid":2642387,"name":"Moel-tryfan","asciiname":"Moel-tryfan","alternatenames":"Moaltryfan,Moel-tryfan","latitude":"53.0833300","longitude":"-4.2333300","fclass":"P","fcode":"PPL","country":"GB","cc2":"GB","admin1":"WLS","admin2":"Y2","admin3":"00NC047","admin4":"","population":0,"elevation":0,"gtopo30":271,"timezone":"Europe/London","moddate":"2016-06-22T00:00:00.000Z"},{"geonameid":2642195,"name":"Morfa Nefyn","asciiname":"Morfa Nefyn","alternatenames":"Morfa Nefyn,Morfa Nevin","latitude":"52.9328900","longitude":"-4.5494300","fclass":"P","fcode":"PPL","country":"GB","cc2":"","admin1":"WLS","admin2":"Y2","admin3":"00NC052","admin4":"","population":857,"elevation":0,"gtopo30":31,"timezone":"Europe/London","moddate":"2017-06-12T00:00:00.000Z"},{"geonameid":8714331,"name":"Mynytho","asciiname":"Mynytho","alternatenames":"","latitude":"52.8512000","longitude":"-4.5165800","fclass":"P","fcode":"PPL","country":"GB","cc2":"","admin1":"WLS","admin2":"Y2","admin3":"00NC036","admin4":"","population":536,"elevation":0,"gtopo30":132,"timezone":"Europe/London","moddate":"2017-06-12T00:00:00.000Z"},{"geonameid":8181669,"name":"Nant Gwynant","asciiname":"Nant Gwynant","alternatenames":"","latitude":"53.0478900","longitude":"-4.0388500","fclass":"P","fcode":"PPL","country":"GB","cc2":"","admin1":"WLS","admin2":"Y2","admin3":"00NC008","admin4":"","population":0,"elevation":0,"gtopo30":228,"timezone":"Europe/London","moddate":"2012-01-26T00:00:00.000Z"},{"geonameid":2641896,"name":"Nantlle","asciiname":"Nantlle","alternatenames":"","latitude":"53.0578000","longitude":"-4.2239400","fclass":"P","fcode":"PPL","country":"GB","cc2":"","admin1":"WLS","admin2":"Y2","admin3":"00NC043","admin4":"","population":0,"elevation":0,"gtopo30":118,"timezone":"Europe/London","moddate":"2015-05-06T00:00:00.000Z"},{"geonameid":10245176,"name":"Nasareth","asciiname":"Nasareth","alternatenames":"","latitude":"53.0264300","longitude":"-4.2832900","fclass":"P","fcode":"PPL","country":"GB","cc2":"","admin1":"WLS","admin2":"Y2","admin3":"00NC043","admin4":"","population":0,"elevation":0,"gtopo30":167,"timezone":"Europe/London","moddate":"2015-05-06T00:00:00.000Z"},{"geonameid":10245177,"name":"Nebo","asciiname":"Nebo","alternatenames":"","latitude":"53.0302500","longitude":"-4.2702500","fclass":"P","fcode":"PPL","country":"GB","cc2":"","admin1":"WLS","admin2":"Y2","admin3":"00NC043","admin4":"","population":0,"elevation":0,"gtopo30":214,"timezone":"Europe/London","moddate":"2015-05-06T00:00:00.000Z"},{"geonameid":2641745,"name":"Nefyn","asciiname":"Nefyn","alternatenames":"Nefyn,Nevin,Невин","latitude":"52.9353800","longitude":"-4.5225000","fclass":"P","fcode":"PPLA3","country":"GB","cc2":"GB","admin1":"WLS","admin2":"Y2","admin3":"00NC052","admin4":"","population":1373,"elevation":0,"gtopo30":45,"timezone":"Europe/London","moddate":"2017-06-13T00:00:00.000Z"},{"geonameid":2640671,"name":"Pale","asciiname":"Pale","alternatenames":"","latitude":"52.9121300","longitude":"-3.5137900","fclass":"P","fcode":"PPL","country":"GB","cc2":"","admin1":"WLS","admin2":"Y2","admin3":"00NC031","admin4":"","population":0,"elevation":0,"gtopo30":190,"timezone":"Europe/London","moddate":"2011-03-03T00:00:00.000Z"},{"geonameid":2640656,"name":"Pandy","asciiname":"Pandy","alternatenames":"","latitude":"52.8500000","longitude":"-3.6666700","fclass":"P","fcode":"PPL","country":"GB","cc2":"","admin1":"WLS","admin2":"Y2","admin3":"00NC045","admin4":"","population":0,"elevation":0,"gtopo30":214,"timezone":"Europe/London","moddate":"2016-06-22T00:00:00.000Z"},{"geonameid":10103965,"name":"Penisa'r Waun","asciiname":"Penisa'r Waun","alternatenames":"","latitude":"53.1546200","longitude":"-4.1806000","fclass":"P","fcode":"PPL","country":"GB","cc2":"","admin1":"WLS","admin2":"Y2","admin3":"00NC030","admin4":"","population":0,"elevation":0,"gtopo30":124,"timezone":"Europe/London","moddate":"2015-02-16T00:00:00.000Z"},{"geonameid":2640457,"name":"Penllech","asciiname":"Penllech","alternatenames":"","latitude":"52.8780900","longitude":"-4.6457800","fclass":"P","fcode":"PPL","country":"GB","cc2":"","admin1":"WLS","admin2":"Y2","admin3":"00NC061","admin4":"","population":0,"elevation":0,"gtopo30":62,"timezone":"Europe/London","moddate":"2011-03-03T00:00:00.000Z"},{"geonameid":2640447,"name":"Pennal","asciiname":"Pennal","alternatenames":"Pennal","latitude":"52.5855700","longitude":"-3.9209800","fclass":"P","fcode":"PPL","country":"GB","cc2":"","admin1":"WLS","admin2":"Y2","admin3":"00NC053","admin4":"","population":0,"elevation":0,"gtopo30":8,"timezone":"Europe/London","moddate":"2011-03-03T00:00:00.000Z"},{"geonameid":2640423,"name":"Penrhos","asciiname":"Penrhos","alternatenames":"","latitude":"52.8666700","longitude":"-4.4666700","fclass":"P","fcode":"PPL","country":"GB","cc2":"","admin1":"WLS","admin2":"Y2","admin3":"00NC028","admin4":"","population":0,"elevation":0,"gtopo30":8,"timezone":"Europe/London","moddate":"2016-06-22T00:00:00.000Z"},{"geonameid":2640419,"name":"Penrhyndeudraeth","asciiname":"Penrhyndeudraeth","alternatenames":"Penrhyn Deudraeth,Penrhyndeudraeth,Penrhyndeudreath","latitude":"52.9333300","longitude":"-4.0666700","fclass":"P","fcode":"PPL","country":"GB","cc2":"","admin1":"WLS","admin2":"Y2","admin3":"00NC054","admin4":"","population":1546,"elevation":0,"gtopo30":29,"timezone":"Europe/London","moddate":"2017-06-12T00:00:00.000Z"},{"geonameid":2640379,"name":"Penygroes","asciiname":"Penygroes","alternatenames":"Pen-y-groes","latitude":"53.0550200","longitude":"-4.2853500","fclass":"P","fcode":"PPL","country":"GB","cc2":"","admin1":"WLS","admin2":"Y2","admin3":"00NC043","admin4":"","population":1793,"elevation":0,"gtopo30":110,"timezone":"Europe/London","moddate":"2017-06-12T00:00:00.000Z"},{"geonameid":2640263,"name":"Pistyll","asciiname":"Pistyll","alternatenames":"","latitude":"52.9484300","longitude":"-4.4943000","fclass":"P","fcode":"PPL","country":"GB","cc2":"","admin1":"WLS","admin2":"Y2","admin3":"00NC056","admin4":"","population":0,"elevation":0,"gtopo30":98,"timezone":"Europe/London","moddate":"2011-03-03T00:00:00.000Z"},{"geonameid":10103953,"name":"Pont Pen - y - benglog","asciiname":"Pont Pen - y - benglog","alternatenames":"","latitude":"53.1238600","longitude":"-4.0209100","fclass":"P","fcode":"PPL","country":"GB","cc2":"","admin1":"WLS","admin2":"Y2","admin3":"00NC033","admin4":"","population":0,"elevation":0,"gtopo30":301,"timezone":"Europe/London","moddate":"2015-02-16T00:00:00.000Z"},{"geonameid":11054511,"name":"Porthdinllaen","asciiname":"Porthdinllaen","alternatenames":"","latitude":"52.9435000","longitude":"-4.5680600","fclass":"P","fcode":"PPL","country":"GB","cc2":"","admin1":"WLS","admin2":"Y2","admin3":"00NC052","admin4":"","population":0,"elevation":0,"gtopo30":11,"timezone":"Europe/London","moddate":"2016-01-30T00:00:00.000Z"},{"geonameid":2640045,"name":"Porthmadog","asciiname":"Porthmadog","alternatenames":"Porthmadog,Portmadoc,Portmadog,Portmadogas,Портмадог","latitude":"52.9292400","longitude":"-4.1313700","fclass":"P","fcode":"PPLA3","country":"GB","cc2":"","admin1":"WLS","admin2":"Y2","admin3":"00NC057","admin4":"","population":2981,"elevation":0,"gtopo30":4,"timezone":"Europe/London","moddate":"2017-06-12T00:00:00.000Z"},{"geonameid":6620365,"name":"Portmeirion","asciiname":"Portmeirion","alternatenames":"Portmerion,Портмерион","latitude":"52.9172600","longitude":"-4.0922800","fclass":"P","fcode":"PPL","country":"GB","cc2":"","admin1":"WLS","admin2":"Y2","admin3":"00NC054","admin4":"","population":0,"elevation":0,"gtopo30":37,"timezone":"Europe/London","moddate":"2016-06-22T00:00:00.000Z"},{"geonameid":2639828,"name":"Pwllheli","asciiname":"Pwllheli","alternatenames":"Pulkheli,Pwllbeli,Pwllheli,Пулхели","latitude":"52.8899000","longitude":"-4.4145100","fclass":"P","fcode":"PPLA3","country":"GB","cc2":"","admin1":"WLS","admin2":"Y2","admin3":"00NC058","admin4":"","population":4076,"elevation":0,"gtopo30":7,"timezone":"Europe/London","moddate":"2017-06-12T00:00:00.000Z"},{"geonameid":2639451,"name":"Rhiw","asciiname":"Rhiw","alternatenames":"Rhiw","latitude":"52.8203800","longitude":"-4.6330700","fclass":"P","fcode":"PPL","country":"GB","cc2":"","admin1":"WLS","admin2":"Y2","admin3":"00NC002","admin4":"","population":0,"elevation":0,"gtopo30":190,"timezone":"Europe/London","moddate":"2011-03-03T00:00:00.000Z"},{"geonameid":2639428,"name":"Rhôs-y-llan","asciiname":"Rhos-y-llan","alternatenames":"","latitude":"52.9000000","longitude":"-4.6333300","fclass":"P","fcode":"PPL","country":"GB","cc2":"","admin1":"WLS","admin2":"Y2","admin3":"00NC061","admin4":"","population":0,"elevation":0,"gtopo30":29,"timezone":"Europe/London","moddate":"2016-06-22T00:00:00.000Z"},{"geonameid":9410025,"name":"Rhydymain","asciiname":"Rhydymain","alternatenames":"","latitude":"52.7813000","longitude":"-3.7788700","fclass":"P","fcode":"PPL","country":"GB","cc2":"","admin1":"WLS","admin2":"Y2","admin3":"00NC013","admin4":"","population":0,"elevation":0,"gtopo30":150,"timezone":"Europe/London","moddate":"2014-09-14T00:00:00.000Z"},{"geonameid":2638507,"name":"Sarn","asciiname":"Sarn","alternatenames":"","latitude":"52.8500000","longitude":"-4.6166700","fclass":"P","fcode":"PPL","country":"GB","cc2":"","admin1":"WLS","admin2":"Y2","admin3":"00NC012","admin4":"","population":0,"elevation":0,"gtopo30":79,"timezone":"Europe/London","moddate":"2016-06-22T00:00:00.000Z"},{"geonameid":2637479,"name":"South Beach","asciiname":"South Beach","alternatenames":"","latitude":"52.8823300","longitude":"-4.4138500","fclass":"P","fcode":"PPL","country":"GB","cc2":"","admin1":"WLS","admin2":"Y2","admin3":"00NC058","admin4":"","population":0,"elevation":0,"gtopo30":5,"timezone":"Europe/London","moddate":"2015-04-10T00:00:00.000Z"},{"geonameid":10245173,"name":"Tai'n Lon","asciiname":"Tai'n Lon","alternatenames":"","latitude":"53.0252900","longitude":"-4.3233800","fclass":"P","fcode":"PPL","country":"GB","cc2":"","admin1":"WLS","admin2":"Y2","admin3":"00NC017","admin4":"","population":0,"elevation":0,"gtopo30":73,"timezone":"Europe/London","moddate":"2015-05-06T00:00:00.000Z"},{"geonameid":11550915,"name":"Tal-y-bont","asciiname":"Tal-y-bont","alternatenames":"","latitude":"52.7747100","longitude":"-4.0922400","fclass":"P","fcode":"PPL","country":"GB","cc2":"","admin1":"WLS","admin2":"Y2","admin3":"00NC022","admin4":"","population":1540,"elevation":0,"gtopo30":37,"timezone":"Europe/London","moddate":"2017-06-12T00:00:00.000Z"},{"geonameid":2636290,"name":"Talsarnau","asciiname":"Talsarnau","alternatenames":"","latitude":"52.9034400","longitude":"-4.0649200","fclass":"P","fcode":"PPL","country":"GB","cc2":"","admin1":"WLS","admin2":"Y2","admin3":"00NC059","admin4":"","population":0,"elevation":0,"gtopo30":7,"timezone":"Europe/London","moddate":"2011-03-03T00:00:00.000Z"},{"geonameid":2636286,"name":"Talyllyn","asciiname":"Talyllyn","alternatenames":"Tal-y-llyn","latitude":"52.6660500","longitude":"-3.9110900","fclass":"P","fcode":"PPL","country":"GB","cc2":"","admin1":"WLS","admin2":"Y2","admin3":"00NC038","admin4":"","population":0,"elevation":0,"gtopo30":87,"timezone":"Europe/London","moddate":"2015-06-01T00:00:00.000Z"},{"geonameid":10245175,"name":"Talysarn","asciiname":"Talysarn","alternatenames":"","latitude":"53.0536500","longitude":"-4.2576700","fclass":"P","fcode":"PPL","country":"GB","cc2":"","admin1":"WLS","admin2":"Y2","admin3":"00NC043","admin4":"","population":1086,"elevation":0,"gtopo30":120,"timezone":"Europe/London","moddate":"2017-06-12T00:00:00.000Z"},{"geonameid":2636252,"name":"Tan-y-Bwlch","asciiname":"Tan-y-Bwlch","alternatenames":"","latitude":"52.9460000","longitude":"-4.0021100","fclass":"P","fcode":"PPL","country":"GB","cc2":"","admin1":"WLS","admin2":"Y2","admin3":"00NC050","admin4":"","population":0,"elevation":0,"gtopo30":58,"timezone":"Europe/London","moddate":"2016-06-22T00:00:00.000Z"},{"geonameid":2636251,"name":"Tanygrisiau","asciiname":"Tanygrisiau","alternatenames":"Tanygrisiau","latitude":"52.9870500","longitude":"-3.9574000","fclass":"P","fcode":"PPL","country":"GB","cc2":"","admin1":"WLS","admin2":"Y2","admin3":"00NC023","admin4":"","population":0,"elevation":0,"gtopo30":188,"timezone":"Europe/London","moddate":"2016-06-22T00:00:00.000Z"},{"geonameid":10245178,"name":"Tanyraltt","asciiname":"Tanyraltt","alternatenames":"Tanrallt","latitude":"53.0462600","longitude":"-4.2563400","fclass":"P","fcode":"PPLL","country":"GB","cc2":"","admin1":"WLS","admin2":"Y2","admin3":"00NC043","admin4":"","population":0,"elevation":0,"gtopo30":120,"timezone":"Europe/London","moddate":"2015-05-06T00:00:00.000Z"},{"geonameid":2635699,"name":"Ton-fanau","asciiname":"Ton-fanau","alternatenames":"","latitude":"52.6145400","longitude":"-4.1220600","fclass":"P","fcode":"PPL","country":"GB","cc2":"","admin1":"WLS","admin2":"Y2","admin3":"00NC040","admin4":"","population":0,"elevation":0,"gtopo30":11,"timezone":"Europe/London","moddate":"2014-08-28T00:00:00.000Z"},{"geonameid":2635581,"name":"Towyn","asciiname":"Towyn","alternatenames":"","latitude":"52.6000000","longitude":"-4.0833300","fclass":"P","fcode":"PPL","country":"GB","cc2":"","admin1":"WLS","admin2":"Y2","admin3":"00NC062","admin4":"","population":0,"elevation":0,"gtopo30":1,"timezone":"Europe/London","moddate":"2016-06-22T00:00:00.000Z"},{"geonameid":2635557,"name":"Trawsfynydd","asciiname":"Trawsfynydd","alternatenames":"Trawsfynydd","latitude":"52.9021200","longitude":"-3.9228900","fclass":"P","fcode":"PPLA3","country":"GB","cc2":"","admin1":"WLS","admin2":"Y2","admin3":"00NC060","admin4":"","population":628,"elevation":0,"gtopo30":230,"timezone":"Europe/London","moddate":"2017-06-12T00:00:00.000Z"},{"geonameid":2635530,"name":"Tregarth","asciiname":"Tregarth","alternatenames":"Tregarth,Tregorth","latitude":"53.1901200","longitude":"-4.0878000","fclass":"P","fcode":"PPL","country":"GB","cc2":"","admin1":"WLS","admin2":"Y2","admin3":"00NC033","admin4":"","population":1307,"elevation":0,"gtopo30":130,"timezone":"Europe/London","moddate":"2017-06-12T00:00:00.000Z"},{"geonameid":2635514,"name":"Tremadoc","asciiname":"Tremadoc","alternatenames":"","latitude":"52.9333300","longitude":"-4.1500000","fclass":"P","fcode":"PPL","country":"GB","cc2":"","admin1":"WLS","admin2":"Y2","admin3":"00NC057","admin4":"","population":0,"elevation":0,"gtopo30":5,"timezone":"Europe/London","moddate":"2016-06-22T00:00:00.000Z"},{"geonameid":8199186,"name":"Tremadog","asciiname":"Tremadog","alternatenames":"","latitude":"52.9405400","longitude":"-4.1417600","fclass":"P","fcode":"PPL","country":"GB","cc2":"","admin1":"WLS","admin2":"Y2","admin3":"00NC057","admin4":"","population":0,"elevation":0,"gtopo30":64,"timezone":"Europe/London","moddate":"2012-02-16T00:00:00.000Z"},{"geonameid":2635474,"name":"Trevor","asciiname":"Trevor","alternatenames":"","latitude":"52.9929100","longitude":"-4.4264600","fclass":"P","fcode":"PPL","country":"GB","cc2":"","admin1":"WLS","admin2":"Y2","admin3":"00NC026","admin4":"","population":0,"elevation":0,"gtopo30":25,"timezone":"Europe/London","moddate":"2015-04-10T00:00:00.000Z"},{"geonameid":2635319,"name":"Tudweiliog","asciiname":"Tudweiliog","alternatenames":"Tudweiliog,Twdweiliog","latitude":"52.9000000","longitude":"-4.6166700","fclass":"P","fcode":"PPL","country":"GB","cc2":"","admin1":"WLS","admin2":"Y2","admin3":"00NC061","admin4":"","population":0,"elevation":0,"gtopo30":52,"timezone":"Europe/London","moddate":"2017-03-22T00:00:00.000Z"},{"geonameid":6559494,"name":"Tywyn","asciiname":"Tywyn","alternatenames":"Tuuin,Тъуин","latitude":"52.5857800","longitude":"-4.0927600","fclass":"P","fcode":"PPLA3","country":"GB","cc2":"","admin1":"WLS","admin2":"Y2","admin3":"00NC062","admin4":"","population":3097,"elevation":0,"gtopo30":10,"timezone":"Europe/London","moddate":"2017-06-12T00:00:00.000Z"},{"geonameid":7522128,"name":"Upper Corris","asciiname":"Upper Corris","alternatenames":"","latitude":"52.6613400","longitude":"-3.8565400","fclass":"P","fcode":"PPL","country":"GB","cc2":"","admin1":"WLS","admin2":"Y2","admin3":"00NC018","admin4":"","population":200,"elevation":300,"gtopo30":169,"timezone":"Europe/London","moddate":"2010-09-04T00:00:00.000Z"},{"geonameid":2634915,"name":"Waunfawr","asciiname":"Waunfawr","alternatenames":"","latitude":"53.1100000","longitude":"-4.2012000","fclass":"P","fcode":"PPL","country":"GB","cc2":"","admin1":"WLS","admin2":"Y2","admin3":"00NC063","admin4":"","population":0,"elevation":0,"gtopo30":147,"timezone":"Europe/London","moddate":"2017-07-21T00:00:00.000Z"},{"geonameid":6951032,"name":"Y Felinheli","asciiname":"Y Felinheli","alternatenames":"Felinheli,Port Dinorwic,Y Felinheli","latitude":"53.1873700","longitude":"-4.2047600","fclass":"P","fcode":"PPL","country":"GB","cc2":"","admin1":"WLS","admin2":"Y2","admin3":"00NC064","admin4":"","population":2284,"elevation":0,"gtopo30":13,"timezone":"Europe/London","moddate":"2017-06-12T00:00:00.000Z"}],"admin3":[{"geonameid":7300634,"name":"Aber","admin3":"00NC001"},{"geonameid":7295208,"name":"Aberdaron","admin3":"00NC002"},{"geonameid":7300635,"name":"Aberdyfi","admin3":"00NC003"},{"geonameid":7300636,"name":"Arthog","admin3":"00NC004"},{"geonameid":7295209,"name":"Bala","admin3":"00NC005"},{"geonameid":7298620,"name":"Bangor","admin3":"00NC006"},{"geonameid":7293618,"name":"Barmouth","admin3":"00NC007"},{"geonameid":7293619,"name":"Beddgelert","admin3":"00NC008"},{"geonameid":7293620,"name":"Bethesda","admin3":"00NC009"},{"geonameid":7293621,"name":"Betws Garmon","admin3":"00NC010"},{"geonameid":7293622,"name":"Bontnewydd","admin3":"00NC011"},{"geonameid":7295210,"name":"Botwnnog","admin3":"00NC012"},{"geonameid":7300637,"name":"Brithdir and Llanfachreth","admin3":"00NC013"},{"geonameid":7293623,"name":"Bryn-Crug","admin3":"00NC014"},{"geonameid":7293624,"name":"Buan","admin3":"00NC015"},{"geonameid":2654090,"name":"Caernarfon","admin3":"00NC016","localeAltName":"Caernarfonshire"},{"geonameid":7298010,"name":"Clynnog","admin3":"00NC017"},{"geonameid":7298621,"name":"Corris","admin3":"00NC018"},{"geonameid":7296530,"name":"Criccieth","admin3":"00NC019"},{"geonameid":7298622,"name":"Dolbenmaen","admin3":"00NC020"},{"geonameid":7300638,"name":"Dolgellau","admin3":"00NC021"},{"geonameid":7295211,"name":"Dyffryn Ardudwy","admin3":"00NC022"},{"geonameid":7300639,"name":"Ffestiniog","admin3":"00NC023"},{"geonameid":7300640,"name":"Ganllwyd","admin3":"00NC024"},{"geonameid":7300641,"name":"Harlech","admin3":"00NC025"},{"geonameid":7300642,"name":"Llanaelhaearn","admin3":"00NC026"},{"geonameid":7298623,"name":"Llanbedr","admin3":"00NC027"},{"geonameid":7293625,"name":"Llanbedrog","admin3":"00NC028"},{"geonameid":7298624,"name":"Llanberis","admin3":"00NC029"},{"geonameid":7300643,"name":"Llanddeiniolen","admin3":"00NC030"},{"geonameid":7295212,"name":"Llandderfel","admin3":"00NC031"},{"geonameid":7300644,"name":"Llandwrog","admin3":"00NC032"},{"geonameid":7295213,"name":"Llandygai","admin3":"00NC033"},{"geonameid":7293626,"name":"Llanegryn","admin3":"00NC034"},{"geonameid":7300645,"name":"Llanelltyd","admin3":"00NC035"},{"geonameid":7300646,"name":"Llanengan","admin3":"00NC036"},{"geonameid":7298625,"name":"Llanfair","admin3":"00NC037"},{"geonameid":7298626,"name":"Llanfihangel-y-Pennant","admin3":"00NC038"},{"geonameid":7300647,"name":"Llanfrothen","admin3":"00NC039"},{"geonameid":7295214,"name":"Llangelynin","admin3":"00NC040"},{"geonameid":7300648,"name":"Llangywer","admin3":"00NC041"},{"geonameid":7298627,"name":"Llanllechid","admin3":"00NC042"},{"geonameid":7300649,"name":"Llanllyfni","admin3":"00NC043"},{"geonameid":7298628,"name":"Llannor","admin3":"00NC044"},{"geonameid":7293627,"name":"Llanrug","admin3":"00NC046"},{"geonameid":7295215,"name":"Llanuwchllyn","admin3":"00NC045"},{"geonameid":7300650,"name":"Llanwnda","admin3":"00NC047"},{"geonameid":7300651,"name":"Llanycil","admin3":"00NC048"},{"geonameid":7293628,"name":"Llanystumdwy","admin3":"00NC049"},{"geonameid":7296532,"name":"Maentwrog","admin3":"00NC050"},{"geonameid":7295216,"name":"Mawddwy","admin3":"00NC051"},{"geonameid":7295218,"name":"Nefyn","admin3":"00NC052"},{"geonameid":7300652,"name":"Pennal","admin3":"00NC053"},{"geonameid":7295220,"name":"Penrhyndeudraeth","admin3":"00NC054"},{"geonameid":7295221,"name":"Pentir","admin3":"00NC055"},{"geonameid":7293629,"name":"Pistyll","admin3":"00NC056"},{"geonameid":7298976,"name":"Porthmadog","admin3":"00NC057"},{"geonameid":7298629,"name":"Pwllheli","admin3":"00NC058"},{"geonameid":7298011,"name":"Talsarnau","admin3":"00NC059"},{"geonameid":7290795,"name":"Trawsfynydd","admin3":"00NC060"},{"geonameid":7293630,"name":"Tudweiliog","admin3":"00NC061"},{"geonameid":7300653,"name":"Tywyn","admin3":"00NC062"},{"geonameid":7298631,"name":"Waunfawr","admin3":"00NC063"},{"geonameid":7296533,"name":"Y Felinheli","admin3":"00NC064"}],"alternateNames":[{"alternatenameId":1626654,"geonameid":2634895,"isoLanguage":"en","alternateName":"Wales","isPreferredName":true,"isShortName":true,"isColloquial":false,"isHistoric":false},{"alternatenameId":3058758,"geonameid":2654090,"isoLanguage":"en","alternateName":"Caernarfonshire","isPreferredName":true,"isShortName":true,"isColloquial":false,"isHistoric":false}]},"__N_SSG":true}