{"pageProps":{"locale":"ro","admin2":{"geonameid":8334797,"name":"Comuna Cornu Luncii","country":"RO","admin1":"34","admin2":"147786","admin3":"","latitude":"47.4574300","longitude":"26.1412200"},"admin1":{"geonameid":665849,"name":"Suceava","admin1":"34"},"locations":[{"geonameid":685775,"name":"Băișești","asciiname":"Baisesti","alternatenames":"Baiasesti,Baiaşeşti,Baisesti,Băişeşti","latitude":"47.4802400","longitude":"26.1111500","fclass":"P","fcode":"PPL","country":"RO","cc2":"RO","admin1":"34","admin2":"147786","admin3":"","admin4":"","population":1562,"elevation":0,"gtopo30":398,"timezone":"Europe/Bucharest","moddate":"2013-04-21T00:00:00.000Z"},{"geonameid":683920,"name":"Brăiești","asciiname":"Braiesti","alternatenames":"","latitude":"47.4967300","longitude":"26.0718200","fclass":"P","fcode":"PPL","country":"RO","cc2":"","admin1":"34","admin2":"147786","admin3":"","admin4":"","population":1259,"elevation":0,"gtopo30":417,"timezone":"Europe/Bucharest","moddate":"2013-04-21T00:00:00.000Z"},{"geonameid":680720,"name":"Cornu Luncii","asciiname":"Cornu Luncii","alternatenames":"Cornu Luncii","latitude":"47.4666700","longitude":"26.1500000","fclass":"P","fcode":"PPLA2","country":"RO","cc2":"","admin1":"34","admin2":"147786","admin3":"","admin4":"","population":7288,"elevation":0,"gtopo30":385,"timezone":"Europe/Bucharest","moddate":"2012-06-12T00:00:00.000Z"},{"geonameid":678733,"name":"Dumbrava","asciiname":"Dumbrava","alternatenames":"","latitude":"47.4879000","longitude":"26.1537200","fclass":"P","fcode":"PPL","country":"RO","cc2":"","admin1":"34","admin2":"147786","admin3":"","admin4":"","population":484,"elevation":0,"gtopo30":400,"timezone":"Europe/Bucharest","moddate":"2013-04-21T00:00:00.000Z"},{"geonameid":671489,"name":"Păiseni","asciiname":"Paiseni","alternatenames":"","latitude":"47.4298000","longitude":"26.1097100","fclass":"P","fcode":"PPL","country":"RO","cc2":"","admin1":"34","admin2":"147786","admin3":"","admin4":"","population":725,"elevation":0,"gtopo30":418,"timezone":"Europe/Bucharest","moddate":"2013-04-21T00:00:00.000Z"},{"geonameid":667929,"name":"Sasca Mare","asciiname":"Sasca Mare","alternatenames":"","latitude":"47.4327100","longitude":"26.1416600","fclass":"P","fcode":"PPL","country":"RO","cc2":"","admin1":"34","admin2":"147786","admin3":"","admin4":"","population":639,"elevation":0,"gtopo30":391,"timezone":"Europe/Bucharest","moddate":"2013-04-21T00:00:00.000Z"},{"geonameid":667928,"name":"Sasca Mică","asciiname":"Sasca Mica","alternatenames":"","latitude":"47.4392700","longitude":"26.1788800","fclass":"P","fcode":"PPL","country":"RO","cc2":"","admin1":"34","admin2":"147786","admin3":"","admin4":"","population":908,"elevation":0,"gtopo30":375,"timezone":"Europe/Bucharest","moddate":"2013-04-21T00:00:00.000Z"},{"geonameid":667925,"name":"Sasca Nouă","asciiname":"Sasca Noua","alternatenames":"","latitude":"47.4591500","longitude":"26.1933400","fclass":"P","fcode":"PPL","country":"RO","cc2":"","admin1":"34","admin2":"147786","admin3":"","admin4":"","population":205,"elevation":0,"gtopo30":378,"timezone":"Europe/Bucharest","moddate":"2013-04-21T00:00:00.000Z"},{"geonameid":667084,"name":"Șinca","asciiname":"Sinca","alternatenames":"Sinca,Şinca","latitude":"47.4275700","longitude":"26.1583400","fclass":"P","fcode":"PPL","country":"RO","cc2":"","admin1":"34","admin2":"147786","admin3":"","admin4":"","population":220,"elevation":0,"gtopo30":374,"timezone":"Europe/Bucharest","moddate":"2013-04-21T00:00:00.000Z"}],"admin3":[],"alternateNames":[{"alternatenameId":393492,"geonameid":665849,"isoLanguage":"en","alternateName":"Suceava","isPreferredName":true,"isShortName":true,"isColloquial":false,"isHistoric":false}]},"__N_SSG":true}