{"pageProps":{"locale":"ro","admin2":{"geonameid":669951,"name":"Comuna Pomezeu","country":"RO","admin1":"05","admin2":"30470","admin3":"","latitude":"46.7911300","longitude":"22.3001800"},"admin1":{"geonameid":684878,"name":"Bihor","admin1":"05"},"locations":[{"geonameid":681884,"name":"Câmpani de Pomezeu","asciiname":"Campani de Pomezeu","alternatenames":"Campani,Campani de Pomezeu,Cimpani de Pomezeu,Câmpani,Câmpani de Pomezeu,Cîmpani de Pomezeu","latitude":"46.8000000","longitude":"22.3166700","fclass":"P","fcode":"PPL","country":"RO","cc2":"","admin1":"05","admin2":"30470","admin3":"","admin4":"","population":2608,"elevation":0,"gtopo30":182,"timezone":"Europe/Bucharest","moddate":"2020-03-08T00:00:00.000Z"},{"geonameid":680657,"name":"Coșdeni","asciiname":"Cosdeni","alternatenames":"","latitude":"46.7695400","longitude":"22.2748000","fclass":"P","fcode":"PPL","country":"RO","cc2":"","admin1":"05","admin2":"30470","admin3":"","admin4":"","population":809,"elevation":0,"gtopo30":160,"timezone":"Europe/Bucharest","moddate":"2013-04-21T00:00:00.000Z"},{"geonameid":676209,"name":"Hidiș","asciiname":"Hidis","alternatenames":"","latitude":"46.7781000","longitude":"22.2609900","fclass":"P","fcode":"PPL","country":"RO","cc2":"","admin1":"05","admin2":"30470","admin3":"","admin4":"","population":504,"elevation":0,"gtopo30":148,"timezone":"Europe/Bucharest","moddate":"2013-04-21T00:00:00.000Z"},{"geonameid":675096,"name":"Lacu Sărat","asciiname":"Lacu Sarat","alternatenames":"","latitude":"46.8034200","longitude":"22.3552800","fclass":"P","fcode":"PPL","country":"RO","cc2":"","admin1":"05","admin2":"30470","admin3":"","admin4":"","population":80,"elevation":0,"gtopo30":405,"timezone":"Europe/Bucharest","moddate":"2013-04-21T00:00:00.000Z"},{"geonameid":669952,"name":"Pomezeu","asciiname":"Pomezeu","alternatenames":"Pomezeu","latitude":"46.7833300","longitude":"22.2833300","fclass":"P","fcode":"PPLA2","country":"RO","cc2":"","admin1":"05","admin2":"30470","admin3":"","admin4":"","population":3310,"elevation":0,"gtopo30":145,"timezone":"Europe/Bucharest","moddate":"2012-06-12T00:00:00.000Z"},{"geonameid":666788,"name":"Sitani","asciiname":"Sitani","alternatenames":"","latitude":"46.8131800","longitude":"22.3022900","fclass":"P","fcode":"PPL","country":"RO","cc2":"","admin1":"05","admin2":"30470","admin3":"","admin4":"","population":603,"elevation":0,"gtopo30":153,"timezone":"Europe/Bucharest","moddate":"2013-04-21T00:00:00.000Z"},{"geonameid":666349,"name":"Spinuș de Pomezeu","asciiname":"Spinus de Pomezeu","alternatenames":"","latitude":"46.7872700","longitude":"22.2745000","fclass":"P","fcode":"PPLX","country":"RO","cc2":"","admin1":"05","admin2":"30470","admin3":"","admin4":"","population":319,"elevation":0,"gtopo30":164,"timezone":"Europe/Bucharest","moddate":"2013-04-21T00:00:00.000Z"},{"geonameid":666347,"name":"Spinuş-Pomezeu","asciiname":"Spinus-Pomezeu","alternatenames":"Spinus-Pomezau,Spinus-Pomezeu,Spinuş-Pomezeu,Spinuş-Pomezău","latitude":"46.7833300","longitude":"22.2833300","fclass":"P","fcode":"PPL","country":"RO","cc2":"","admin1":"05","admin2":"30470","admin3":"","admin4":"","population":0,"elevation":0,"gtopo30":145,"timezone":"Europe/Bucharest","moddate":"2016-02-07T00:00:00.000Z"},{"geonameid":663958,"name":"Vălani de Pomezeu","asciiname":"Valani de Pomezeu","alternatenames":"Pomezeu de Valani,Pomezeu de Vălani,Valani,Valani de Pomezeu,Vălani,Vălani de Pomezeu","latitude":"46.7865700","longitude":"22.3250600","fclass":"P","fcode":"PPL","country":"RO","cc2":"RO","admin1":"05","admin2":"30470","admin3":"","admin4":"","population":729,"elevation":0,"gtopo30":198,"timezone":"Europe/Bucharest","moddate":"2013-04-20T00:00:00.000Z"}],"admin3":[],"alternateNames":[]},"__N_SSG":true}