{"pageProps":{"locale":"ro","admin2":{"geonameid":674111,"name":"Oraş Mãgurele","country":"RO","admin1":"43","admin2":"179409","admin3":"","latitude":"44.3392500","longitude":"26.0140300"},"admin1":{"geonameid":865518,"name":"Ilfov","admin1":"43"},"locations":[{"geonameid":686413,"name":"Alunișu","asciiname":"Alunisu","alternatenames":"Alunisu,Alunişu,Filipescu","latitude":"44.3388300","longitude":"26.0583700","fclass":"P","fcode":"PPL","country":"RO","cc2":"RO","admin1":"43","admin2":"179409","admin3":"","admin4":"","population":1245,"elevation":0,"gtopo30":73,"timezone":"Europe/Bucharest","moddate":"2013-04-21T00:00:00.000Z"},{"geonameid":682063,"name":"Chirca","asciiname":"Chirca","alternatenames":"","latitude":"44.3500000","longitude":"26.0000000","fclass":"P","fcode":"PPL","country":"RO","cc2":"","admin1":"43","admin2":"179409","admin3":"","admin4":"","population":0,"elevation":0,"gtopo30":72,"timezone":"Europe/Bucharest","moddate":"2016-02-07T00:00:00.000Z"},{"geonameid":681718,"name":"Ciocârlia","asciiname":"Ciocarlia","alternatenames":"Ciocarlia,Ciocirlia,Ciocârlia,Ciocîrlia,Gherman,Ghermani","latitude":"44.3500000","longitude":"26.0333300","fclass":"P","fcode":"PPLX","country":"RO","cc2":"RO","admin1":"43","admin2":"179409","admin3":"","admin4":"","population":0,"elevation":0,"gtopo30":76,"timezone":"Europe/Bucharest","moddate":"2020-03-08T00:00:00.000Z"},{"geonameid":678658,"name":"Dumitrana","asciiname":"Dumitrana","alternatenames":"","latitude":"44.3229300","longitude":"25.9990100","fclass":"P","fcode":"PPL","country":"RO","cc2":"","admin1":"43","admin2":"179409","admin3":"","admin4":"","population":673,"elevation":0,"gtopo30":70,"timezone":"Europe/Bucharest","moddate":"2013-04-21T00:00:00.000Z"},{"geonameid":674117,"name":"Măgurele","asciiname":"Magurele","alternatenames":"Magurele,Magurelele,Măgurele,Măgurelele,Otelelesanii","latitude":"44.3500000","longitude":"26.0333300","fclass":"P","fcode":"PPLA2","country":"RO","cc2":"","admin1":"43","admin2":"179409","admin3":"","admin4":"","population":9375,"elevation":0,"gtopo30":76,"timezone":"Europe/Bucharest","moddate":"2012-06-12T00:00:00.000Z"},{"geonameid":671595,"name":"Oteteleşanu","asciiname":"Otetelesanu","alternatenames":"","latitude":"44.3500000","longitude":"26.0333300","fclass":"P","fcode":"PPL","country":"RO","cc2":"","admin1":"43","admin2":"179409","admin3":"","admin4":"","population":0,"elevation":0,"gtopo30":76,"timezone":"Europe/Bucharest","moddate":"2016-02-07T00:00:00.000Z"},{"geonameid":669532,"name":"Pruni","asciiname":"Pruni","alternatenames":"","latitude":"44.3300300","longitude":"25.9908500","fclass":"P","fcode":"PPL","country":"RO","cc2":"","admin1":"43","admin2":"179409","admin3":"","admin4":"","population":228,"elevation":0,"gtopo30":71,"timezone":"Europe/Bucharest","moddate":"2013-04-21T00:00:00.000Z"},{"geonameid":662742,"name":"Vârteju","asciiname":"Varteju","alternatenames":"Vartej,Varteju,Vartejul,Vartejul-Nefliu,Virteju,Vârtej,Vârteju,Vârtejul,Vârtejul-Nefliu,Vîrteju","latitude":"44.3560600","longitude":"25.9918300","fclass":"P","fcode":"PPL","country":"RO","cc2":"RO","admin1":"43","admin2":"179409","admin3":"","admin4":"","population":1818,"elevation":0,"gtopo30":80,"timezone":"Europe/Bucharest","moddate":"2013-04-20T00:00:00.000Z"}],"admin3":[],"alternateNames":[{"alternatenameId":8321538,"geonameid":865518,"isoLanguage":"en","alternateName":"Ilfov","isPreferredName":true,"isShortName":true,"isColloquial":false,"isHistoric":false}]},"__N_SSG":true}