{"pageProps":{"locale":"ro","admin2":{"geonameid":677235,"name":"Comuna Gârbou","country":"RO","admin1":"31","admin2":"141232","admin3":"","latitude":"47.1544700","longitude":"23.4352200"},"admin1":{"geonameid":668248,"name":"Sălaj","admin1":"31"},"locations":[{"geonameid":684947,"name":"Bezded","asciiname":"Bezded","alternatenames":"Bezdead,Bezded","latitude":"47.1581800","longitude":"23.4787100","fclass":"P","fcode":"PPL","country":"RO","cc2":"RO","admin1":"31","admin2":"141232","admin3":"","admin4":"","population":302,"elevation":0,"gtopo30":401,"timezone":"Europe/Bucharest","moddate":"2013-04-21T00:00:00.000Z"},{"geonameid":683036,"name":"Călacea","asciiname":"Calacea","alternatenames":"","latitude":"47.1187800","longitude":"23.4491100","fclass":"P","fcode":"PPL","country":"RO","cc2":"","admin1":"31","admin2":"141232","admin3":"","admin4":"","population":478,"elevation":0,"gtopo30":340,"timezone":"Europe/Bucharest","moddate":"2013-04-21T00:00:00.000Z"},{"geonameid":682292,"name":"Cernuc","asciiname":"Cernuc","alternatenames":"","latitude":"47.1352800","longitude":"23.4736500","fclass":"P","fcode":"PPL","country":"RO","cc2":"","admin1":"31","admin2":"141232","admin3":"","admin4":"","population":316,"elevation":0,"gtopo30":348,"timezone":"Europe/Bucharest","moddate":"2013-04-21T00:00:00.000Z"},{"geonameid":678515,"name":"Fabrica","asciiname":"Fabrica","alternatenames":"Fabrica,Fabrica de Zahar","latitude":"47.2002600","longitude":"23.3952300","fclass":"P","fcode":"PPL","country":"RO","cc2":"RO","admin1":"31","admin2":"141232","admin3":"","admin4":"","population":101,"elevation":0,"gtopo30":278,"timezone":"Europe/Bucharest","moddate":"2013-04-21T00:00:00.000Z"},{"geonameid":677237,"name":"Gârbou","asciiname":"Garbou","alternatenames":"Garbou,Girbou,Gârbou,Gîrbou","latitude":"47.1500000","longitude":"23.4333300","fclass":"P","fcode":"PPLA2","country":"RO","cc2":"","admin1":"31","admin2":"141232","admin3":"","admin4":"","population":2402,"elevation":0,"gtopo30":354,"timezone":"Europe/Bucharest","moddate":"2012-06-12T00:00:00.000Z"},{"geonameid":671180,"name":"Pe Deal","asciiname":"Pe Deal","alternatenames":"","latitude":"47.1333300","longitude":"23.4166700","fclass":"P","fcode":"PPLX","country":"RO","cc2":"","admin1":"31","admin2":"141232","admin3":"","admin4":"","population":0,"elevation":0,"gtopo30":329,"timezone":"Europe/Bucharest","moddate":"2016-02-07T00:00:00.000Z"},{"geonameid":670030,"name":"Poiana Spinului","asciiname":"Poiana Spinului","alternatenames":"","latitude":"47.1166700","longitude":"23.4500000","fclass":"P","fcode":"PPLX","country":"RO","cc2":"","admin1":"31","admin2":"141232","admin3":"","admin4":"","population":0,"elevation":0,"gtopo30":343,"timezone":"Europe/Bucharest","moddate":"2016-02-07T00:00:00.000Z"},{"geonameid":669845,"name":"Popteleac","asciiname":"Popteleac","alternatenames":"","latitude":"47.1346000","longitude":"23.4141900","fclass":"P","fcode":"PPL","country":"RO","cc2":"","admin1":"31","admin2":"141232","admin3":"","admin4":"","population":439,"elevation":0,"gtopo30":322,"timezone":"Europe/Bucharest","moddate":"2013-04-21T00:00:00.000Z"},{"geonameid":668326,"name":"Săcătura","asciiname":"Sacatura","alternatenames":"","latitude":"47.1333300","longitude":"23.4166700","fclass":"P","fcode":"PPLX","country":"RO","cc2":"","admin1":"31","admin2":"141232","admin3":"","admin4":"","population":0,"elevation":0,"gtopo30":329,"timezone":"Europe/Bucharest","moddate":"2016-02-07T00:00:00.000Z"},{"geonameid":666493,"name":"Solomon","asciiname":"Solomon","alternatenames":"","latitude":"47.1736000","longitude":"23.4181100","fclass":"P","fcode":"PPL","country":"RO","cc2":"","admin1":"31","admin2":"141232","admin3":"","admin4":"","population":536,"elevation":0,"gtopo30":305,"timezone":"Europe/Bucharest","moddate":"2013-04-21T00:00:00.000Z"}],"admin3":[],"alternateNames":[]},"__N_SSG":true}