{"pageProps":{"locale":"ro","admin2":{"geonameid":673720,"name":"Comuna Mărunţei","country":"RO","admin1":"29","admin2":"127493","admin3":"","latitude":"44.2367900","longitude":"24.4658300"},"admin1":{"geonameid":671857,"name":"Olt","admin1":"29"},"locations":[{"geonameid":685696,"name":"Bălănești","asciiname":"Balanesti","alternatenames":"","latitude":"44.2497000","longitude":"24.4821600","fclass":"P","fcode":"PPL","country":"RO","cc2":"","admin1":"29","admin2":"127493","admin3":"","admin4":"","population":1588,"elevation":0,"gtopo30":99,"timezone":"Europe/Bucharest","moddate":"2013-04-21T00:00:00.000Z"},{"geonameid":677275,"name":"Gâldaele","asciiname":"Galdaele","alternatenames":"Galdaele,Gildaele,Gildele,Gâldaele,Gîldaele,Gîldele","latitude":"44.2166700","longitude":"24.4666700","fclass":"P","fcode":"PPL","country":"RO","cc2":"RO","admin1":"29","admin2":"127493","admin3":"","admin4":"","population":0,"elevation":0,"gtopo30":84,"timezone":"Europe/Bucharest","moddate":"2020-03-08T00:00:00.000Z"},{"geonameid":677284,"name":"Gigârtu","asciiname":"Gigartu","alternatenames":"Gigartu,Gigartul,Gigirtu,Gigârtu,Gigârtul,Gigîrtu","latitude":"44.2166700","longitude":"24.4500000","fclass":"P","fcode":"PPL","country":"RO","cc2":"RO","admin1":"29","admin2":"127493","admin3":"","admin4":"","population":0,"elevation":0,"gtopo30":83,"timezone":"Europe/Bucharest","moddate":"2020-03-08T00:00:00.000Z"},{"geonameid":673969,"name":"Malu Roșu","asciiname":"Malu Rosu","alternatenames":"Malu Rosu,Malu Roşu,Malul Rosu,Malul Roşu","latitude":"44.2460900","longitude":"24.4450700","fclass":"P","fcode":"PPL","country":"RO","cc2":"RO","admin1":"29","admin2":"127493","admin3":"","admin4":"","population":186,"elevation":0,"gtopo30":97,"timezone":"Europe/Bucharest","moddate":"2013-04-21T00:00:00.000Z"},{"geonameid":673723,"name":"Mărunţei","asciiname":"Maruntei","alternatenames":"","latitude":"44.2000000","longitude":"24.4666700","fclass":"P","fcode":"PPLA2","country":"RO","cc2":"","admin1":"29","admin2":"127493","admin3":"","admin4":"","population":4397,"elevation":0,"gtopo30":82,"timezone":"Europe/Bucharest","moddate":"2012-06-12T00:00:00.000Z"},{"geonameid":662930,"name":"Viişoara","asciiname":"Viisoara","alternatenames":"","latitude":"44.2333300","longitude":"24.4666700","fclass":"P","fcode":"PPL","country":"RO","cc2":"","admin1":"29","admin2":"127493","admin3":"","admin4":"","population":0,"elevation":0,"gtopo30":107,"timezone":"Europe/Bucharest","moddate":"2016-02-07T00:00:00.000Z"}],"admin3":[],"alternateNames":[]},"__N_SSG":true}