{"pageProps":{"locale":"ro","admin2":{"geonameid":667769,"name":"Comuna Şăulia","country":"RO","admin1":"27","admin2":"119750","admin3":"","latitude":"46.6333100","longitude":"24.2094800"},"admin1":{"geonameid":672628,"name":"Mureş","admin1":"27"},"locations":[{"geonameid":674875,"name":"Leorința-Șăulia","asciiname":"Leorinta-Saulia","alternatenames":"","latitude":"46.6189700","longitude":"24.2122100","fclass":"P","fcode":"PPL","country":"RO","cc2":"","admin1":"27","admin2":"119750","admin3":"","admin4":"","population":162,"elevation":0,"gtopo30":429,"timezone":"Europe/Bucharest","moddate":"2013-04-21T00:00:00.000Z"},{"geonameid":674232,"name":"Măcicășești","asciiname":"Macicasesti","alternatenames":"","latitude":"46.6395900","longitude":"24.2358600","fclass":"P","fcode":"PPL","country":"RO","cc2":"","admin1":"27","admin2":"119750","admin3":"","admin4":"","population":154,"elevation":0,"gtopo30":324,"timezone":"Europe/Bucharest","moddate":"2013-04-21T00:00:00.000Z"},{"geonameid":671546,"name":"Pădurea","asciiname":"Padurea","alternatenames":"","latitude":"46.6329800","longitude":"24.1773100","fclass":"P","fcode":"PPL","country":"RO","cc2":"","admin1":"27","admin2":"119750","admin3":"","admin4":"","population":144,"elevation":0,"gtopo30":370,"timezone":"Europe/Bucharest","moddate":"2013-04-21T00:00:00.000Z"},{"geonameid":667771,"name":"Şăulia","asciiname":"Saulia","alternatenames":"Saulia,Şăulia","latitude":"46.6333300","longitude":"24.2166700","fclass":"P","fcode":"PPLA2","country":"RO","cc2":"","admin1":"27","admin2":"119750","admin3":"","admin4":"","population":2083,"elevation":0,"gtopo30":370,"timezone":"Europe/Bucharest","moddate":"2012-06-12T00:00:00.000Z"}],"admin3":[],"alternateNames":[]},"__N_SSG":true}