{"pageProps":{"locale":"en","admin2":{"geonameid":2641235,"name":"Northumberland","country":"GB","admin1":"ENG","admin2":"J6","admin3":"","latitude":"55.2500000","longitude":"-2.0000000"},"admin1":{"geonameid":6269131,"name":"England","admin1":"ENG","localeAltName":"England"},"locations":[{"geonameid":2657705,"name":"Acklington","asciiname":"Acklington","alternatenames":"Acklington","latitude":"55.3000000","longitude":"-1.6333300","fclass":"P","fcode":"PPLA3","country":"GB","cc2":"","admin1":"ENG","admin2":"J6","admin3":"00EM001","admin4":"","population":0,"elevation":0,"gtopo30":33,"timezone":"Europe/London","moddate":"2011-07-31T00:00:00.000Z"},{"geonameid":2657700,"name":"Acomb","asciiname":"Acomb","alternatenames":"","latitude":"54.9922900","longitude":"-2.1122900","fclass":"P","fcode":"PPLA3","country":"GB","cc2":"","admin1":"ENG","admin2":"J6","admin3":"00EM002","admin4":"","population":1106,"elevation":0,"gtopo30":63,"timezone":"Europe/London","moddate":"2017-06-12T00:00:00.000Z"},{"geonameid":2657579,"name":"Akeld","asciiname":"Akeld","alternatenames":"Akeld","latitude":"55.5606900","longitude":"-2.0687800","fclass":"P","fcode":"PPL","country":"GB","cc2":"","admin1":"ENG","admin2":"J6","admin3":"00EM004","admin4":"","population":0,"elevation":0,"gtopo30":56,"timezone":"Europe/London","moddate":"2011-03-03T00:00:00.000Z"},{"geonameid":2657487,"name":"Allendale Town","asciiname":"Allendale Town","alternatenames":"","latitude":"54.8973200","longitude":"-2.2565300","fclass":"P","fcode":"PPL","country":"GB","cc2":"","admin1":"ENG","admin2":"J6","admin3":"00EM005","admin4":"","population":709,"elevation":0,"gtopo30":237,"timezone":"Europe/London","moddate":"2017-06-12T00:00:00.000Z"},{"geonameid":2657486,"name":"Allenheads","asciiname":"Allenheads","alternatenames":"","latitude":"54.8021100","longitude":"-2.2196200","fclass":"P","fcode":"PPL","country":"GB","cc2":"","admin1":"ENG","admin2":"J6","admin3":"00EM005","admin4":"","population":0,"elevation":0,"gtopo30":414,"timezone":"Europe/London","moddate":"2011-03-03T00:00:00.000Z"},{"geonameid":2657483,"name":"Allerdean","asciiname":"Allerdean","alternatenames":"","latitude":"55.7121900","longitude":"-2.0564700","fclass":"P","fcode":"PPL","country":"GB","cc2":"","admin1":"ENG","admin2":"J6","admin3":"00EM011","admin4":"","population":0,"elevation":0,"gtopo30":83,"timezone":"Europe/London","moddate":"2011-03-03T00:00:00.000Z"},{"geonameid":2657442,"name":"Alnham","asciiname":"Alnham","alternatenames":"Alnham","latitude":"55.3919700","longitude":"-2.0083400","fclass":"P","fcode":"PPL","country":"GB","cc2":"","admin1":"ENG","admin2":"J6","admin3":"00EM006","admin4":"","population":0,"elevation":0,"gtopo30":145,"timezone":"Europe/London","moddate":"2011-03-03T00:00:00.000Z"},{"geonameid":2657441,"name":"Alnmouth","asciiname":"Alnmouth","alternatenames":"Alnmouth","latitude":"55.4000000","longitude":"-1.6000000","fclass":"P","fcode":"PPLA3","country":"GB","cc2":"","admin1":"ENG","admin2":"J6","admin3":"00EM007","admin4":"","population":0,"elevation":0,"gtopo30":22,"timezone":"Europe/London","moddate":"2011-07-31T00:00:00.000Z"},{"geonameid":2657438,"name":"Alnwick","asciiname":"Alnwick","alternatenames":"Alnik,Alnwic,Alnwick,alnwyk,anikku,aynk,Алник,آلنویک,ألنويك,اینک,アニック","latitude":"55.4131800","longitude":"-1.7056300","fclass":"P","fcode":"PPL","country":"GB","cc2":"","admin1":"ENG","admin2":"J6","admin3":"00EM008","admin4":"","population":8116,"elevation":0,"gtopo30":62,"timezone":"Europe/London","moddate":"2020-05-14T00:00:00.000Z"},{"geonameid":2657376,"name":"Alwinton","asciiname":"Alwinton","alternatenames":"Alwinton","latitude":"55.3505700","longitude":"-2.1256600","fclass":"P","fcode":"PPL","country":"GB","cc2":"","admin1":"ENG","admin2":"J6","admin3":"00EM009","admin4":"","population":0,"elevation":0,"gtopo30":160,"timezone":"Europe/London","moddate":"2011-03-03T00:00:00.000Z"},{"geonameid":2657362,"name":"Amble","asciiname":"Amble","alternatenames":"Amble,Amble by the Sea,امبل، نورث‌آمبرلند","latitude":"55.3333300","longitude":"-1.5833300","fclass":"P","fcode":"PPL","country":"GB","cc2":"","admin1":"ENG","admin2":"J6","admin3":"00EM010","admin4":"","population":6025,"elevation":0,"gtopo30":8,"timezone":"Europe/London","moddate":"2017-06-12T00:00:00.000Z"},{"geonameid":2657328,"name":"Ancroft","asciiname":"Ancroft","alternatenames":"","latitude":"55.7000000","longitude":"-2.0000000","fclass":"P","fcode":"PPLA3","country":"GB","cc2":"","admin1":"ENG","admin2":"J6","admin3":"00EM011","admin4":"","population":0,"elevation":0,"gtopo30":30,"timezone":"Europe/London","moddate":"2011-07-31T00:00:00.000Z"},{"geonameid":2656946,"name":"Ashington","asciiname":"Ashington","alternatenames":"Ashington,ashyngtwn,اشینگتون","latitude":"55.1771900","longitude":"-1.5641200","fclass":"P","fcode":"PPLA3","country":"GB","cc2":"","admin1":"ENG","admin2":"J6","admin3":"00EM012","admin4":"","population":27670,"elevation":0,"gtopo30":32,"timezone":"Europe/London","moddate":"2017-06-13T00:00:00.000Z"},{"geonameid":2656722,"name":"Aydon","asciiname":"Aydon","alternatenames":"Aydon","latitude":"54.9886800","longitude":"-1.9887200","fclass":"P","fcode":"PPL","country":"GB","cc2":"","admin1":"ENG","admin2":"J6","admin3":"00EM039","admin4":"","population":0,"elevation":0,"gtopo30":146,"timezone":"Europe/London","moddate":"2011-03-03T00:00:00.000Z"},{"geonameid":2656721,"name":"Ayle","asciiname":"Ayle","alternatenames":"Ayle","latitude":"54.8387900","longitude":"-2.4426200","fclass":"P","fcode":"PPL","country":"GB","cc2":"","admin1":"ENG","admin2":"J6","admin3":"00EM094","admin4":"","population":0,"elevation":0,"gtopo30":335,"timezone":"Europe/London","moddate":"2011-03-03T00:00:00.000Z"},{"geonameid":2656672,"name":"Backworth","asciiname":"Backworth","alternatenames":"","latitude":"55.0422900","longitude":"-1.5277900","fclass":"P","fcode":"PPL","country":"GB","cc2":"","admin1":"ENG","admin2":"J6","admin3":"","admin4":"","population":1399,"elevation":0,"gtopo30":59,"timezone":"Europe/London","moddate":"2017-06-12T00:00:00.000Z"},{"geonameid":2656425,"name":"Bamburgh","asciiname":"Bamburgh","alternatenames":"Bamburgh,Bamburgo,Dun Guaire,Dún Guaire","latitude":"55.6065200","longitude":"-1.7170400","fclass":"P","fcode":"PPLA3","country":"GB","cc2":"","admin1":"ENG","admin2":"J6","admin3":"00EM013","admin4":"","population":279,"elevation":0,"gtopo30":26,"timezone":"Europe/London","moddate":"2017-06-12T00:00:00.000Z"},{"geonameid":2656357,"name":"Bardon Mill","asciiname":"Bardon Mill","alternatenames":"Bardon Mill","latitude":"54.9754700","longitude":"-2.3430900","fclass":"P","fcode":"PPLA3","country":"GB","cc2":"","admin1":"ENG","admin2":"J6","admin3":"00EM014","admin4":"","population":0,"elevation":0,"gtopo30":100,"timezone":"Europe/London","moddate":"2011-07-31T00:00:00.000Z"},{"geonameid":2656262,"name":"Barrasford","asciiname":"Barrasford","alternatenames":"","latitude":"55.0551000","longitude":"-2.1341200","fclass":"P","fcode":"PPL","country":"GB","cc2":"","admin1":"ENG","admin2":"J6","admin3":"00EM037","admin4":"","population":0,"elevation":0,"gtopo30":87,"timezone":"Europe/London","moddate":"2011-03-03T00:00:00.000Z"},{"geonameid":2656119,"name":"Beadnell","asciiname":"Beadnell","alternatenames":"","latitude":"55.5567000","longitude":"-1.6325000","fclass":"P","fcode":"PPLA3","country":"GB","cc2":"","admin1":"ENG","admin2":"J6","admin3":"00EM016","admin4":"","population":408,"elevation":0,"gtopo30":8,"timezone":"Europe/London","moddate":"2017-06-12T00:00:00.000Z"},{"geonameid":2656103,"name":"Beal","asciiname":"Beal","alternatenames":"","latitude":"55.6720700","longitude":"-1.9164300","fclass":"P","fcode":"PPL","country":"GB","cc2":"","admin1":"ENG","admin2":"J6","admin3":"00EM095","admin4":"","population":0,"elevation":0,"gtopo30":23,"timezone":"Europe/London","moddate":"2011-08-25T00:00:00.000Z"},{"geonameid":2656096,"name":"Beanley","asciiname":"Beanley","alternatenames":"Beanley","latitude":"55.4586600","longitude":"-1.8731500","fclass":"P","fcode":"PPL","country":"GB","cc2":"","admin1":"ENG","admin2":"J6","admin3":"00EM074","admin4":"","population":0,"elevation":0,"gtopo30":113,"timezone":"Europe/London","moddate":"2011-03-03T00:00:00.000Z"},{"geonameid":2656068,"name":"Bebside","asciiname":"Bebside","alternatenames":"Bebside","latitude":"55.1294300","longitude":"-1.5578300","fclass":"P","fcode":"PPL","country":"GB","cc2":"","admin1":"ENG","admin2":"J6","admin3":"00EM165","admin4":"","population":0,"elevation":0,"gtopo30":19,"timezone":"Europe/London","moddate":"2016-06-22T00:00:00.000Z"},{"geonameid":2656039,"name":"Bedlington","asciiname":"Bedlington","alternatenames":"wst bdlyngtwn,وست بدلینگتون","latitude":"55.1306100","longitude":"-1.5931900","fclass":"P","fcode":"PPL","country":"GB","cc2":"","admin1":"ENG","admin2":"J6","admin3":"00EM156","admin4":"","population":16974,"elevation":0,"gtopo30":49,"timezone":"Europe/London","moddate":"2017-06-12T00:00:00.000Z"},{"geonameid":2655981,"name":"Belford","asciiname":"Belford","alternatenames":"Belford","latitude":"55.6000000","longitude":"-1.8333300","fclass":"P","fcode":"PPLA3","country":"GB","cc2":"","admin1":"ENG","admin2":"J6","admin3":"00EM017","admin4":"","population":1258,"elevation":0,"gtopo30":56,"timezone":"Europe/London","moddate":"2017-06-12T00:00:00.000Z"},{"geonameid":2655958,"name":"Bellingham","asciiname":"Bellingham","alternatenames":"Bellingham","latitude":"55.1446400","longitude":"-2.2538300","fclass":"P","fcode":"PPL","country":"GB","cc2":"","admin1":"ENG","admin2":"J6","admin3":"00EM018","admin4":"","population":1070,"elevation":0,"gtopo30":123,"timezone":"Europe/London","moddate":"2017-06-12T00:00:00.000Z"},{"geonameid":2655941,"name":"Belsay","asciiname":"Belsay","alternatenames":"Belsay","latitude":"55.1046400","longitude":"-1.8846200","fclass":"P","fcode":"PPL","country":"GB","cc2":"","admin1":"ENG","admin2":"J6","admin3":"00EM019","admin4":"","population":0,"elevation":0,"gtopo30":150,"timezone":"Europe/London","moddate":"2011-03-03T00:00:00.000Z"},{"geonameid":2655823,"name":"Berwick Hill","asciiname":"Berwick Hill","alternatenames":"Berwick Hill","latitude":"55.0740400","longitude":"-1.7306900","fclass":"P","fcode":"PPL","country":"GB","cc2":"","admin1":"ENG","admin2":"J6","admin3":"00EM127","admin4":"","population":0,"elevation":0,"gtopo30":85,"timezone":"Europe/London","moddate":"2016-06-22T00:00:00.000Z"},{"geonameid":2655819,"name":"Berwick-Upon-Tweed","asciiname":"Berwick-Upon-Tweed","alternatenames":"Bervik-apon-Tvid,Berwick,Berwick on Tweed,Berwick-Upon-Tweed,Berwick-upon-Tweed,Бервик-апон-Твид","latitude":"55.7686800","longitude":"-2.0053700","fclass":"P","fcode":"PPL","country":"GB","cc2":"","admin1":"ENG","admin2":"J6","admin3":"00EM020","admin4":"","population":13265,"elevation":0,"gtopo30":1,"timezone":"Europe/London","moddate":"2019-09-27T00:00:00.000Z"},{"geonameid":6941088,"name":"Bingfield","asciiname":"Bingfield","alternatenames":"","latitude":"55.0474000","longitude":"-2.0351700","fclass":"P","fcode":"PPL","country":"GB","cc2":"","admin1":"ENG","admin2":"J6","admin3":"00EM159","admin4":"","population":0,"elevation":0,"gtopo30":157,"timezone":"Europe/London","moddate":"2016-06-22T00:00:00.000Z"},{"geonameid":2655588,"name":"Birtley","asciiname":"Birtley","alternatenames":"","latitude":"55.0833300","longitude":"-2.1833300","fclass":"P","fcode":"PPLA3","country":"GB","cc2":"","admin1":"ENG","admin2":"J6","admin3":"00EM023","admin4":"","population":0,"elevation":0,"gtopo30":168,"timezone":"Europe/London","moddate":"2011-07-31T00:00:00.000Z"},{"geonameid":2655379,"name":"Blanchland","asciiname":"Blanchland","alternatenames":"","latitude":"54.8479400","longitude":"-2.0549400","fclass":"P","fcode":"PPL","country":"GB","cc2":"","admin1":"ENG","admin2":"J6","admin3":"00EM024","admin4":"","population":0,"elevation":0,"gtopo30":244,"timezone":"Europe/London","moddate":"2011-03-03T00:00:00.000Z"},{"geonameid":2655315,"name":"Blyth","asciiname":"Blyth","alternatenames":"Blit,Blyth,Blyth i Northumberland,Blythe,Блит,بلایث، نورث‌آمبرلند","latitude":"55.1270800","longitude":"-1.5085600","fclass":"P","fcode":"PPLA3","country":"GB","cc2":"","admin1":"ENG","admin2":"J6","admin3":"00EM165","admin4":"","population":37339,"elevation":0,"gtopo30":5,"timezone":"Europe/London","moddate":"2017-06-12T00:00:00.000Z"},{"geonameid":2655251,"name":"Bolam","asciiname":"Bolam","alternatenames":"Bolam","latitude":"55.1166700","longitude":"-1.8500000","fclass":"P","fcode":"PPL","country":"GB","cc2":"","admin1":"ENG","admin2":"J6","admin3":"00EM019","admin4":"","population":0,"elevation":0,"gtopo30":110,"timezone":"Europe/London","moddate":"2016-06-22T00:00:00.000Z"},{"geonameid":2655133,"name":"Bothal","asciiname":"Bothal","alternatenames":"Bothal","latitude":"55.1734000","longitude":"-1.6255200","fclass":"P","fcode":"PPL","country":"GB","cc2":"","admin1":"ENG","admin2":"J6","admin3":"00EM012","admin4":"","population":0,"elevation":0,"gtopo30":16,"timezone":"Europe/London","moddate":"2011-03-03T00:00:00.000Z"},{"geonameid":2655108,"name":"Boulmer","asciiname":"Boulmer","alternatenames":"","latitude":"55.4197400","longitude":"-1.5822800","fclass":"P","fcode":"PPL","country":"GB","cc2":"","admin1":"ENG","admin2":"J6","admin3":"00EM101","admin4":"","population":0,"elevation":0,"gtopo30":5,"timezone":"Europe/London","moddate":"2011-03-03T00:00:00.000Z"},{"geonameid":2655048,"name":"Bowsden","asciiname":"Bowsden","alternatenames":"Bowsden","latitude":"55.6694300","longitude":"-2.0119000","fclass":"P","fcode":"PPL","country":"GB","cc2":"","admin1":"ENG","admin2":"J6","admin3":"00EM025","admin4":"","population":0,"elevation":0,"gtopo30":73,"timezone":"Europe/London","moddate":"2011-03-03T00:00:00.000Z"},{"geonameid":2654873,"name":"Branxton","asciiname":"Branxton","alternatenames":"Branxton","latitude":"55.6322100","longitude":"-2.1686500","fclass":"P","fcode":"PPL","country":"GB","cc2":"","admin1":"ENG","admin2":"J6","admin3":"00EM026","admin4":"","population":0,"elevation":0,"gtopo30":67,"timezone":"Europe/London","moddate":"2011-03-03T00:00:00.000Z"},{"geonameid":2654548,"name":"Broomhill","asciiname":"Broomhill","alternatenames":"","latitude":"55.2932400","longitude":"-1.6016900","fclass":"P","fcode":"PPL","country":"GB","cc2":"","admin1":"ENG","admin2":"J6","admin3":"00EM050","admin4":"","population":0,"elevation":0,"gtopo30":16,"timezone":"Europe/London","moddate":"2016-06-22T00:00:00.000Z"},{"geonameid":6957013,"name":"Butteryhaugh","asciiname":"Butteryhaugh","alternatenames":"","latitude":"55.2306300","longitude":"-2.5798300","fclass":"P","fcode":"PPL","country":"GB","cc2":"","admin1":"ENG","admin2":"J6","admin3":"00EM090","admin4":"","population":100,"elevation":200,"gtopo30":190,"timezone":"Europe/London","moddate":"2016-06-22T00:00:00.000Z"},{"geonameid":2654127,"name":"Byrness","asciiname":"Byrness","alternatenames":"","latitude":"55.3181600","longitude":"-2.3734200","fclass":"P","fcode":"PPL","country":"GB","cc2":"","admin1":"ENG","admin2":"J6","admin3":"00EM130","admin4":"","population":0,"elevation":0,"gtopo30":221,"timezone":"Europe/London","moddate":"2011-03-03T00:00:00.000Z"},{"geonameid":2653991,"name":"Callaly","asciiname":"Callaly","alternatenames":"Callaly","latitude":"55.3793600","longitude":"-1.9187000","fclass":"P","fcode":"PPL","country":"GB","cc2":"","admin1":"ENG","admin2":"J6","admin3":"00EM031","admin4":"","population":0,"elevation":0,"gtopo30":131,"timezone":"Europe/London","moddate":"2011-03-03T00:00:00.000Z"},{"geonameid":2653946,"name":"Cambois","asciiname":"Cambois","alternatenames":"","latitude":"55.1518400","longitude":"-1.5242000","fclass":"P","fcode":"PPL","country":"GB","cc2":"","admin1":"ENG","admin2":"J6","admin3":"00EM049","admin4":"","population":0,"elevation":0,"gtopo30":8,"timezone":"Europe/London","moddate":"2011-03-03T00:00:00.000Z"},{"geonameid":2653840,"name":"Capheaton","asciiname":"Capheaton","alternatenames":"","latitude":"55.1173500","longitude":"-1.9476100","fclass":"P","fcode":"PPL","country":"GB","cc2":"","admin1":"ENG","admin2":"J6","admin3":"00EM032","admin4":"","population":0,"elevation":0,"gtopo30":192,"timezone":"Europe/London","moddate":"2011-03-03T00:00:00.000Z"},{"geonameid":2653793,"name":"Carham","asciiname":"Carham","alternatenames":"","latitude":"55.6383700","longitude":"-2.3215000","fclass":"P","fcode":"PPL","country":"GB","cc2":"","admin1":"ENG","admin2":"J6","admin3":"00EM033","admin4":"","population":0,"elevation":0,"gtopo30":29,"timezone":"Europe/London","moddate":"2011-03-03T00:00:00.000Z"},{"geonameid":2653522,"name":"Catcleugh","asciiname":"Catcleugh","alternatenames":"Catcleuch,Catcleugh","latitude":"55.3234700","longitude":"-2.4001000","fclass":"P","fcode":"PPL","country":"GB","cc2":"","admin1":"ENG","admin2":"J6","admin3":"00EM130","admin4":"","population":0,"elevation":0,"gtopo30":254,"timezone":"Europe/London","moddate":"2011-03-03T00:00:00.000Z"},{"geonameid":2653491,"name":"Catton","asciiname":"Catton","alternatenames":"Catton","latitude":"54.9140900","longitude":"-2.2708200","fclass":"P","fcode":"PPL","country":"GB","cc2":"","admin1":"ENG","admin2":"J6","admin3":"00EM005","admin4":"","population":0,"elevation":0,"gtopo30":226,"timezone":"Europe/London","moddate":"2015-07-18T00:00:00.000Z"},{"geonameid":8223946,"name":"Chathill","asciiname":"Chathill","alternatenames":"","latitude":"55.5338500","longitude":"-1.7092300","fclass":"P","fcode":"PPL","country":"GB","cc2":"","admin1":"ENG","admin2":"J6","admin3":"00EM053","admin4":"","population":0,"elevation":0,"gtopo30":38,"timezone":"Europe/London","moddate":"2015-01-01T00:00:00.000Z"},{"geonameid":2653295,"name":"Chatton","asciiname":"Chatton","alternatenames":"Chatton","latitude":"55.5489700","longitude":"-1.9120100","fclass":"P","fcode":"PPL","country":"GB","cc2":"","admin1":"ENG","admin2":"J6","admin3":"00EM035","admin4":"","population":0,"elevation":0,"gtopo30":58,"timezone":"Europe/London","moddate":"2011-03-03T00:00:00.000Z"},{"geonameid":2653222,"name":"Chesters","asciiname":"Chesters","alternatenames":"","latitude":"55.0166700","longitude":"-2.1500000","fclass":"P","fcode":"PPL","country":"GB","cc2":"","admin1":"ENG","admin2":"J6","admin3":"00EM152","admin4":"","population":0,"elevation":0,"gtopo30":68,"timezone":"Europe/London","moddate":"2016-06-22T00:00:00.000Z"},{"geonameid":2653213,"name":"Cheswick","asciiname":"Cheswick","alternatenames":"Cheswick","latitude":"55.7113900","longitude":"-1.9520700","fclass":"P","fcode":"PPL","country":"GB","cc2":"","admin1":"ENG","admin2":"J6","admin3":"00EM011","admin4":"","population":0,"elevation":0,"gtopo30":27,"timezone":"Europe/London","moddate":"2011-03-03T00:00:00.000Z"},{"geonameid":2653162,"name":"Chillingham","asciiname":"Chillingham","alternatenames":"Chillingham","latitude":"55.5277700","longitude":"-1.9058300","fclass":"P","fcode":"PPL","country":"GB","cc2":"","admin1":"ENG","admin2":"J6","admin3":"00EM036","admin4":"","population":0,"elevation":0,"gtopo30":74,"timezone":"Europe/London","moddate":"2011-03-03T00:00:00.000Z"},{"geonameid":2653098,"name":"Chollerford","asciiname":"Chollerford","alternatenames":"Chollerford","latitude":"55.0299000","longitude":"-2.1280900","fclass":"P","fcode":"PPL","country":"GB","cc2":"","admin1":"ENG","admin2":"J6","admin3":"00EM087","admin4":"","population":0,"elevation":0,"gtopo30":61,"timezone":"Europe/London","moddate":"2011-03-03T00:00:00.000Z"},{"geonameid":2653097,"name":"Chollerton","asciiname":"Chollerton","alternatenames":"Challerton,Chollerton","latitude":"55.0412900","longitude":"-2.1096600","fclass":"P","fcode":"PPL","country":"GB","cc2":"","admin1":"ENG","admin2":"J6","admin3":"00EM037","admin4":"","population":0,"elevation":0,"gtopo30":80,"timezone":"Europe/London","moddate":"2011-03-03T00:00:00.000Z"},{"geonameid":2653089,"name":"Choppington","asciiname":"Choppington","alternatenames":"Choppington","latitude":"55.1500400","longitude":"-1.6033200","fclass":"P","fcode":"PPL","country":"GB","cc2":"","admin1":"ENG","admin2":"J6","admin3":"00EM118","admin4":"","population":3001,"elevation":0,"gtopo30":28,"timezone":"Europe/London","moddate":"2016-06-22T00:00:00.000Z"},{"geonameid":2652706,"name":"Coalcleugh","asciiname":"Coalcleugh","alternatenames":"Coalcleugh","latitude":"54.7976200","longitude":"-2.3079900","fclass":"P","fcode":"PPL","country":"GB","cc2":"","admin1":"ENG","admin2":"J6","admin3":"00EM155","admin4":"","population":0,"elevation":0,"gtopo30":575,"timezone":"Europe/London","moddate":"2016-06-22T00:00:00.000Z"},{"geonameid":2652697,"name":"Coanwood","asciiname":"Coanwood","alternatenames":"Coanwood","latitude":"54.9265000","longitude":"-2.4996300","fclass":"P","fcode":"PPL","country":"GB","cc2":"","admin1":"ENG","admin2":"J6","admin3":"00EM038","admin4":"","population":0,"elevation":0,"gtopo30":201,"timezone":"Europe/London","moddate":"2011-03-03T00:00:00.000Z"},{"geonameid":2652517,"name":"Colwell","asciiname":"Colwell","alternatenames":"Colwell","latitude":"55.0666700","longitude":"-2.0666700","fclass":"P","fcode":"PPL","country":"GB","cc2":"","admin1":"ENG","admin2":"J6","admin3":"00EM037","admin4":"","population":0,"elevation":0,"gtopo30":143,"timezone":"Europe/London","moddate":"2016-06-22T00:00:00.000Z"},{"geonameid":2652382,"name":"Corbridge","asciiname":"Corbridge","alternatenames":"Corbridge,kwrbryj,کوربریج","latitude":"54.9736500","longitude":"-2.0179800","fclass":"P","fcode":"PPL","country":"GB","cc2":"","admin1":"ENG","admin2":"J6","admin3":"00EM039","admin4":"","population":2946,"elevation":0,"gtopo30":38,"timezone":"Europe/London","moddate":"2017-06-12T00:00:00.000Z"},{"geonameid":6619987,"name":"Cornhill on Tweed","asciiname":"Cornhill on Tweed","alternatenames":"","latitude":"55.6452400","longitude":"-2.2226700","fclass":"P","fcode":"PPL","country":"GB","cc2":"","admin1":"ENG","admin2":"J6","admin3":"00EM040","admin4":"","population":347,"elevation":0,"gtopo30":29,"timezone":"Europe/London","moddate":"2017-06-12T00:00:00.000Z"},{"geonameid":2652320,"name":"Corsenside","asciiname":"Corsenside","alternatenames":"","latitude":"55.1833300","longitude":"-2.1666700","fclass":"P","fcode":"PPLA3","country":"GB","cc2":"","admin1":"ENG","admin2":"J6","admin3":"00EM041","admin4":"","population":0,"elevation":0,"gtopo30":152,"timezone":"Europe/London","moddate":"2011-07-31T00:00:00.000Z"},{"geonameid":2652187,"name":"Cowpen","asciiname":"Cowpen","alternatenames":"Cowpen","latitude":"55.1272800","longitude":"-1.5403300","fclass":"P","fcode":"PPL","country":"GB","cc2":"","admin1":"ENG","admin2":"J6","admin3":"00EM165","admin4":"","population":0,"elevation":0,"gtopo30":9,"timezone":"Europe/London","moddate":"2011-03-03T00:00:00.000Z"},{"geonameid":7535379,"name":"Cragside","asciiname":"Cragside","alternatenames":"","latitude":"55.3136500","longitude":"-1.8858000","fclass":"P","fcode":"PPL","country":"GB","cc2":"","admin1":"ENG","admin2":"J6","admin3":"00EM034","admin4":"","population":0,"elevation":0,"gtopo30":136,"timezone":"Europe/London","moddate":"2010-09-14T00:00:00.000Z"},{"geonameid":2652095,"name":"Cramlington","asciiname":"Cramlington","alternatenames":"Cramlington,Kramlington,kramlyngtwn,Крамлингтон,کراملینگتون","latitude":"55.0865200","longitude":"-1.5859800","fclass":"P","fcode":"PPLA3","country":"GB","cc2":"","admin1":"ENG","admin2":"J6","admin3":"00EM166","admin4":"","population":33180,"elevation":0,"gtopo30":78,"timezone":"Europe/London","moddate":"2017-06-12T00:00:00.000Z"},{"geonameid":2652070,"name":"Craster","asciiname":"Craster","alternatenames":"Craster","latitude":"55.4720700","longitude":"-1.5928000","fclass":"P","fcode":"PPL","country":"GB","cc2":"","admin1":"ENG","admin2":"J6","admin3":"00EM042","admin4":"","population":0,"elevation":0,"gtopo30":8,"timezone":"Europe/London","moddate":"2011-03-03T00:00:00.000Z"},{"geonameid":2652009,"name":"Cresswell","asciiname":"Cresswell","alternatenames":"","latitude":"55.2166700","longitude":"-1.5500000","fclass":"P","fcode":"PPLA3","country":"GB","cc2":"","admin1":"ENG","admin2":"J6","admin3":"00EM043","admin4":"","population":0,"elevation":0,"gtopo30":18,"timezone":"Europe/London","moddate":"2011-07-31T00:00:00.000Z"},{"geonameid":2651907,"name":"Crookham","asciiname":"Crookham","alternatenames":"Crookham","latitude":"55.6365200","longitude":"-2.1318600","fclass":"P","fcode":"PPL","country":"GB","cc2":"","admin1":"ENG","admin2":"J6","admin3":"00EM061","admin4":"","population":0,"elevation":0,"gtopo30":45,"timezone":"Europe/London","moddate":"2017-06-12T00:00:00.000Z"},{"geonameid":2651553,"name":"Dalton","asciiname":"Dalton","alternatenames":"","latitude":"55.0428300","longitude":"-1.8286200","fclass":"P","fcode":"PPL","country":"GB","cc2":"","admin1":"ENG","admin2":"J6","admin3":"00EM141","admin4":"","population":0,"elevation":0,"gtopo30":119,"timezone":"Europe/London","moddate":"2016-06-22T00:00:00.000Z"},{"geonameid":6696772,"name":"Darras Hall","asciiname":"Darras Hall","alternatenames":"","latitude":"55.0356000","longitude":"-1.7642500","fclass":"P","fcode":"PPLX","country":"GB","cc2":"","admin1":"ENG","admin2":"J6","admin3":"00EM127","admin4":"","population":15000,"elevation":0,"gtopo30":82,"timezone":"Europe/London","moddate":"2016-06-22T00:00:00.000Z"},{"geonameid":2651304,"name":"Detchant","asciiname":"Detchant","alternatenames":"","latitude":"55.6221900","longitude":"-1.8627800","fclass":"P","fcode":"PPL","country":"GB","cc2":"","admin1":"ENG","admin2":"J6","admin3":"00EM107","admin4":"","population":0,"elevation":0,"gtopo30":50,"timezone":"Europe/London","moddate":"2011-03-03T00:00:00.000Z"},{"geonameid":2651179,"name":"Doddington","asciiname":"Doddington","alternatenames":"","latitude":"55.5854800","longitude":"-2.0041500","fclass":"P","fcode":"PPLA3","country":"GB","cc2":"","admin1":"ENG","admin2":"J6","admin3":"00EM045","admin4":"","population":0,"elevation":0,"gtopo30":53,"timezone":"Europe/London","moddate":"2017-06-12T00:00:00.000Z"},{"geonameid":2650845,"name":"Duddo","asciiname":"Duddo","alternatenames":"Duddo","latitude":"55.6768500","longitude":"-2.1022200","fclass":"P","fcode":"PPL","country":"GB","cc2":"","admin1":"ENG","admin2":"J6","admin3":"00EM046","admin4":"","population":0,"elevation":0,"gtopo30":78,"timezone":"Europe/London","moddate":"2011-03-03T00:00:00.000Z"},{"geonameid":2650557,"name":"Earle","asciiname":"Earle","alternatenames":"Earle","latitude":"55.5297100","longitude":"-2.0218300","fclass":"P","fcode":"PPL","country":"GB","cc2":"","admin1":"ENG","admin2":"J6","admin3":"00EM047","admin4":"","population":0,"elevation":0,"gtopo30":119,"timezone":"Europe/London","moddate":"2011-03-03T00:00:00.000Z"},{"geonameid":2650531,"name":"Earsdon","asciiname":"Earsdon","alternatenames":"Earsdon","latitude":"55.0459700","longitude":"-1.4990300","fclass":"P","fcode":"PPL","country":"GB","cc2":"","admin1":"ENG","admin2":"J6","admin3":"","admin4":"","population":0,"elevation":0,"gtopo30":61,"timezone":"Europe/London","moddate":"2010-08-03T00:00:00.000Z"},{"geonameid":2650484,"name":"East Chevington","asciiname":"East Chevington","alternatenames":"","latitude":"55.2833300","longitude":"-1.5833300","fclass":"P","fcode":"PPLA3","country":"GB","cc2":"","admin1":"ENG","admin2":"J6","admin3":"00EM050","admin4":"","population":1751,"elevation":0,"gtopo30":14,"timezone":"Europe/London","moddate":"2011-07-31T00:00:00.000Z"},{"geonameid":2650359,"name":"East Ord","asciiname":"East Ord","alternatenames":"East Ord,Ord","latitude":"55.7556900","longitude":"-2.0332700","fclass":"P","fcode":"PPL","country":"GB","cc2":"","admin1":"ENG","admin2":"J6","admin3":"00EM121","admin4":"","population":0,"elevation":0,"gtopo30":35,"timezone":"Europe/London","moddate":"2011-03-03T00:00:00.000Z"},{"geonameid":2650326,"name":"East Thirston","asciiname":"East Thirston","alternatenames":"East Thirston,Thirston","latitude":"55.2925600","longitude":"-1.6922700","fclass":"P","fcode":"PPL","country":"GB","cc2":"","admin1":"ENG","admin2":"J6","admin3":"00EM145","admin4":"","population":0,"elevation":0,"gtopo30":55,"timezone":"Europe/London","moddate":"2011-03-03T00:00:00.000Z"},{"geonameid":2650307,"name":"East Woodburn","asciiname":"East Woodburn","alternatenames":"","latitude":"55.1755000","longitude":"-2.1467700","fclass":"P","fcode":"PPL","country":"GB","cc2":"","admin1":"ENG","admin2":"J6","admin3":"00EM041","admin4":"","population":0,"elevation":0,"gtopo30":137,"timezone":"Europe/London","moddate":"2011-03-03T00:00:00.000Z"},{"geonameid":2650215,"name":"Edlingham","asciiname":"Edlingham","alternatenames":"Edlingham","latitude":"55.3738800","longitude":"-1.8278200","fclass":"P","fcode":"PPL","country":"GB","cc2":"","admin1":"ENG","admin2":"J6","admin3":"00EM051","admin4":"","population":0,"elevation":0,"gtopo30":138,"timezone":"Europe/London","moddate":"2011-03-03T00:00:00.000Z"},{"geonameid":2650185,"name":"Eglingham","asciiname":"Eglingham","alternatenames":"Eglingham","latitude":"55.4696700","longitude":"-1.8346800","fclass":"P","fcode":"PPL","country":"GB","cc2":"","admin1":"ENG","admin2":"J6","admin3":"00EM052","admin4":"","population":0,"elevation":0,"gtopo30":116,"timezone":"Europe/London","moddate":"2011-03-03T00:00:00.000Z"},{"geonameid":9884086,"name":"Elford","asciiname":"Elford","alternatenames":"","latitude":"55.5720100","longitude":"-1.7043400","fclass":"P","fcode":"PPL","country":"GB","cc2":"","admin1":"ENG","admin2":"J6","admin3":"00EM016","admin4":"","population":0,"elevation":0,"gtopo30":45,"timezone":"Europe/London","moddate":"2015-01-01T00:00:00.000Z"},{"geonameid":2650093,"name":"Ellingham","asciiname":"Ellingham","alternatenames":"","latitude":"55.5258900","longitude":"-1.7360100","fclass":"P","fcode":"PPLA3","country":"GB","cc2":"","admin1":"ENG","admin2":"J6","admin3":"00EM053","admin4":"","population":0,"elevation":0,"gtopo30":74,"timezone":"Europe/London","moddate":"2017-06-12T00:00:00.000Z"},{"geonameid":2650090,"name":"Ellington","asciiname":"Ellington","alternatenames":"Ellington","latitude":"55.2166700","longitude":"-1.5666700","fclass":"P","fcode":"PPL","country":"GB","cc2":"","admin1":"ENG","admin2":"J6","admin3":"00EM054","admin4":"","population":0,"elevation":0,"gtopo30":14,"timezone":"Europe/London","moddate":"2016-06-22T00:00:00.000Z"},{"geonameid":2650063,"name":"Elrington","asciiname":"Elrington","alternatenames":"","latitude":"54.9656600","longitude":"-2.2186300","fclass":"P","fcode":"PPL","country":"GB","cc2":"","admin1":"ENG","admin2":"J6","admin3":"00EM070","admin4":"","population":0,"elevation":0,"gtopo30":179,"timezone":"Europe/London","moddate":"2011-03-03T00:00:00.000Z"},{"geonameid":2650062,"name":"Elsdon","asciiname":"Elsdon","alternatenames":"Elsdon","latitude":"55.2328800","longitude":"-2.1024900","fclass":"P","fcode":"PPL","country":"GB","cc2":"","admin1":"ENG","admin2":"J6","admin3":"00EM055","admin4":"","population":0,"elevation":0,"gtopo30":167,"timezone":"Europe/London","moddate":"2011-03-03T00:00:00.000Z"},{"geonameid":2650016,"name":"Embleton","asciiname":"Embleton","alternatenames":"Embleton","latitude":"55.4959200","longitude":"-1.6361900","fclass":"P","fcode":"PPLA3","country":"GB","cc2":"","admin1":"ENG","admin2":"J6","admin3":"00EM056","admin4":"","population":412,"elevation":0,"gtopo30":44,"timezone":"Europe/London","moddate":"2017-06-12T00:00:00.000Z"},{"geonameid":2649883,"name":"Etal","asciiname":"Etal","alternatenames":"","latitude":"55.6479000","longitude":"-2.1170800","fclass":"P","fcode":"PPL","country":"GB","cc2":"","admin1":"ENG","admin2":"J6","admin3":"00EM061","admin4":"","population":0,"elevation":0,"gtopo30":44,"timezone":"Europe/London","moddate":"2011-03-03T00:00:00.000Z"},{"geonameid":2649713,"name":"Falstone","asciiname":"Falstone","alternatenames":"Falstone","latitude":"55.1808300","longitude":"-2.4360400","fclass":"P","fcode":"PPL","country":"GB","cc2":"","admin1":"ENG","admin2":"J6","admin3":"00EM058","admin4":"","population":0,"elevation":0,"gtopo30":142,"timezone":"Europe/London","moddate":"2011-03-03T00:00:00.000Z"},{"geonameid":2649569,"name":"Felton","asciiname":"Felton","alternatenames":"","latitude":"55.2976800","longitude":"-1.7114300","fclass":"P","fcode":"PPLA3","country":"GB","cc2":"","admin1":"ENG","admin2":"J6","admin3":"00EM060","admin4":"","population":1126,"elevation":0,"gtopo30":41,"timezone":"Europe/London","moddate":"2017-06-13T00:00:00.000Z"},{"geonameid":2649560,"name":"Fenham","asciiname":"Fenham","alternatenames":"Fenham","latitude":"55.6500000","longitude":"-1.8500000","fclass":"P","fcode":"PPL","country":"GB","cc2":"","admin1":"ENG","admin2":"J6","admin3":"00EM095","admin4":"","population":0,"elevation":0,"gtopo30":4,"timezone":"Europe/London","moddate":"2019-10-09T00:00:00.000Z"},{"geonameid":2649551,"name":"Fenrother","asciiname":"Fenrother","alternatenames":"","latitude":"55.2223600","longitude":"-1.7237800","fclass":"P","fcode":"PPL","country":"GB","cc2":"","admin1":"ENG","admin2":"J6","admin3":"00EM148","admin4":"","population":0,"elevation":0,"gtopo30":102,"timezone":"Europe/London","moddate":"2011-03-03T00:00:00.000Z"},{"geonameid":2649545,"name":"Fentonhill","asciiname":"Fentonhill","alternatenames":"","latitude":"55.6000000","longitude":"-2.0333300","fclass":"P","fcode":"PPL","country":"GB","cc2":"","admin1":"ENG","admin2":"J6","admin3":"00EM045","admin4":"","population":0,"elevation":0,"gtopo30":50,"timezone":"Europe/London","moddate":"2016-06-22T00:00:00.000Z"},{"geonameid":2649543,"name":"Fenwick","asciiname":"Fenwick","alternatenames":"Fenwick","latitude":"55.6500000","longitude":"-1.8833300","fclass":"P","fcode":"PPL","country":"GB","cc2":"","admin1":"ENG","admin2":"J6","admin3":"00EM095","admin4":"","population":0,"elevation":0,"gtopo30":43,"timezone":"Europe/London","moddate":"2019-02-21T00:00:00.000Z"},{"geonameid":2649236,"name":"Ford","asciiname":"Ford","alternatenames":"","latitude":"55.6333300","longitude":"-2.0833300","fclass":"P","fcode":"PPLA3","country":"GB","cc2":"","admin1":"ENG","admin2":"J6","admin3":"00EM061","admin4":"","population":0,"elevation":0,"gtopo30":88,"timezone":"Europe/London","moddate":"2011-07-31T00:00:00.000Z"},{"geonameid":2649130,"name":"Fourstones","asciiname":"Fourstones","alternatenames":"","latitude":"55.0058100","longitude":"-2.1757000","fclass":"P","fcode":"PPL","country":"GB","cc2":"","admin1":"ENG","admin2":"J6","admin3":"00EM152","admin4":"","population":0,"elevation":0,"gtopo30":70,"timezone":"Europe/London","moddate":"2011-03-03T00:00:00.000Z"},{"geonameid":2648645,"name":"Gilsland","asciiname":"Gilsland","alternatenames":"Gilsland","latitude":"54.9912500","longitude":"-2.5717800","fclass":"P","fcode":"PPL","country":"GB","cc2":"","admin1":"ENG","admin2":"J6","admin3":"00EM144","admin4":"","population":205,"elevation":0,"gtopo30":136,"timezone":"Europe/London","moddate":"2017-06-12T00:00:00.000Z"},{"geonameid":2648600,"name":"Glanton","asciiname":"Glanton","alternatenames":"Glanton","latitude":"55.4246300","longitude":"-1.8917500","fclass":"P","fcode":"PPL","country":"GB","cc2":"","admin1":"ENG","admin2":"J6","admin3":"00EM062","admin4":"","population":0,"elevation":0,"gtopo30":139,"timezone":"Europe/London","moddate":"2011-03-03T00:00:00.000Z"},{"geonameid":2648007,"name":"Great Swinburn","asciiname":"Great Swinburn","alternatenames":"","latitude":"55.0666700","longitude":"-2.1000000","fclass":"P","fcode":"PPL","country":"GB","cc2":"","admin1":"ENG","admin2":"J6","admin3":"00EM037","admin4":"","population":0,"elevation":0,"gtopo30":123,"timezone":"Europe/London","moddate":"2016-06-22T00:00:00.000Z"},{"geonameid":2647969,"name":"Greenhaugh","asciiname":"Greenhaugh","alternatenames":"","latitude":"55.1792100","longitude":"-2.3228100","fclass":"P","fcode":"PPL","country":"GB","cc2":"","admin1":"ENG","admin2":"J6","admin3":"00EM143","admin4":"","population":0,"elevation":0,"gtopo30":162,"timezone":"Europe/London","moddate":"2011-03-03T00:00:00.000Z"},{"geonameid":2647967,"name":"Greenhead","asciiname":"Greenhead","alternatenames":"Greenhead","latitude":"54.9666700","longitude":"-2.5166700","fclass":"P","fcode":"PPLA3","country":"GB","cc2":"","admin1":"ENG","admin2":"J6","admin3":"00EM063","admin4":"","population":0,"elevation":0,"gtopo30":180,"timezone":"Europe/London","moddate":"2011-07-31T00:00:00.000Z"},{"geonameid":2647864,"name":"Grindon","asciiname":"Grindon","alternatenames":"","latitude":"55.0166700","longitude":"-2.2833300","fclass":"P","fcode":"PPL","country":"GB","cc2":"","admin1":"ENG","admin2":"J6","admin3":"00EM070","admin4":"","population":0,"elevation":0,"gtopo30":208,"timezone":"Europe/London","moddate":"2016-06-22T00:00:00.000Z"},{"geonameid":11550996,"name":"Guide Post","asciiname":"Guide Post","alternatenames":"","latitude":"55.1601900","longitude":"-1.6065400","fclass":"P","fcode":"PPL","country":"GB","cc2":"","admin1":"ENG","admin2":"J6","admin3":"00EM118","admin4":"","population":0,"elevation":0,"gtopo30":30,"timezone":"Europe/London","moddate":"2017-06-08T00:00:00.000Z"},{"geonameid":2647762,"name":"Gunnerton","asciiname":"Gunnerton","alternatenames":"","latitude":"55.0694700","longitude":"-2.1487300","fclass":"P","fcode":"PPL","country":"GB","cc2":"","admin1":"ENG","admin2":"J6","admin3":"00EM037","admin4":"","population":0,"elevation":0,"gtopo30":119,"timezone":"Europe/London","moddate":"2011-03-03T00:00:00.000Z"},{"geonameid":2647740,"name":"Guyzance","asciiname":"Guyzance","alternatenames":"Guizance,Guyzance","latitude":"55.3288900","longitude":"-1.6693000","fclass":"P","fcode":"PPL","country":"GB","cc2":"","admin1":"ENG","admin2":"J6","admin3":"00EM001","admin4":"","population":0,"elevation":0,"gtopo30":61,"timezone":"Europe/London","moddate":"2011-03-03T00:00:00.000Z"},{"geonameid":3210209,"name":"Hadston","asciiname":"Hadston","alternatenames":"","latitude":"55.2942800","longitude":"-1.6039200","fclass":"P","fcode":"PPL","country":"GB","cc2":"","admin1":"ENG","admin2":"J6","admin3":"00EM050","admin4":"","population":3570,"elevation":0,"gtopo30":18,"timezone":"Europe/London","moddate":"2017-06-12T00:00:00.000Z"},{"geonameid":2647593,"name":"Haltwhistle","asciiname":"Haltwhistle","alternatenames":"haltwystl,هالتویستل","latitude":"54.9710100","longitude":"-2.4568200","fclass":"P","fcode":"PPLA3","country":"GB","cc2":"","admin1":"ENG","admin2":"J6","admin3":"00EM065","admin4":"","population":3791,"elevation":0,"gtopo30":124,"timezone":"Europe/London","moddate":"2017-06-12T00:00:00.000Z"},{"geonameid":2647506,"name":"Harbottle","asciiname":"Harbottle","alternatenames":"Harbottle","latitude":"55.3362100","longitude":"-2.1054300","fclass":"P","fcode":"PPL","country":"GB","cc2":"","admin1":"ENG","admin2":"J6","admin3":"00EM066","admin4":"","population":0,"elevation":0,"gtopo30":148,"timezone":"Europe/London","moddate":"2011-03-03T00:00:00.000Z"},{"geonameid":2647460,"name":"Harlow Hill","asciiname":"Harlow Hill","alternatenames":"","latitude":"55.0095600","longitude":"-1.8784800","fclass":"P","fcode":"PPL","country":"GB","cc2":"","admin1":"ENG","admin2":"J6","admin3":"00EM141","admin4":"","population":0,"elevation":0,"gtopo30":150,"timezone":"Europe/London","moddate":"2011-03-03T00:00:00.000Z"},{"geonameid":2647458,"name":"Harnham","asciiname":"Harnham","alternatenames":"","latitude":"55.1000000","longitude":"-1.8833300","fclass":"P","fcode":"PPL","country":"GB","cc2":"","admin1":"ENG","admin2":"J6","admin3":"00EM019","admin4":"","population":0,"elevation":0,"gtopo30":140,"timezone":"Europe/London","moddate":"2016-06-22T00:00:00.000Z"},{"geonameid":2647416,"name":"Hartburn","asciiname":"Hartburn","alternatenames":"Hartburn","latitude":"55.1666700","longitude":"-1.8500000","fclass":"P","fcode":"PPLA3","country":"GB","cc2":"","admin1":"ENG","admin2":"J6","admin3":"00EM067","admin4":"","population":0,"elevation":0,"gtopo30":129,"timezone":"Europe/London","moddate":"2011-07-31T00:00:00.000Z"},{"geonameid":2647397,"name":"Hartley","asciiname":"Hartley","alternatenames":"","latitude":"55.0764500","longitude":"-1.4665900","fclass":"P","fcode":"PPL","country":"GB","cc2":"","admin1":"ENG","admin2":"J6","admin3":"00EM167","admin4":"","population":0,"elevation":0,"gtopo30":28,"timezone":"Europe/London","moddate":"2016-06-22T00:00:00.000Z"},{"geonameid":2647263,"name":"Haydon Bridge","asciiname":"Haydon Bridge","alternatenames":"Haydon Bridge","latitude":"54.9748600","longitude":"-2.2468000","fclass":"P","fcode":"PPL","country":"GB","cc2":"","admin1":"ENG","admin2":"J6","admin3":"00EM070","admin4":"","population":1557,"elevation":0,"gtopo30":65,"timezone":"Europe/London","moddate":"2017-06-12T00:00:00.000Z"},{"geonameid":2647230,"name":"Healey","asciiname":"Healey","alternatenames":"","latitude":"54.9166700","longitude":"-1.9666700","fclass":"P","fcode":"PPLA3","country":"GB","cc2":"","admin1":"ENG","admin2":"J6","admin3":"00EM071","admin4":"","population":0,"elevation":0,"gtopo30":203,"timezone":"Europe/London","moddate":"2011-07-31T00:00:00.000Z"},{"geonameid":2647202,"name":"Hebron","asciiname":"Hebron","alternatenames":"","latitude":"55.1833300","longitude":"-1.6833300","fclass":"P","fcode":"PPLA3","country":"GB","cc2":"","admin1":"ENG","admin2":"J6","admin3":"00EM072","admin4":"","population":0,"elevation":0,"gtopo30":68,"timezone":"Europe/London","moddate":"2011-07-31T00:00:00.000Z"},{"geonameid":2647195,"name":"Heddon on the Wall","asciiname":"Heddon on the Wall","alternatenames":"","latitude":"54.9969200","longitude":"-1.7938600","fclass":"P","fcode":"PPL","country":"GB","cc2":"","admin1":"ENG","admin2":"J6","admin3":"00EM073","admin4":"","population":1318,"elevation":0,"gtopo30":132,"timezone":"Europe/London","moddate":"2017-06-12T00:00:00.000Z"},{"geonameid":2647082,"name":"Hepburn","asciiname":"Hepburn","alternatenames":"","latitude":"55.5147500","longitude":"-1.8922900","fclass":"P","fcode":"PPL","country":"GB","cc2":"","admin1":"ENG","admin2":"J6","admin3":"00EM036","admin4":"","population":0,"elevation":0,"gtopo30":133,"timezone":"Europe/London","moddate":"2011-03-03T00:00:00.000Z"},{"geonameid":2647081,"name":"Hepple","asciiname":"Hepple","alternatenames":"","latitude":"55.2998600","longitude":"-2.0251700","fclass":"P","fcode":"PPL","country":"GB","cc2":"","admin1":"ENG","admin2":"J6","admin3":"00EM077","admin4":"","population":0,"elevation":0,"gtopo30":117,"timezone":"Europe/London","moddate":"2011-03-03T00:00:00.000Z"},{"geonameid":2647080,"name":"Hepscott","asciiname":"Hepscott","alternatenames":"","latitude":"55.1498300","longitude":"-1.6477100","fclass":"P","fcode":"PPL","country":"GB","cc2":"","admin1":"ENG","admin2":"J6","admin3":"00EM078","admin4":"","population":417,"elevation":0,"gtopo30":40,"timezone":"Europe/London","moddate":"2017-06-12T00:00:00.000Z"},{"geonameid":2647007,"name":"Hexham","asciiname":"Hexham","alternatenames":"Hagastaldunum,Hexham,Kheksem,hksham,Хексем,هکسهام","latitude":"54.9698600","longitude":"-2.1040000","fclass":"P","fcode":"PPL","country":"GB","cc2":"","admin1":"ENG","admin2":"J6","admin3":"00EM080","admin4":"","population":11388,"elevation":0,"gtopo30":61,"timezone":"Europe/London","moddate":"2017-06-12T00:00:00.000Z"},{"geonameid":2646975,"name":"High Buston","asciiname":"High Buston","alternatenames":"Buston,High Buston","latitude":"55.3717500","longitude":"-1.6375400","fclass":"P","fcode":"PPL","country":"GB","cc2":"","admin1":"ENG","admin2":"J6","admin3":"00EM007","admin4":"","population":0,"elevation":0,"gtopo30":79,"timezone":"Europe/London","moddate":"2011-03-03T00:00:00.000Z"},{"geonameid":8063588,"name":"Hipsburn","asciiname":"Hipsburn","alternatenames":"","latitude":"55.3879100","longitude":"-1.6306200","fclass":"P","fcode":"PPL","country":"GB","cc2":"","admin1":"ENG","admin2":"J6","admin3":"00EM096","admin4":"","population":0,"elevation":0,"gtopo30":31,"timezone":"Europe/London","moddate":"2011-12-01T00:00:00.000Z"},{"geonameid":2646831,"name":"Hirst","asciiname":"Hirst","alternatenames":"","latitude":"55.1666700","longitude":"-1.5500000","fclass":"P","fcode":"PPL","country":"GB","cc2":"","admin1":"ENG","admin2":"J6","admin3":"00EM012","admin4":"","population":0,"elevation":0,"gtopo30":20,"timezone":"Europe/London","moddate":"2016-06-22T00:00:00.000Z"},{"geonameid":2646776,"name":"Holburn","asciiname":"Holburn","alternatenames":"Holburn","latitude":"55.6000000","longitude":"-1.9166700","fclass":"P","fcode":"PPL","country":"GB","cc2":"","admin1":"ENG","admin2":"J6","admin3":"00EM035","admin4":"","population":0,"elevation":0,"gtopo30":97,"timezone":"Europe/London","moddate":"2016-06-22T00:00:00.000Z"},{"geonameid":11610810,"name":"Holy Island","asciiname":"Holy Island","alternatenames":"","latitude":"55.6713200","longitude":"-1.8020600","fclass":"P","fcode":"PPL","country":"GB","cc2":"","admin1":"ENG","admin2":"J6","admin3":"00EM084","admin4":"","population":0,"elevation":0,"gtopo30":14,"timezone":"Europe/London","moddate":"2017-07-18T00:00:00.000Z"},{"geonameid":2646676,"name":"Holystone","asciiname":"Holystone","alternatenames":"Holystone","latitude":"55.3000000","longitude":"-2.0666700","fclass":"P","fcode":"PPL","country":"GB","cc2":"","admin1":"ENG","admin2":"J6","admin3":"00EM066","admin4":"","population":0,"elevation":0,"gtopo30":173,"timezone":"Europe/London","moddate":"2016-06-22T00:00:00.000Z"},{"geonameid":2646553,"name":"Horsley","asciiname":"Horsley","alternatenames":"","latitude":"54.9833300","longitude":"-1.8500000","fclass":"P","fcode":"PPLA3","country":"GB","cc2":"","admin1":"ENG","admin2":"J6","admin3":"00EM086","admin4":"","population":0,"elevation":0,"gtopo30":93,"timezone":"Europe/London","moddate":"2011-07-31T00:00:00.000Z"},{"geonameid":2646490,"name":"Howick","asciiname":"Howick","alternatenames":"Howick","latitude":"55.4333300","longitude":"-1.5833300","fclass":"P","fcode":"PPL","country":"GB","cc2":"","admin1":"ENG","admin2":"J6","admin3":"00EM101","admin4":"","population":0,"elevation":0,"gtopo30":-9999,"timezone":"Europe/London","moddate":"2016-06-22T00:00:00.000Z"},{"geonameid":2646424,"name":"Humshaugh","asciiname":"Humshaugh","alternatenames":"Humshaugh","latitude":"55.0376800","longitude":"-2.1284300","fclass":"P","fcode":"PPL","country":"GB","cc2":"","admin1":"ENG","admin2":"J6","admin3":"00EM087","admin4":"","population":622,"elevation":0,"gtopo30":89,"timezone":"Europe/London","moddate":"2017-06-12T00:00:00.000Z"},{"geonameid":2646278,"name":"Ilderton","asciiname":"Ilderton","alternatenames":"","latitude":"55.4913400","longitude":"-1.9749700","fclass":"P","fcode":"PPL","country":"GB","cc2":"","admin1":"ENG","admin2":"J6","admin3":"00EM088","admin4":"","population":0,"elevation":0,"gtopo30":155,"timezone":"Europe/London","moddate":"2011-03-03T00:00:00.000Z"},{"geonameid":2646204,"name":"Ingoe","asciiname":"Ingoe","alternatenames":"","latitude":"55.0682800","longitude":"-1.9406200","fclass":"P","fcode":"PPL","country":"GB","cc2":"","admin1":"ENG","admin2":"J6","admin3":"00EM104","admin4":"","population":0,"elevation":0,"gtopo30":217,"timezone":"Europe/London","moddate":"2011-03-03T00:00:00.000Z"},{"geonameid":2646199,"name":"Ingram","asciiname":"Ingram","alternatenames":"Ingram","latitude":"55.4402200","longitude":"-1.9745300","fclass":"P","fcode":"PPL","country":"GB","cc2":"","admin1":"ENG","admin2":"J6","admin3":"00EM089","admin4":"","population":0,"elevation":0,"gtopo30":127,"timezone":"Europe/London","moddate":"2011-03-03T00:00:00.000Z"},{"geonameid":6957014,"name":"Kielder","asciiname":"Kielder","alternatenames":"","latitude":"55.2344800","longitude":"-2.5853800","fclass":"P","fcode":"PPL","country":"GB","cc2":"","admin1":"ENG","admin2":"J6","admin3":"00EM090","admin4":"","population":200,"elevation":205,"gtopo30":205,"timezone":"Europe/London","moddate":"2011-03-03T00:00:00.000Z"},{"geonameid":2645276,"name":"Kirkharle","asciiname":"Kirkharle","alternatenames":"","latitude":"55.1323700","longitude":"-1.9858500","fclass":"P","fcode":"PPL","country":"GB","cc2":"","admin1":"ENG","admin2":"J6","admin3":"00EM093","admin4":"","population":0,"elevation":0,"gtopo30":177,"timezone":"Europe/London","moddate":"2011-03-03T00:00:00.000Z"},{"geonameid":2645274,"name":"Kirkheaton","asciiname":"Kirkheaton","alternatenames":"Kirkheaton","latitude":"55.0833300","longitude":"-1.9666700","fclass":"P","fcode":"PPL","country":"GB","cc2":"","admin1":"ENG","admin2":"J6","admin3":"00EM104","admin4":"","population":0,"elevation":0,"gtopo30":226,"timezone":"Europe/London","moddate":"2016-06-22T00:00:00.000Z"},{"geonameid":2645242,"name":"Kirknewton","asciiname":"Kirknewton","alternatenames":"","latitude":"55.5500000","longitude":"-2.1333300","fclass":"P","fcode":"PPLA3","country":"GB","cc2":"","admin1":"ENG","admin2":"J6","admin3":"00EM092","admin4":"","population":0,"elevation":0,"gtopo30":322,"timezone":"Europe/London","moddate":"2011-07-31T00:00:00.000Z"},{"geonameid":2645196,"name":"Kirkwhelpington","asciiname":"Kirkwhelpington","alternatenames":"Kirkwhelpington","latitude":"55.1546500","longitude":"-2.0062500","fclass":"P","fcode":"PPL","country":"GB","cc2":"","admin1":"ENG","admin2":"J6","admin3":"00EM093","admin4":"","population":0,"elevation":0,"gtopo30":176,"timezone":"Europe/London","moddate":"2011-03-03T00:00:00.000Z"},{"geonameid":2645162,"name":"Knarsdale","asciiname":"Knarsdale","alternatenames":"Knaresdale,Knarsdale","latitude":"54.8666700","longitude":"-2.5000000","fclass":"P","fcode":"PPL","country":"GB","cc2":"GB","admin1":"ENG","admin2":"J6","admin3":"00EM094","admin4":"","population":0,"elevation":0,"gtopo30":199,"timezone":"Europe/London","moddate":"2016-06-22T00:00:00.000Z"},{"geonameid":2645086,"name":"Kyloe","asciiname":"Kyloe","alternatenames":"","latitude":"55.6554800","longitude":"-1.9230500","fclass":"P","fcode":"PPL","country":"GB","cc2":"","admin1":"ENG","admin2":"J6","admin3":"00EM095","admin4":"","population":0,"elevation":0,"gtopo30":95,"timezone":"Europe/London","moddate":"2011-03-03T00:00:00.000Z"},{"geonameid":2644920,"name":"Langley","asciiname":"Langley","alternatenames":"Langley,Langley-on-Tyne","latitude":"54.9333300","longitude":"-2.2666700","fclass":"P","fcode":"PPL","country":"GB","cc2":"GB","admin1":"ENG","admin2":"J6","admin3":"00EM005","admin4":"","population":0,"elevation":0,"gtopo30":301,"timezone":"Europe/London","moddate":"2016-06-22T00:00:00.000Z"},{"geonameid":2644604,"name":"Lesbury","asciiname":"Lesbury","alternatenames":"Lesbury,Lisburg","latitude":"55.3983200","longitude":"-1.6283000","fclass":"P","fcode":"PPL","country":"GB","cc2":"","admin1":"ENG","admin2":"J6","admin3":"00EM096","admin4":"","population":1007,"elevation":0,"gtopo30":12,"timezone":"Europe/London","moddate":"2017-06-12T00:00:00.000Z"},{"geonameid":2644481,"name":"Linden","asciiname":"Linden","alternatenames":"","latitude":"55.2500000","longitude":"-1.7666700","fclass":"P","fcode":"PPL","country":"GB","cc2":"","admin1":"ENG","admin2":"J6","admin3":"00EM100","admin4":"","population":0,"elevation":0,"gtopo30":110,"timezone":"Europe/London","moddate":"2016-06-22T00:00:00.000Z"},{"geonameid":2643688,"name":"Longframlington","asciiname":"Longframlington","alternatenames":"","latitude":"55.3039200","longitude":"-1.7950400","fclass":"P","fcode":"PPL","country":"GB","cc2":"","admin1":"ENG","admin2":"J6","admin3":"00EM098","admin4":"","population":864,"elevation":0,"gtopo30":155,"timezone":"Europe/London","moddate":"2017-06-12T00:00:00.000Z"},{"geonameid":2643681,"name":"Longhirst","asciiname":"Longhirst","alternatenames":"","latitude":"55.1971900","longitude":"-1.6485500","fclass":"P","fcode":"PPL","country":"GB","cc2":"","admin1":"ENG","admin2":"J6","admin3":"00EM099","admin4":"","population":0,"elevation":0,"gtopo30":54,"timezone":"Europe/London","moddate":"2011-03-03T00:00:00.000Z"},{"geonameid":2643677,"name":"Longhorsley","asciiname":"Longhorsley","alternatenames":"","latitude":"55.2458600","longitude":"-1.7691400","fclass":"P","fcode":"PPLA3","country":"GB","cc2":"","admin1":"ENG","admin2":"J6","admin3":"00EM100","admin4":"","population":887,"elevation":0,"gtopo30":122,"timezone":"Europe/London","moddate":"2017-06-12T00:00:00.000Z"},{"geonameid":2643676,"name":"Longhoughton","asciiname":"Longhoughton","alternatenames":"","latitude":"55.4313100","longitude":"-1.6169100","fclass":"P","fcode":"PPL","country":"GB","cc2":"","admin1":"ENG","admin2":"J6","admin3":"00EM101","admin4":"","population":1383,"elevation":0,"gtopo30":45,"timezone":"Europe/London","moddate":"2017-06-12T00:00:00.000Z"},{"geonameid":2643612,"name":"Longwitton","asciiname":"Longwitton","alternatenames":"","latitude":"55.1935100","longitude":"-1.8826300","fclass":"P","fcode":"PPL","country":"GB","cc2":"","admin1":"ENG","admin2":"J6","admin3":"00EM112","admin4":"","population":0,"elevation":0,"gtopo30":181,"timezone":"Europe/London","moddate":"2011-03-03T00:00:00.000Z"},{"geonameid":2643597,"name":"Lorbottle","asciiname":"Lorbottle","alternatenames":"","latitude":"55.3526000","longitude":"-1.9484000","fclass":"P","fcode":"PPL","country":"GB","cc2":"","admin1":"ENG","admin2":"J6","admin3":"00EM031","admin4":"","population":0,"elevation":0,"gtopo30":140,"timezone":"Europe/London","moddate":"2011-03-03T00:00:00.000Z"},{"geonameid":2643482,"name":"Lowick","asciiname":"Lowick","alternatenames":"","latitude":"55.6504400","longitude":"-1.9780900","fclass":"P","fcode":"PPLA3","country":"GB","cc2":"","admin1":"ENG","admin2":"J6","admin3":"00EM102","admin4":"","population":373,"elevation":0,"gtopo30":100,"timezone":"Europe/London","moddate":"2017-06-13T00:00:00.000Z"},{"geonameid":2643444,"name":"Lucker","asciiname":"Lucker","alternatenames":"Lucker","latitude":"55.5655100","longitude":"-1.7592800","fclass":"P","fcode":"PPL","country":"GB","cc2":"","admin1":"ENG","admin2":"J6","admin3":"00EM003","admin4":"","population":0,"elevation":0,"gtopo30":40,"timezone":"Europe/London","moddate":"2011-03-03T00:00:00.000Z"},{"geonameid":3210207,"name":"Lynemouth","asciiname":"Lynemouth","alternatenames":"Lynemouth","latitude":"55.2130600","longitude":"-1.5425000","fclass":"P","fcode":"PPLA3","country":"GB","cc2":"","admin1":"ENG","admin2":"J6","admin3":"00EM103","admin4":"","population":1873,"elevation":0,"gtopo30":20,"timezone":"Europe/London","moddate":"2011-07-31T00:00:00.000Z"},{"geonameid":2642987,"name":"Marshall Meadows","asciiname":"Marshall Meadows","alternatenames":"","latitude":"55.8006200","longitude":"-2.0373000","fclass":"P","fcode":"PPL","country":"GB","cc2":"","admin1":"ENG","admin2":"J6","admin3":"00EM020","admin4":"","population":0,"elevation":0,"gtopo30":83,"timezone":"Europe/London","moddate":"2011-03-03T00:00:00.000Z"},{"geonameid":2642916,"name":"Matfen","asciiname":"Matfen","alternatenames":"Matfen","latitude":"55.0407000","longitude":"-1.9542800","fclass":"P","fcode":"PPL","country":"GB","cc2":"","admin1":"ENG","admin2":"J6","admin3":"00EM104","admin4":"","population":0,"elevation":0,"gtopo30":143,"timezone":"Europe/London","moddate":"2011-03-03T00:00:00.000Z"},{"geonameid":2642793,"name":"Meldon","asciiname":"Meldon","alternatenames":"","latitude":"55.1333300","longitude":"-1.8000000","fclass":"P","fcode":"PPLA3","country":"GB","cc2":"","admin1":"ENG","admin2":"J6","admin3":"00EM105","admin4":"","population":0,"elevation":0,"gtopo30":118,"timezone":"Europe/London","moddate":"2011-07-31T00:00:00.000Z"},{"geonameid":2642635,"name":"Mickley","asciiname":"Mickley","alternatenames":"Mickley","latitude":"54.9500000","longitude":"-1.8666700","fclass":"P","fcode":"PPL","country":"GB","cc2":"","admin1":"ENG","admin2":"J6","admin3":"00EM128","admin4":"","population":0,"elevation":0,"gtopo30":185,"timezone":"Europe/London","moddate":"2016-06-22T00:00:00.000Z"},{"geonameid":2642609,"name":"Middle Ord","asciiname":"Middle Ord","alternatenames":"Middle Ord","latitude":"55.7333300","longitude":"-2.0500000","fclass":"P","fcode":"PPL","country":"GB","cc2":"","admin1":"ENG","admin2":"J6","admin3":"00EM121","admin4":"","population":0,"elevation":0,"gtopo30":67,"timezone":"Europe/London","moddate":"2016-06-22T00:00:00.000Z"},{"geonameid":2642547,"name":"Milbourne","asciiname":"Milbourne","alternatenames":"Milbourne,Milburn","latitude":"55.0666700","longitude":"-1.8166700","fclass":"P","fcode":"PPL","country":"GB","cc2":"GB","admin1":"ENG","admin2":"J6","admin3":"00EM127","admin4":"","population":0,"elevation":0,"gtopo30":102,"timezone":"Europe/London","moddate":"2016-06-22T00:00:00.000Z"},{"geonameid":2642539,"name":"Milfield","asciiname":"Milfield","alternatenames":"","latitude":"55.5983200","longitude":"-2.1047100","fclass":"P","fcode":"PPL","country":"GB","cc2":"","admin1":"ENG","admin2":"J6","admin3":"00EM108","admin4":"","population":0,"elevation":0,"gtopo30":46,"timezone":"Europe/London","moddate":"2011-03-03T00:00:00.000Z"},{"geonameid":8315061,"name":"Mindrum","asciiname":"Mindrum","alternatenames":"Mindrum","latitude":"55.5885800","longitude":"-2.2536600","fclass":"P","fcode":"PPL","country":"GB","cc2":"","admin1":"ENG","admin2":"J6","admin3":"00EM091","admin4":"","population":1,"elevation":0,"gtopo30":92,"timezone":"Europe/London","moddate":"2012-06-07T00:00:00.000Z"},{"geonameid":2642409,"name":"Mitford","asciiname":"Mitford","alternatenames":"Mitford","latitude":"55.1683300","longitude":"-1.7271700","fclass":"P","fcode":"PPL","country":"GB","cc2":"","admin1":"ENG","admin2":"J6","admin3":"00EM109","admin4":"","population":0,"elevation":0,"gtopo30":53,"timezone":"Europe/London","moddate":"2015-02-18T00:00:00.000Z"},{"geonameid":2642182,"name":"Morpeth","asciiname":"Morpeth","alternatenames":"Morpet,Morpitium,mo po si,mopeseu,Морпет,مورپث، نورث‌آمبرلند,莫珀斯,모페스","latitude":"55.1688200","longitude":"-1.6889300","fclass":"P","fcode":"PPLA3","country":"GB","cc2":"","admin1":"ENG","admin2":"J6","admin3":"00EM110","admin4":"","population":14403,"elevation":0,"gtopo30":33,"timezone":"Europe/London","moddate":"2017-06-12T00:00:00.000Z"},{"geonameid":2641769,"name":"Netherwitton","asciiname":"Netherwitton","alternatenames":"","latitude":"55.2066700","longitude":"-1.8456700","fclass":"P","fcode":"PPL","country":"GB","cc2":"","admin1":"ENG","admin2":"J6","admin3":"00EM112","admin4":"","population":0,"elevation":0,"gtopo30":100,"timezone":"Europe/London","moddate":"2011-03-03T00:00:00.000Z"},{"geonameid":2641723,"name":"New Bewick","asciiname":"New Bewick","alternatenames":"Bewick,New Bewick","latitude":"55.4761100","longitude":"-1.8924000","fclass":"P","fcode":"PPL","country":"GB","cc2":"","admin1":"ENG","admin2":"J6","admin3":"00EM021","admin4":"","population":0,"elevation":0,"gtopo30":81,"timezone":"Europe/London","moddate":"2011-03-03T00:00:00.000Z"},{"geonameid":2641718,"name":"Newbiggin-by-the-Sea","asciiname":"Newbiggin-by-the-Sea","alternatenames":"nywbygyn-bay-dh-sy,نیوبیگین-بای-ده-سی","latitude":"55.1853200","longitude":"-1.5146900","fclass":"P","fcode":"PPL","country":"GB","cc2":"","admin1":"ENG","admin2":"J6","admin3":"00EM113","admin4":"","population":6308,"elevation":0,"gtopo30":11,"timezone":"Europe/London","moddate":"2017-06-12T00:00:00.000Z"},{"geonameid":2641695,"name":"Newbrough","asciiname":"Newbrough","alternatenames":"","latitude":"55.0052400","longitude":"-2.1969600","fclass":"P","fcode":"PPL","country":"GB","cc2":"","admin1":"ENG","admin2":"J6","admin3":"00EM114","admin4":"","population":0,"elevation":0,"gtopo30":66,"timezone":"Europe/London","moddate":"2011-03-03T00:00:00.000Z"},{"geonameid":2641638,"name":"Newham","asciiname":"Newham","alternatenames":"","latitude":"55.5482500","longitude":"-1.7289700","fclass":"P","fcode":"PPL","country":"GB","cc2":"","admin1":"ENG","admin2":"J6","admin3":"00EM053","admin4":"","population":0,"elevation":0,"gtopo30":37,"timezone":"Europe/London","moddate":"2015-07-18T00:00:00.000Z"},{"geonameid":9884084,"name":"Newham Hall","asciiname":"Newham Hall","alternatenames":"","latitude":"55.5584200","longitude":"-1.7203500","fclass":"P","fcode":"PPL","country":"GB","cc2":"","admin1":"ENG","admin2":"J6","admin3":"00EM053","admin4":"","population":0,"elevation":0,"gtopo30":47,"timezone":"Europe/London","moddate":"2015-01-01T00:00:00.000Z"},{"geonameid":2641625,"name":"Newlands","asciiname":"Newlands","alternatenames":"","latitude":"55.5833300","longitude":"-1.8166700","fclass":"P","fcode":"PPL","country":"GB","cc2":"","admin1":"ENG","admin2":"J6","admin3":"00EM017","admin4":"","population":0,"elevation":0,"gtopo30":63,"timezone":"Europe/London","moddate":"2016-06-22T00:00:00.000Z"},{"geonameid":2641573,"name":"Newsham","asciiname":"Newsham","alternatenames":"","latitude":"55.1091100","longitude":"-1.5262400","fclass":"P","fcode":"PPL","country":"GB","cc2":"","admin1":"ENG","admin2":"J6","admin3":"00EM165","admin4":"","population":0,"elevation":0,"gtopo30":14,"timezone":"Europe/London","moddate":"2010-06-07T00:00:00.000Z"},{"geonameid":2641554,"name":"Newton by the Sea","asciiname":"Newton by the Sea","alternatenames":"Newton,Newton by the Sea","latitude":"55.5152800","longitude":"-1.6196900","fclass":"P","fcode":"PPL","country":"GB","cc2":"GB","admin1":"ENG","admin2":"J6","admin3":"00EM115","admin4":"","population":0,"elevation":0,"gtopo30":13,"timezone":"Europe/London","moddate":"2015-04-13T00:00:00.000Z"},{"geonameid":2641540,"name":"Newton on the Moor","asciiname":"Newton on the Moor","alternatenames":"Newton on the Moor","latitude":"55.3333300","longitude":"-1.7333300","fclass":"P","fcode":"PPL","country":"GB","cc2":"","admin1":"ENG","admin2":"J6","admin3":"00EM116","admin4":"","population":0,"elevation":0,"gtopo30":153,"timezone":"Europe/London","moddate":"2016-06-22T00:00:00.000Z"},{"geonameid":2641454,"name":"Norham","asciiname":"Norham","alternatenames":"","latitude":"55.7188400","longitude":"-2.1626600","fclass":"P","fcode":"PPL","country":"GB","cc2":"","admin1":"ENG","admin2":"J6","admin3":"00EM117","admin4":"","population":579,"elevation":0,"gtopo30":14,"timezone":"Europe/London","moddate":"2017-06-12T00:00:00.000Z"},{"geonameid":2641396,"name":"North Charlton","asciiname":"North Charlton","alternatenames":"","latitude":"55.4999600","longitude":"-1.7357800","fclass":"P","fcode":"PPL","country":"GB","cc2":"","admin1":"ENG","admin2":"J6","admin3":"00EM052","admin4":"","population":0,"elevation":0,"gtopo30":104,"timezone":"Europe/London","moddate":"2011-03-03T00:00:00.000Z"},{"geonameid":2641268,"name":"North Seaton","asciiname":"North Seaton","alternatenames":"","latitude":"55.1739200","longitude":"-1.5418400","fclass":"P","fcode":"PPL","country":"GB","cc2":"","admin1":"ENG","admin2":"J6","admin3":"00EM012","admin4":"","population":0,"elevation":0,"gtopo30":22,"timezone":"Europe/London","moddate":"2011-03-03T00:00:00.000Z"},{"geonameid":2641253,"name":"North Sunderland","asciiname":"North Sunderland","alternatenames":"North Sunderland","latitude":"55.5768800","longitude":"-1.6643600","fclass":"P","fcode":"PPL","country":"GB","cc2":"","admin1":"ENG","admin2":"J6","admin3":"00EM119","admin4":"","population":1843,"elevation":0,"gtopo30":20,"timezone":"Europe/London","moddate":"2011-03-03T00:00:00.000Z"},{"geonameid":2640964,"name":"Once Brewed","asciiname":"Once Brewed","alternatenames":"","latitude":"54.9964800","longitude":"-2.3882400","fclass":"P","fcode":"PPLL","country":"GB","cc2":"","admin1":"ENG","admin2":"J6","admin3":"00EM076","admin4":"","population":0,"elevation":0,"gtopo30":223,"timezone":"Europe/London","moddate":"2016-09-07T00:00:00.000Z"},{"geonameid":2640852,"name":"Otterburn","asciiname":"Otterburn","alternatenames":"","latitude":"55.2334000","longitude":"-2.1805900","fclass":"P","fcode":"PPLA3","country":"GB","cc2":"","admin1":"ENG","admin2":"J6","admin3":"00EM122","admin4":"","population":654,"elevation":0,"gtopo30":160,"timezone":"Europe/London","moddate":"2017-06-13T00:00:00.000Z"},{"geonameid":11593355,"name":"Ouston","asciiname":"Ouston","alternatenames":"","latitude":"55.0196300","longitude":"-1.8738600","fclass":"P","fcode":"PPL","country":"GB","cc2":"","admin1":"ENG","admin2":"J6","admin3":"00EM141","admin4":"","population":0,"elevation":0,"gtopo30":137,"timezone":"Europe/London","moddate":"2017-06-22T00:00:00.000Z"},{"geonameid":2640755,"name":"Ovingham","asciiname":"Ovingham","alternatenames":"Ovingham","latitude":"54.9705400","longitude":"-1.8654700","fclass":"P","fcode":"PPL","country":"GB","cc2":"","admin1":"ENG","admin2":"J6","admin3":"00EM123","admin4":"","population":0,"elevation":0,"gtopo30":24,"timezone":"Europe/London","moddate":"2011-03-03T00:00:00.000Z"},{"geonameid":2640517,"name":"Pegswood","asciiname":"Pegswood","alternatenames":"","latitude":"55.1793000","longitude":"-1.6452500","fclass":"P","fcode":"PPL","country":"GB","cc2":"","admin1":"ENG","admin2":"J6","admin3":"00EM125","admin4":"","population":3280,"elevation":0,"gtopo30":58,"timezone":"Europe/London","moddate":"2017-06-12T00:00:00.000Z"},{"geonameid":2640131,"name":"Ponteland","asciiname":"Ponteland","alternatenames":"","latitude":"55.0502400","longitude":"-1.7453200","fclass":"P","fcode":"PPL","country":"GB","cc2":"","admin1":"ENG","admin2":"J6","admin3":"00EM127","admin4":"","population":10135,"elevation":0,"gtopo30":63,"timezone":"Europe/London","moddate":"2017-06-12T00:00:00.000Z"},{"geonameid":2639931,"name":"Prendwick","asciiname":"Prendwick","alternatenames":"Premtwick,Prendwick,Prentwick","latitude":"55.4044600","longitude":"-1.9976000","fclass":"P","fcode":"PPL","country":"GB","cc2":"","admin1":"ENG","admin2":"J6","admin3":"00EM006","admin4":"","population":0,"elevation":0,"gtopo30":163,"timezone":"Europe/London","moddate":"2011-03-03T00:00:00.000Z"},{"geonameid":2639911,"name":"Preston","asciiname":"Preston","alternatenames":"","latitude":"55.5227000","longitude":"-1.7093600","fclass":"P","fcode":"PPL","country":"GB","cc2":"","admin1":"ENG","admin2":"J6","admin3":"00EM053","admin4":"","population":0,"elevation":0,"gtopo30":58,"timezone":"Europe/London","moddate":"2017-06-12T00:00:00.000Z"},{"geonameid":2639874,"name":"Prudhoe","asciiname":"Prudhoe","alternatenames":"prwdw,پرودو","latitude":"54.9615400","longitude":"-1.8516800","fclass":"P","fcode":"PPL","country":"GB","cc2":"","admin1":"ENG","admin2":"J6","admin3":"00EM128","admin4":"","population":12075,"elevation":0,"gtopo30":99,"timezone":"Europe/London","moddate":"2017-06-12T00:00:00.000Z"},{"geonameid":8299845,"name":"Riding Mill","asciiname":"Riding Mill","alternatenames":"Riding Mill","latitude":"54.9486600","longitude":"-1.9731600","fclass":"P","fcode":"PPL","country":"GB","cc2":"","admin1":"ENG","admin2":"J6","admin3":"00EM028","admin4":"","population":966,"elevation":0,"gtopo30":33,"timezone":"Europe/London","moddate":"2017-06-12T00:00:00.000Z"},{"geonameid":2639370,"name":"Ridingmill","asciiname":"Ridingmill","alternatenames":"Riding,Ridingmill","latitude":"54.9333300","longitude":"-1.9666700","fclass":"P","fcode":"PPL","country":"GB","cc2":"GB","admin1":"ENG","admin2":"J6","admin3":"00EM029","admin4":"","population":0,"elevation":0,"gtopo30":138,"timezone":"Europe/London","moddate":"2016-06-22T00:00:00.000Z"},{"geonameid":2639366,"name":"Ridsdale","asciiname":"Ridsdale","alternatenames":"","latitude":"55.1541200","longitude":"-2.1445000","fclass":"P","fcode":"PPL","country":"GB","cc2":"","admin1":"ENG","admin2":"J6","admin3":"00EM041","admin4":"","population":0,"elevation":0,"gtopo30":273,"timezone":"Europe/London","moddate":"2011-03-03T00:00:00.000Z"},{"geonameid":2639267,"name":"Rochester","asciiname":"Rochester","alternatenames":"","latitude":"55.2752000","longitude":"-2.2649000","fclass":"P","fcode":"PPLA3","country":"GB","cc2":"","admin1":"ENG","admin2":"J6","admin3":"00EM130","admin4":"","population":0,"elevation":0,"gtopo30":186,"timezone":"Europe/London","moddate":"2012-11-20T00:00:00.000Z"},{"geonameid":2639263,"name":"Rock","asciiname":"Rock","alternatenames":"Rock","latitude":"55.4752300","longitude":"-1.6811700","fclass":"P","fcode":"PPL","country":"GB","cc2":"","admin1":"ENG","admin2":"J6","admin3":"00EM129","admin4":"","population":0,"elevation":0,"gtopo30":88,"timezone":"Europe/London","moddate":"2017-06-12T00:00:00.000Z"},{"geonameid":2639101,"name":"Rothbury","asciiname":"Rothbury","alternatenames":"rwtbwry,روتبوری","latitude":"55.3105900","longitude":"-1.9084500","fclass":"P","fcode":"PPLA3","country":"GB","cc2":"","admin1":"ENG","admin2":"J6","admin3":"00EM132","admin4":"","population":2326,"elevation":0,"gtopo30":84,"timezone":"Europe/London","moddate":"2017-06-12T00:00:00.000Z"},{"geonameid":2639075,"name":"Rothley","asciiname":"Rothley","alternatenames":"","latitude":"55.1833300","longitude":"-1.9166700","fclass":"P","fcode":"PPLA3","country":"GB","cc2":"","admin1":"ENG","admin2":"J6","admin3":"00EM133","admin4":"","population":0,"elevation":0,"gtopo30":172,"timezone":"Europe/London","moddate":"2011-07-31T00:00:00.000Z"},{"geonameid":2638916,"name":"Ryal","asciiname":"Ryal","alternatenames":"Ryal,Ryall","latitude":"55.0629000","longitude":"-1.9783600","fclass":"P","fcode":"PPL","country":"GB","cc2":"","admin1":"ENG","admin2":"J6","admin3":"00EM104","admin4":"","population":0,"elevation":0,"gtopo30":212,"timezone":"Europe/London","moddate":"2011-03-03T00:00:00.000Z"},{"geonameid":2638583,"name":"Sandhoe","asciiname":"Sandhoe","alternatenames":"","latitude":"54.9910100","longitude":"-2.0477900","fclass":"P","fcode":"PPL","country":"GB","cc2":"","admin1":"ENG","admin2":"J6","admin3":"00EM134","admin4":"","population":0,"elevation":0,"gtopo30":138,"timezone":"Europe/London","moddate":"2011-03-03T00:00:00.000Z"},{"geonameid":11550998,"name":"Scotland Gate","asciiname":"Scotland Gate","alternatenames":"","latitude":"55.1554800","longitude":"-1.6047800","fclass":"P","fcode":"PPL","country":"GB","cc2":"","admin1":"ENG","admin2":"J6","admin3":"00EM118","admin4":"","population":0,"elevation":0,"gtopo30":30,"timezone":"Europe/London","moddate":"2017-06-08T00:00:00.000Z"},{"geonameid":6269319,"name":"Scremerston","asciiname":"Scremerston","alternatenames":"","latitude":"55.7356600","longitude":"-1.9912700","fclass":"P","fcode":"PPL","country":"GB","cc2":"","admin1":"ENG","admin2":"J6","admin3":"00EM011","admin4":"","population":0,"elevation":0,"gtopo30":72,"timezone":"Europe/London","moddate":"2016-06-22T00:00:00.000Z"},{"geonameid":2638301,"name":"Seahouses","asciiname":"Seahouses","alternatenames":"","latitude":"55.5806300","longitude":"-1.6549700","fclass":"P","fcode":"PPL","country":"GB","cc2":"","admin1":"ENG","admin2":"J6","admin3":"00EM119","admin4":"","population":1959,"elevation":0,"gtopo30":16,"timezone":"Europe/London","moddate":"2017-06-12T00:00:00.000Z"},{"geonameid":2638273,"name":"Seaton Delaval","asciiname":"Seaton Delaval","alternatenames":"","latitude":"55.0719600","longitude":"-1.5260900","fclass":"P","fcode":"PPL","country":"GB","cc2":"","admin1":"ENG","admin2":"J6","admin3":"00EM167","admin4":"","population":9350,"elevation":0,"gtopo30":38,"timezone":"Europe/London","moddate":"2017-06-12T00:00:00.000Z"},{"geonameid":3235950,"name":"Seaton Sluice","asciiname":"Seaton Sluice","alternatenames":"Seaton Sluice","latitude":"55.0866700","longitude":"-1.4847200","fclass":"P","fcode":"PPL","country":"GB","cc2":"","admin1":"ENG","admin2":"J6","admin3":"00EM167","admin4":"","population":0,"elevation":0,"gtopo30":15,"timezone":"Europe/London","moddate":"2017-12-15T00:00:00.000Z"},{"geonameid":2638248,"name":"Seghill","asciiname":"Seghill","alternatenames":"","latitude":"55.0622500","longitude":"-1.5502700","fclass":"P","fcode":"PPL","country":"GB","cc2":"","admin1":"ENG","admin2":"J6","admin3":"00EM167","admin4":"","population":2990,"elevation":0,"gtopo30":41,"timezone":"Europe/London","moddate":"2017-06-12T00:00:00.000Z"},{"geonameid":2638119,"name":"Sharperton","asciiname":"Sharperton","alternatenames":"","latitude":"55.3289600","longitude":"-2.0693200","fclass":"P","fcode":"PPL","country":"GB","cc2":"","admin1":"ENG","admin2":"J6","admin3":"00EM066","admin4":"","population":0,"elevation":0,"gtopo30":137,"timezone":"Europe/London","moddate":"2011-03-03T00:00:00.000Z"},{"geonameid":11550997,"name":"Sheepwash","asciiname":"Sheepwash","alternatenames":"","latitude":"55.1718100","longitude":"-1.6015100","fclass":"P","fcode":"PPL","country":"GB","cc2":"","admin1":"ENG","admin2":"J6","admin3":"00EM012","admin4":"","population":0,"elevation":0,"gtopo30":31,"timezone":"Europe/London","moddate":"2017-06-08T00:00:00.000Z"},{"geonameid":2637984,"name":"Shilbottle","asciiname":"Shilbottle","alternatenames":"","latitude":"55.3709900","longitude":"-1.6882000","fclass":"P","fcode":"PPL","country":"GB","cc2":"","admin1":"ENG","admin2":"J6","admin3":"00EM135","admin4":"","population":1834,"elevation":0,"gtopo30":126,"timezone":"Europe/London","moddate":"2017-06-12T00:00:00.000Z"},{"geonameid":2637823,"name":"Simonburn","asciiname":"Simonburn","alternatenames":"Simonburn,Simondburn","latitude":"55.0574400","longitude":"-2.2030100","fclass":"P","fcode":"PPL","country":"GB","cc2":"","admin1":"ENG","admin2":"J6","admin3":"00EM138","admin4":"","population":0,"elevation":0,"gtopo30":120,"timezone":"Europe/London","moddate":"2011-03-03T00:00:00.000Z"},{"geonameid":2637676,"name":"Slaggyford","asciiname":"Slaggyford","alternatenames":"","latitude":"54.8663200","longitude":"-2.5036900","fclass":"P","fcode":"PPL","country":"GB","cc2":"","admin1":"ENG","admin2":"J6","admin3":"00EM094","admin4":"","population":0,"elevation":0,"gtopo30":207,"timezone":"Europe/London","moddate":"2011-03-03T00:00:00.000Z"},{"geonameid":2637671,"name":"Slaley","asciiname":"Slaley","alternatenames":"","latitude":"54.9136800","longitude":"-2.0371100","fclass":"P","fcode":"PPLA3","country":"GB","cc2":"","admin1":"ENG","admin2":"J6","admin3":"00EM139","admin4":"","population":711,"elevation":0,"gtopo30":209,"timezone":"Europe/London","moddate":"2017-06-12T00:00:00.000Z"},{"geonameid":2637612,"name":"Smeafield","asciiname":"Smeafield","alternatenames":"","latitude":"55.6322400","longitude":"-1.8540100","fclass":"P","fcode":"PPL","country":"GB","cc2":"","admin1":"ENG","admin2":"J6","admin3":"00EM095","admin4":"","population":0,"elevation":0,"gtopo30":22,"timezone":"Europe/London","moddate":"2011-03-03T00:00:00.000Z"},{"geonameid":2637577,"name":"Snitter","asciiname":"Snitter","alternatenames":"Snitter","latitude":"55.3248400","longitude":"-1.9623100","fclass":"P","fcode":"PPL","country":"GB","cc2":"","admin1":"ENG","admin2":"J6","admin3":"00EM140","admin4":"","population":0,"elevation":0,"gtopo30":126,"timezone":"Europe/London","moddate":"2011-03-03T00:00:00.000Z"},{"geonameid":2637456,"name":"South Charlton","asciiname":"South Charlton","alternatenames":"","latitude":"55.4758000","longitude":"-1.7421100","fclass":"P","fcode":"PPL","country":"GB","cc2":"","admin1":"ENG","admin2":"J6","admin3":"00EM052","admin4":"","population":0,"elevation":0,"gtopo30":109,"timezone":"Europe/London","moddate":"2011-03-03T00:00:00.000Z"},{"geonameid":2637217,"name":"Spittal","asciiname":"Spittal","alternatenames":"Spital,Spittal","latitude":"55.7582800","longitude":"-1.9942800","fclass":"P","fcode":"PPL","country":"GB","cc2":"GB","admin1":"ENG","admin2":"J6","admin3":"00EM011","admin4":"","population":0,"elevation":0,"gtopo30":9,"timezone":"Europe/London","moddate":"2019-09-27T00:00:00.000Z"},{"geonameid":2637135,"name":"Stagshaw Bank","asciiname":"Stagshaw Bank","alternatenames":"","latitude":"55.0166700","longitude":"-2.0166700","fclass":"P","fcode":"PPL","country":"GB","cc2":"","admin1":"ENG","admin2":"J6","admin3":"00EM039","admin4":"","population":0,"elevation":0,"gtopo30":196,"timezone":"Europe/London","moddate":"2016-06-22T00:00:00.000Z"},{"geonameid":11550994,"name":"Stakeford","asciiname":"Stakeford","alternatenames":"","latitude":"55.1611000","longitude":"-1.5752900","fclass":"P","fcode":"PPL","country":"GB","cc2":"","admin1":"ENG","admin2":"J6","admin3":"00EM118","admin4":"","population":9636,"elevation":0,"gtopo30":24,"timezone":"Europe/London","moddate":"2017-06-12T00:00:00.000Z"},{"geonameid":2637101,"name":"Stamfordham","asciiname":"Stamfordham","alternatenames":"","latitude":"55.0433500","longitude":"-1.8797800","fclass":"P","fcode":"PPL","country":"GB","cc2":"","admin1":"ENG","admin2":"J6","admin3":"00EM141","admin4":"","population":347,"elevation":0,"gtopo30":131,"timezone":"Europe/London","moddate":"2017-06-12T00:00:00.000Z"},{"geonameid":8199370,"name":"Stannersburn","asciiname":"Stannersburn","alternatenames":"","latitude":"55.1727700","longitude":"-2.4381100","fclass":"P","fcode":"PPL","country":"GB","cc2":"","admin1":"ENG","admin2":"J6","admin3":"00EM058","admin4":"","population":0,"elevation":0,"gtopo30":149,"timezone":"Europe/London","moddate":"2012-02-21T00:00:00.000Z"},{"geonameid":2637057,"name":"Stannington","asciiname":"Stannington","alternatenames":"","latitude":"55.1086200","longitude":"-1.6685500","fclass":"P","fcode":"PPLA3","country":"GB","cc2":"","admin1":"ENG","admin2":"J6","admin3":"00EM142","admin4":"","population":427,"elevation":0,"gtopo30":63,"timezone":"Europe/London","moddate":"2017-06-12T00:00:00.000Z"},{"geonameid":2636880,"name":"Stocksfield","asciiname":"Stocksfield","alternatenames":"Stocksfield","latitude":"54.9402600","longitude":"-1.9039800","fclass":"P","fcode":"PPL","country":"GB","cc2":"","admin1":"ENG","admin2":"J6","admin3":"00EM029","admin4":"","population":2616,"elevation":0,"gtopo30":74,"timezone":"Europe/London","moddate":"2017-06-13T00:00:00.000Z"},{"geonameid":2636599,"name":"Studdon","asciiname":"Studdon","alternatenames":"","latitude":"54.8666700","longitude":"-2.2500000","fclass":"P","fcode":"PPL","country":"GB","cc2":"","admin1":"ENG","admin2":"J6","admin3":"00EM005","admin4":"","population":0,"elevation":0,"gtopo30":270,"timezone":"Europe/London","moddate":"2016-06-22T00:00:00.000Z"},{"geonameid":2636421,"name":"Swarland","asciiname":"Swarland","alternatenames":"","latitude":"55.3240300","longitude":"-1.7448100","fclass":"P","fcode":"PPL","country":"GB","cc2":"","admin1":"ENG","admin2":"J6","admin3":"00EM116","admin4":"","population":634,"elevation":0,"gtopo30":150,"timezone":"Europe/London","moddate":"2017-06-12T00:00:00.000Z"},{"geonameid":2636380,"name":"Swinhoe","asciiname":"Swinhoe","alternatenames":"","latitude":"55.5489500","longitude":"-1.6687200","fclass":"P","fcode":"PPL","country":"GB","cc2":"","admin1":"ENG","admin2":"J6","admin3":"00EM016","admin4":"","population":0,"elevation":0,"gtopo30":29,"timezone":"Europe/London","moddate":"2011-03-03T00:00:00.000Z"},{"geonameid":2636017,"name":"Thockrington","asciiname":"Thockrington","alternatenames":"Thockrington,Throckington","latitude":"55.1053900","longitude":"-2.0642300","fclass":"P","fcode":"PPL","country":"GB","cc2":"","admin1":"ENG","admin2":"J6","admin3":"00EM015","admin4":"","population":0,"elevation":0,"gtopo30":204,"timezone":"Europe/London","moddate":"2011-03-03T00:00:00.000Z"},{"geonameid":10377330,"name":"Thorney Gate","asciiname":"Thorney Gate","alternatenames":"","latitude":"54.9009200","longitude":"-2.2667000","fclass":"P","fcode":"PPL","country":"GB","cc2":"","admin1":"ENG","admin2":"J6","admin3":"00EM005","admin4":"","population":0,"elevation":0,"gtopo30":228,"timezone":"Europe/London","moddate":"2015-07-18T00:00:00.000Z"},{"geonameid":2635989,"name":"Thorngrafton","asciiname":"Thorngrafton","alternatenames":"","latitude":"54.9826300","longitude":"-2.3401400","fclass":"P","fcode":"PPL","country":"GB","cc2":"","admin1":"ENG","admin2":"J6","admin3":"00EM014","admin4":"","population":0,"elevation":0,"gtopo30":159,"timezone":"Europe/London","moddate":"2011-03-03T00:00:00.000Z"},{"geonameid":2635914,"name":"Thropton","asciiname":"Thropton","alternatenames":"","latitude":"55.3145900","longitude":"-1.9575900","fclass":"P","fcode":"PPL","country":"GB","cc2":"","admin1":"ENG","admin2":"J6","admin3":"00EM146","admin4":"","population":458,"elevation":0,"gtopo30":91,"timezone":"Europe/London","moddate":"2017-06-12T00:00:00.000Z"},{"geonameid":2635314,"name":"Tweedmouth","asciiname":"Tweedmouth","alternatenames":"","latitude":"55.7662000","longitude":"-2.0120900","fclass":"P","fcode":"PPL","country":"GB","cc2":"","admin1":"ENG","admin2":"J6","admin3":"00EM020","admin4":"","population":0,"elevation":0,"gtopo30":13,"timezone":"Europe/London","moddate":"2011-03-03T00:00:00.000Z"},{"geonameid":2635201,"name":"Ulgham","asciiname":"Ulgham","alternatenames":"Ulgham","latitude":"55.2247400","longitude":"-1.6363600","fclass":"P","fcode":"PPL","country":"GB","cc2":"","admin1":"ENG","admin2":"J6","admin3":"00EM149","admin4":"","population":0,"elevation":0,"gtopo30":52,"timezone":"Europe/London","moddate":"2011-03-03T00:00:00.000Z"},{"geonameid":2634877,"name":"Wall","asciiname":"Wall","alternatenames":"","latitude":"55.0000000","longitude":"-2.1333300","fclass":"P","fcode":"PPLA3","country":"GB","cc2":"","admin1":"ENG","admin2":"J6","admin3":"00EM150","admin4":"","population":0,"elevation":0,"gtopo30":49,"timezone":"Europe/London","moddate":"2011-07-31T00:00:00.000Z"},{"geonameid":2634870,"name":"Wall Houses","asciiname":"Wall Houses","alternatenames":"","latitude":"55.0107700","longitude":"-1.9402400","fclass":"P","fcode":"PPL","country":"GB","cc2":"","admin1":"ENG","admin2":"J6","admin3":"00EM104","admin4":"","population":0,"elevation":0,"gtopo30":160,"timezone":"Europe/London","moddate":"2011-03-03T00:00:00.000Z"},{"geonameid":2634790,"name":"Warden","asciiname":"Warden","alternatenames":"","latitude":"54.9833300","longitude":"-2.1333300","fclass":"P","fcode":"PPLA3","country":"GB","cc2":"","admin1":"ENG","admin2":"J6","admin3":"00EM152","admin4":"","population":0,"elevation":0,"gtopo30":45,"timezone":"Europe/London","moddate":"2011-07-31T00:00:00.000Z"},{"geonameid":2634775,"name":"Warenford","asciiname":"Warenford","alternatenames":"","latitude":"55.5498300","longitude":"-1.7844200","fclass":"P","fcode":"PPL","country":"GB","cc2":"","admin1":"ENG","admin2":"J6","admin3":"00EM003","admin4":"","population":0,"elevation":0,"gtopo30":77,"timezone":"Europe/London","moddate":"2011-03-03T00:00:00.000Z"},{"geonameid":2634766,"name":"Wark","asciiname":"Wark","alternatenames":"","latitude":"55.6407400","longitude":"-2.2802600","fclass":"P","fcode":"PPL","country":"GB","cc2":"","admin1":"ENG","admin2":"J6","admin3":"00EM033","admin4":"","population":0,"elevation":0,"gtopo30":44,"timezone":"Europe/London","moddate":"2017-12-15T00:00:00.000Z"},{"geonameid":2634767,"name":"Wark","asciiname":"Wark","alternatenames":"","latitude":"55.0862300","longitude":"-2.2226700","fclass":"P","fcode":"PPL","country":"GB","cc2":"","admin1":"ENG","admin2":"J6","admin3":"00EM153","admin4":"","population":0,"elevation":0,"gtopo30":97,"timezone":"Europe/London","moddate":"2016-06-22T00:00:00.000Z"},{"geonameid":2634762,"name":"Warkworth","asciiname":"Warkworth","alternatenames":"Warkworth","latitude":"55.3500000","longitude":"-1.6166700","fclass":"P","fcode":"PPLA3","country":"GB","cc2":"","admin1":"ENG","admin2":"J6","admin3":"00EM154","admin4":"","population":1346,"elevation":0,"gtopo30":27,"timezone":"Europe/London","moddate":"2017-06-12T00:00:00.000Z"},{"geonameid":2634473,"name":"West Chevington","asciiname":"West Chevington","alternatenames":"","latitude":"55.2696000","longitude":"-1.6414600","fclass":"P","fcode":"PPL","country":"GB","cc2":"","admin1":"ENG","admin2":"J6","admin3":"00EM148","admin4":"","population":0,"elevation":0,"gtopo30":34,"timezone":"Europe/London","moddate":"2011-03-03T00:00:00.000Z"},{"geonameid":2634298,"name":"West Ord","asciiname":"West Ord","alternatenames":"","latitude":"55.7500000","longitude":"-2.0666700","fclass":"P","fcode":"PPL","country":"GB","cc2":"","admin1":"ENG","admin2":"J6","admin3":"00EM121","admin4":"","population":0,"elevation":0,"gtopo30":42,"timezone":"Europe/London","moddate":"2016-06-22T00:00:00.000Z"},{"geonameid":2634253,"name":"West Thirston","asciiname":"West Thirston","alternatenames":"","latitude":"55.2949400","longitude":"-1.7092600","fclass":"P","fcode":"PPL","country":"GB","cc2":"","admin1":"ENG","admin2":"J6","admin3":"00EM145","admin4":"","population":0,"elevation":0,"gtopo30":53,"timezone":"Europe/London","moddate":"2011-03-03T00:00:00.000Z"},{"geonameid":2634227,"name":"West Woodburn","asciiname":"West Woodburn","alternatenames":"West Woodburn,Woodburn","latitude":"55.1763700","longitude":"-2.1709600","fclass":"P","fcode":"PPL","country":"GB","cc2":"","admin1":"ENG","admin2":"J6","admin3":"00EM041","admin4":"","population":0,"elevation":0,"gtopo30":127,"timezone":"Europe/London","moddate":"2011-03-03T00:00:00.000Z"},{"geonameid":2634331,"name":"Westnewton","asciiname":"Westnewton","alternatenames":"Westnewton","latitude":"55.5500000","longitude":"-2.1500000","fclass":"P","fcode":"PPL","country":"GB","cc2":"","admin1":"ENG","admin2":"J6","admin3":"00EM092","admin4":"","population":0,"elevation":0,"gtopo30":136,"timezone":"Europe/London","moddate":"2016-06-22T00:00:00.000Z"},{"geonameid":2634188,"name":"Whalton","asciiname":"Whalton","alternatenames":"Whalton","latitude":"55.1269900","longitude":"-1.7975200","fclass":"P","fcode":"PPL","country":"GB","cc2":"","admin1":"ENG","admin2":"J6","admin3":"00EM157","admin4":"","population":0,"elevation":0,"gtopo30":106,"timezone":"Europe/London","moddate":"2011-03-03T00:00:00.000Z"},{"geonameid":2634047,"name":"Whitfield","asciiname":"Whitfield","alternatenames":"Whitfield","latitude":"54.9000000","longitude":"-2.3333300","fclass":"P","fcode":"PPL","country":"GB","cc2":"","admin1":"ENG","admin2":"J6","admin3":"00EM005","admin4":"","population":0,"elevation":0,"gtopo30":323,"timezone":"Europe/London","moddate":"2016-06-22T00:00:00.000Z"},{"geonameid":2634018,"name":"Whittingham","asciiname":"Whittingham","alternatenames":"","latitude":"55.4011500","longitude":"-1.8934000","fclass":"P","fcode":"PPLA3","country":"GB","cc2":"","admin1":"ENG","admin2":"J6","admin3":"00EM158","admin4":"","population":280,"elevation":0,"gtopo30":74,"timezone":"Europe/London","moddate":"2017-06-13T00:00:00.000Z"},{"geonameid":2634003,"name":"Whittonstall","asciiname":"Whittonstall","alternatenames":"","latitude":"54.9091900","longitude":"-1.8884500","fclass":"P","fcode":"PPL","country":"GB","cc2":"","admin1":"ENG","admin2":"J6","admin3":"00EM137","admin4":"","population":0,"elevation":0,"gtopo30":220,"timezone":"Europe/London","moddate":"2011-03-03T00:00:00.000Z"},{"geonameid":2633962,"name":"Widdrington","asciiname":"Widdrington","alternatenames":"","latitude":"55.2500000","longitude":"-1.5833300","fclass":"P","fcode":"PPL","country":"GB","cc2":"","admin1":"ENG","admin2":"J6","admin3":"00EM162","admin4":"","population":0,"elevation":0,"gtopo30":17,"timezone":"Europe/London","moddate":"2016-06-22T00:00:00.000Z"},{"geonameid":6269321,"name":"Wideopen","asciiname":"Wideopen","alternatenames":"","latitude":"55.0451400","longitude":"-1.6224600","fclass":"P","fcode":"PPL","country":"GB","cc2":"","admin1":"ENG","admin2":"J6","admin3":"","admin4":"","population":8976,"elevation":0,"gtopo30":69,"timezone":"Europe/London","moddate":"2017-06-12T00:00:00.000Z"},{"geonameid":2633825,"name":"Wingates","asciiname":"Wingates","alternatenames":"Wingates","latitude":"55.2500000","longitude":"-1.8500000","fclass":"P","fcode":"PPL","country":"GB","cc2":"","admin1":"ENG","admin2":"J6","admin3":"00EM120","admin4":"","population":0,"elevation":0,"gtopo30":202,"timezone":"Europe/London","moddate":"2019-02-17T00:00:00.000Z"},{"geonameid":2633642,"name":"Woodhorn","asciiname":"Woodhorn","alternatenames":"","latitude":"55.1934800","longitude":"-1.5332900","fclass":"P","fcode":"PPL","country":"GB","cc2":"","admin1":"ENG","admin2":"J6","admin3":"00EM113","admin4":"","population":0,"elevation":0,"gtopo30":17,"timezone":"Europe/London","moddate":"2011-03-03T00:00:00.000Z"},{"geonameid":2633606,"name":"Wooler","asciiname":"Wooler","alternatenames":"Wooler,wwlr,وولر","latitude":"55.5475500","longitude":"-2.0118600","fclass":"P","fcode":"PPL","country":"GB","cc2":"","admin1":"ENG","admin2":"J6","admin3":"00EM163","admin4":"","population":1983,"elevation":0,"gtopo30":56,"timezone":"Europe/London","moddate":"2017-06-12T00:00:00.000Z"},{"geonameid":2633581,"name":"Wooperton","asciiname":"Wooperton","alternatenames":"","latitude":"55.4766800","longitude":"-1.9368500","fclass":"P","fcode":"PPL","country":"GB","cc2":"","admin1":"ENG","admin2":"J6","admin3":"00EM131","admin4":"","population":0,"elevation":0,"gtopo30":87,"timezone":"Europe/London","moddate":"2011-03-03T00:00:00.000Z"},{"geonameid":2633453,"name":"Wylam","asciiname":"Wylam","alternatenames":"Wylam","latitude":"54.9765400","longitude":"-1.8218700","fclass":"P","fcode":"PPL","country":"GB","cc2":"","admin1":"ENG","admin2":"J6","admin3":"00EM164","admin4":"","population":1412,"elevation":0,"gtopo30":26,"timezone":"Europe/London","moddate":"2017-06-12T00:00:00.000Z"},{"geonameid":2633367,"name":"Yetlington","asciiname":"Yetlington","alternatenames":"","latitude":"55.3819000","longitude":"-1.9685600","fclass":"P","fcode":"PPL","country":"GB","cc2":"","admin1":"ENG","admin2":"J6","admin3":"00EM031","admin4":"","population":0,"elevation":0,"gtopo30":190,"timezone":"Europe/London","moddate":"2011-03-03T00:00:00.000Z"}],"admin3":[{"geonameid":7291368,"name":"Acklington","admin3":"00EM001"},{"geonameid":7296745,"name":"Acomb","admin3":"00EM002"},{"geonameid":7290888,"name":"Adderstone with Lucker","admin3":"00EM003"},{"geonameid":7291369,"name":"Akeld","admin3":"00EM004"},{"geonameid":7290889,"name":"Allendale","admin3":"00EM005"},{"geonameid":7296746,"name":"Alnham","admin3":"00EM006"},{"geonameid":7291370,"name":"Alnmouth","admin3":"00EM007"},{"geonameid":7301990,"name":"Alnwick","admin3":"00EM008"},{"geonameid":7291371,"name":"Alwinton","admin3":"00EM009"},{"geonameid":7301991,"name":"Amble By the Sea","admin3":"00EM010"},{"geonameid":7291372,"name":"Ancroft","admin3":"00EM011"},{"geonameid":7296747,"name":"Ashington","admin3":"00EM012"},{"geonameid":7290890,"name":"Bamburgh","admin3":"00EM013"},{"geonameid":7290891,"name":"Bardon Mill","admin3":"00EM014"},{"geonameid":7300674,"name":"Bavington","admin3":"00EM015"},{"geonameid":7296748,"name":"Beadnell","admin3":"00EM016"},{"geonameid":7300675,"name":"Belford","admin3":"00EM017"},{"geonameid":7300676,"name":"Bellingham","admin3":"00EM018"},{"geonameid":7300204,"name":"Belsay","admin3":"00EM019"},{"geonameid":7301617,"name":"Berwick-upon-Tweed","admin3":"00EM020"},{"geonameid":7301992,"name":"Bewick","admin3":"00EM021"},{"geonameid":7301993,"name":"Biddlestone","admin3":"00EM022"},{"geonameid":7293982,"name":"Birtley","admin3":"00EM023"},{"geonameid":7291373,"name":"Blanchland","admin3":"00EM024"},{"geonameid":7291483,"name":"Blyth","admin3":"00EM165"},{"geonameid":7291374,"name":"Bowsden","admin3":"00EM025"},{"geonameid":7300677,"name":"Branxton","admin3":"00EM026"},{"geonameid":7301994,"name":"Brinkburn","admin3":"00EM027"},{"geonameid":7291512,"name":"Broomhaugh and Riding","admin3":"00EM028"},{"geonameid":7296749,"name":"Broomley and Stocksfield","admin3":"00EM029"},{"geonameid":7296750,"name":"Bywell","admin3":"00EM030"},{"geonameid":7291375,"name":"Callaly","admin3":"00EM031"},{"geonameid":7300678,"name":"Capheaton","admin3":"00EM032"},{"geonameid":7291376,"name":"Carham","admin3":"00EM033"},{"geonameid":7291377,"name":"Cartington","admin3":"00EM034"},{"geonameid":7291378,"name":"Chatton","admin3":"00EM035"},{"geonameid":7291379,"name":"Chillingham","admin3":"00EM036"},{"geonameid":7296751,"name":"Chollerton","admin3":"00EM037"},{"geonameid":7293983,"name":"Coanwood","admin3":"00EM038"},{"geonameid":7300679,"name":"Corbridge","admin3":"00EM039"},{"geonameid":7301995,"name":"Cornhill-on-Tweed","admin3":"00EM040"},{"geonameid":7293984,"name":"Corsenside","admin3":"00EM041"},{"geonameid":7300693,"name":"Cramlington","admin3":"00EM166"},{"geonameid":7300680,"name":"Craster","admin3":"00EM042"},{"geonameid":7291380,"name":"Cresswell","admin3":"00EM043"},{"geonameid":7291382,"name":"Denwick","admin3":"00EM044"},{"geonameid":7291381,"name":"Doddington","admin3":"00EM045"},{"geonameid":7301996,"name":"Duddo","admin3":"00EM046"},{"geonameid":7301997,"name":"Earle","admin3":"00EM047"},{"geonameid":7300681,"name":"Easington","admin3":"00EM048"},{"geonameid":7301998,"name":"East Bedlington","admin3":"00EM049"},{"geonameid":7301999,"name":"East Chevington","admin3":"00EM050"},{"geonameid":7296752,"name":"Edlingham","admin3":"00EM051"},{"geonameid":7300682,"name":"Eglingham","admin3":"00EM052"},{"geonameid":7302000,"name":"Ellingham","admin3":"00EM053"},{"geonameid":7290725,"name":"Ellington and Linton","admin3":"00EM054"},{"geonameid":7291383,"name":"Elsdon","admin3":"00EM055"},{"geonameid":7291384,"name":"Embleton","admin3":"00EM056"},{"geonameid":7291385,"name":"Ewart","admin3":"00EM057"},{"geonameid":7302001,"name":"Falstone","admin3":"00EM058"},{"geonameid":7291386,"name":"Featherstone","admin3":"00EM059"},{"geonameid":7291387,"name":"Felton","admin3":"00EM060"},{"geonameid":7302002,"name":"Ford","admin3":"00EM061"},{"geonameid":7291388,"name":"Glanton","admin3":"00EM062"},{"geonameid":7302003,"name":"Greenhead","admin3":"00EM063"},{"geonameid":7302004,"name":"Greystead","admin3":"00EM064"},{"geonameid":7300683,"name":"Haltwhistle","admin3":"00EM065"},{"geonameid":7291389,"name":"Harbottle","admin3":"00EM066"},{"geonameid":7293985,"name":"Hartburn","admin3":"00EM067"},{"geonameid":7291390,"name":"Hartleyburn","admin3":"00EM068"},{"geonameid":7293986,"name":"Hauxley","admin3":"00EM069"},{"geonameid":7302005,"name":"Haydon","admin3":"00EM070"},{"geonameid":7291796,"name":"Healey","admin3":"00EM071"},{"geonameid":7300684,"name":"Hebron","admin3":"00EM072"},{"geonameid":7290726,"name":"Heddon-on-the-Wall","admin3":"00EM073"},{"geonameid":7291392,"name":"Hedgeley","admin3":"00EM074"},{"geonameid":7300685,"name":"Hedley","admin3":"00EM075"},{"geonameid":7291393,"name":"Henshaw","admin3":"00EM076"},{"geonameid":7300686,"name":"Hepple","admin3":"00EM077"},{"geonameid":7296753,"name":"Hepscott","admin3":"00EM078"},{"geonameid":7291394,"name":"Hesleyhurst","admin3":"00EM079"},{"geonameid":7291395,"name":"Hexham","admin3":"00EM080"},{"geonameid":7291396,"name":"Hexhamshire","admin3":"00EM081"},{"geonameid":7300687,"name":"Hexhamshire Low Quarter","admin3":"00EM082"},{"geonameid":7291397,"name":"Hollinghill","admin3":"00EM083"},{"geonameid":7297836,"name":"Holy Island","admin3":"00EM084"},{"geonameid":7296754,"name":"Horncliffe","admin3":"00EM085"},{"geonameid":7291398,"name":"Horsley","admin3":"00EM086"},{"geonameid":7296755,"name":"Humshaugh","admin3":"00EM087"},{"geonameid":7296126,"name":"Ilderton","admin3":"00EM088"},{"geonameid":7297837,"name":"Ingram","admin3":"00EM089"},{"geonameid":7297704,"name":"Kielder","admin3":"00EM090"},{"geonameid":7296127,"name":"Kilham","admin3":"00EM091"},{"geonameid":7291797,"name":"Kirknewton","admin3":"00EM092"},{"geonameid":7298817,"name":"Kirkwhelpington","admin3":"00EM093"},{"geonameid":7298818,"name":"Knaresdale with Kirkhaugh","admin3":"00EM094"},{"geonameid":7291798,"name":"Kyloe","admin3":"00EM095"},{"geonameid":7296756,"name":"Lesbury","admin3":"00EM096"},{"geonameid":7298819,"name":"Lilburn","admin3":"00EM097"},{"geonameid":7291399,"name":"Longframlington","admin3":"00EM098"},{"geonameid":7291451,"name":"Longhirst","admin3":"00EM099"},{"geonameid":7291452,"name":"Longhorsley","admin3":"00EM100"},{"geonameid":7291799,"name":"Longhoughton","admin3":"00EM101"},{"geonameid":7291800,"name":"Lowick","admin3":"00EM102"},{"geonameid":7291801,"name":"Lynemouth","admin3":"00EM103"},{"geonameid":7296757,"name":"Matfen","admin3":"00EM104"},{"geonameid":7296758,"name":"Meldon","admin3":"00EM105"},{"geonameid":7298820,"name":"Melkridge","admin3":"00EM106"},{"geonameid":7298821,"name":"Middleton","admin3":"00EM107"},{"geonameid":7298822,"name":"Milfield","admin3":"00EM108"},{"geonameid":7291802,"name":"Mitford","admin3":"00EM109"},{"geonameid":7296759,"name":"Morpeth","admin3":"00EM110"},{"geonameid":7296760,"name":"Netherton","admin3":"00EM111"},{"geonameid":7291453,"name":"Netherwitton","admin3":"00EM112"},{"geonameid":7297705,"name":"Newbiggin by the Sea","admin3":"00EM113"},{"geonameid":7291454,"name":"Newbrough","admin3":"00EM114"},{"geonameid":7291803,"name":"Newton-by-the-Sea","admin3":"00EM115"},{"geonameid":7296761,"name":"Newton-on-the-Moor and Swarland","admin3":"00EM116"},{"geonameid":2641453,"name":"Norham","admin3":"00EM117"},{"geonameid":7296762,"name":"North Bedlington","admin3":"00EM118"},{"geonameid":7298823,"name":"North Sunderland","admin3":"00EM119"},{"geonameid":7291455,"name":"Nunnykirk","admin3":"00EM120"},{"geonameid":7298824,"name":"Ord","admin3":"00EM121"},{"geonameid":7296763,"name":"Otterburn","admin3":"00EM122"},{"geonameid":7291456,"name":"Ovingham","admin3":"00EM123"},{"geonameid":7291457,"name":"Ovington","admin3":"00EM124"},{"geonameid":7296764,"name":"Pegswood","admin3":"00EM125"},{"geonameid":7291458,"name":"Plenmeller with Whitfield","admin3":"00EM126"},{"geonameid":7296765,"name":"Ponteland","admin3":"00EM127"},{"geonameid":7291459,"name":"Prudhoe","admin3":"00EM128"},{"geonameid":7296766,"name":"Rennington","admin3":"00EM129"},{"geonameid":7291470,"name":"Rochester","admin3":"00EM130"},{"geonameid":7291471,"name":"Roddam","admin3":"00EM131"},{"geonameid":7291804,"name":"Rothbury","admin3":"00EM132"},{"geonameid":7298825,"name":"Rothley","admin3":"00EM133"},{"geonameid":7298826,"name":"Sandhoe","admin3":"00EM134"},{"geonameid":7291810,"name":"Seaton Valley","admin3":"00EM167"},{"geonameid":7296767,"name":"Shilbottle","admin3":"00EM135"},{"geonameid":7291472,"name":"Shoreswood","admin3":"00EM136"},{"geonameid":7296768,"name":"Shotley Low Quarter","admin3":"00EM137"},{"geonameid":7298827,"name":"Simonburn","admin3":"00EM138"},{"geonameid":7291805,"name":"Slaley","admin3":"00EM139"},{"geonameid":7291473,"name":"Snitter","admin3":"00EM140"},{"geonameid":7291474,"name":"Stamfordham","admin3":"00EM141"},{"geonameid":7291475,"name":"Stannington","admin3":"00EM142"},{"geonameid":7291806,"name":"Tarset","admin3":"00EM143"},{"geonameid":7291476,"name":"Thirlwall","admin3":"00EM144"},{"geonameid":7296769,"name":"Thirston","admin3":"00EM145"},{"geonameid":7298828,"name":"Thropton","admin3":"00EM146"},{"geonameid":7291477,"name":"Togston","admin3":"00EM147"},{"geonameid":7300689,"name":"Tritlington and West Chevington","admin3":"00EM148"},{"geonameid":7291807,"name":"Ulgham","admin3":"00EM149"},{"geonameid":7290989,"name":"Wall","admin3":"00EM150"},{"geonameid":7300690,"name":"Wallington Demesne","admin3":"00EM151"},{"geonameid":7300691,"name":"Warden","admin3":"00EM152"},{"geonameid":7291478,"name":"Wark","admin3":"00EM153"},{"geonameid":7291808,"name":"Warkworth","admin3":"00EM154"},{"geonameid":7297838,"name":"West Allen","admin3":"00EM155"},{"geonameid":7291479,"name":"West Bedlington","admin3":"00EM156"},{"geonameid":7296770,"name":"Whalton","admin3":"00EM157"},{"geonameid":7296771,"name":"Whittingham","admin3":"00EM158"},{"geonameid":7300692,"name":"Whittington","admin3":"00EM159"},{"geonameid":7296772,"name":"Whitton and Tosson","admin3":"00EM160"},{"geonameid":7291480,"name":"Widdrington Station and Stobswood","admin3":"00EM161"},{"geonameid":7291809,"name":"Widdrington Village","admin3":"00EM162"},{"geonameid":7291481,"name":"Wooler","admin3":"00EM163"},{"geonameid":7291482,"name":"Wylam","admin3":"00EM164"}],"alternateNames":[{"alternatenameId":1626647,"geonameid":6269131,"isoLanguage":"en","alternateName":"England","isPreferredName":true,"isShortName":true,"isColloquial":false,"isHistoric":false}]},"__N_SSG":true}