{"pageProps":{"locale":"ro","admin2":{"geonameid":663204,"name":"Comuna Vărădia de Mureş","country":"RO","admin1":"02","admin2":"12572","admin3":"","latitude":"46.0461900","longitude":"22.1565100"},"admin1":{"geonameid":686253,"name":"Arad","admin1":"02"},"locations":[{"geonameid":685842,"name":"Baia","asciiname":"Baia","alternatenames":"Baia,Baja,Bája,Kisbaja","latitude":"46.0907500","longitude":"22.1746300","fclass":"P","fcode":"PPL","country":"RO","cc2":"","admin1":"02","admin2":"12572","admin3":"","admin4":"","population":175,"elevation":0,"gtopo30":221,"timezone":"Europe/Bucharest","moddate":"2013-04-21T00:00:00.000Z"},{"geonameid":675145,"name":"Julița","asciiname":"Julita","alternatenames":"Ghiulita,Ghiuliţa,Giulita,Giuliţa,Gyulato,Gyulatő,Gyulicza,Julita,Julița","latitude":"46.0392500","longitude":"22.1357600","fclass":"P","fcode":"PPL","country":"RO","cc2":"","admin1":"02","admin2":"12572","admin3":"","admin4":"","population":476,"elevation":0,"gtopo30":160,"timezone":"Europe/Bucharest","moddate":"2013-12-01T00:00:00.000Z"},{"geonameid":674291,"name":"Lupești","asciiname":"Lupesti","alternatenames":"Farkashaza,Farkasháza,Lupest,Lupesti,Lupești","latitude":"46.0693800","longitude":"22.2188800","fclass":"P","fcode":"PPL","country":"RO","cc2":"","admin1":"02","admin2":"12572","admin3":"","admin4":"","population":365,"elevation":0,"gtopo30":231,"timezone":"Europe/Bucharest","moddate":"2013-12-01T00:00:00.000Z"},{"geonameid":672276,"name":"Nicolae Bălcescu","asciiname":"Nicolae Balcescu","alternatenames":"Alsokoves,Alsóköves,Balcescu Nicolae,Bălcescu Nicolae,Gavosdia,Govojdia,Govosdia,Mocioni,Nicolae Balcescu,Nicolae Bălcescu","latitude":"46.0336800","longitude":"22.0953300","fclass":"P","fcode":"PPL","country":"RO","cc2":"","admin1":"02","admin2":"12572","admin3":"","admin4":"","population":316,"elevation":0,"gtopo30":148,"timezone":"Europe/Bucharest","moddate":"2013-04-21T00:00:00.000Z"},{"geonameid":666201,"name":"Stejar","asciiname":"Stejar","alternatenames":"Stejar,Szarvasag,Szarvaság,Szorossag,Szorosság","latitude":"46.0344300","longitude":"22.1553600","fclass":"P","fcode":"PPL","country":"RO","cc2":"","admin1":"02","admin2":"12572","admin3":"","admin4":"","population":179,"elevation":0,"gtopo30":160,"timezone":"Europe/Bucharest","moddate":"2013-04-21T00:00:00.000Z"},{"geonameid":663205,"name":"Vărădia de Mureş","asciiname":"Varadia de Mures","alternatenames":"Marosnagyvolgy,Marosnagyvölgy,Totvarad,Totvaradgya,Totvaradja,Tótvárad,Tótváradgya,Tótváradja,Valemare,Valemáre,Vallemare,Vallemáre,Varadia de Mures,Vărădia de Mureș","latitude":"46.0166700","longitude":"22.1500000","fclass":"P","fcode":"PPLA2","country":"RO","cc2":"","admin1":"02","admin2":"12572","admin3":"","admin4":"","population":2082,"elevation":0,"gtopo30":145,"timezone":"Europe/Bucharest","moddate":"2013-12-01T00:00:00.000Z"}],"admin3":[],"alternateNames":[]},"__N_SSG":true}