{"pageProps":{"locale":"ro","admin2":{"geonameid":669182,"name":"Comuna Rapoltu Mare","country":"RO","admin1":"21","admin2":"90663","admin3":"","latitude":"45.8790400","longitude":"23.1154300"},"admin1":{"geonameid":675917,"name":"Hunedoara","admin1":"21"},"locations":[{"geonameid":684532,"name":"Bobâlna","asciiname":"Bobalna","alternatenames":"Bobalna,Bobilna,Bobâlna,Bobîlna","latitude":"45.8756600","longitude":"23.1302500","fclass":"P","fcode":"PPL","country":"RO","cc2":"RO","admin1":"21","admin2":"90663","admin3":"","admin4":"","population":529,"elevation":0,"gtopo30":207,"timezone":"Europe/Bucharest","moddate":"2013-04-21T00:00:00.000Z"},{"geonameid":684315,"name":"Boiu","asciiname":"Boiu","alternatenames":"Boiu,Boiul","latitude":"45.8973600","longitude":"23.1503800","fclass":"P","fcode":"PPL","country":"RO","cc2":"RO","admin1":"21","admin2":"90663","admin3":"","admin4":"","population":207,"elevation":0,"gtopo30":262,"timezone":"Europe/Bucharest","moddate":"2013-04-21T00:00:00.000Z"},{"geonameid":682667,"name":"Cărpeniş","asciiname":"Carpenis","alternatenames":"","latitude":"45.8666700","longitude":"23.0666700","fclass":"P","fcode":"PPLX","country":"RO","cc2":"","admin1":"21","admin2":"90663","admin3":"","admin4":"","population":0,"elevation":0,"gtopo30":217,"timezone":"Europe/Bucharest","moddate":"2016-02-07T00:00:00.000Z"},{"geonameid":677989,"name":"Folt","asciiname":"Folt","alternatenames":"","latitude":"45.8761900","longitude":"23.1597200","fclass":"P","fcode":"PPL","country":"RO","cc2":"","admin1":"21","admin2":"90663","admin3":"","admin4":"","population":194,"elevation":0,"gtopo30":196,"timezone":"Europe/Bucharest","moddate":"2013-04-21T00:00:00.000Z"},{"geonameid":669184,"name":"Rapolțel","asciiname":"Rapoltel","alternatenames":"Rapoltea,Rapoltel,Rapolţel","latitude":"45.8804300","longitude":"23.0616000","fclass":"P","fcode":"PPL","country":"RO","cc2":"RO","admin1":"21","admin2":"90663","admin3":"","admin4":"","population":273,"elevation":0,"gtopo30":335,"timezone":"Europe/Bucharest","moddate":"2013-04-21T00:00:00.000Z"},{"geonameid":669183,"name":"Rapoltu Mare","asciiname":"Rapoltu Mare","alternatenames":"Rapoldul-Mare,Rapoltu Mare,Rapoltul-Mare","latitude":"45.8666700","longitude":"23.0666700","fclass":"P","fcode":"PPLA2","country":"RO","cc2":"","admin1":"21","admin2":"90663","admin3":"","admin4":"","population":2040,"elevation":0,"gtopo30":217,"timezone":"Europe/Bucharest","moddate":"2012-06-12T00:00:00.000Z"}],"admin3":[],"alternateNames":[]},"__N_SSG":true}