{"pageProps":{"locale":"ro","admin2":{"geonameid":8334778,"name":"Comuna Boiţa","country":"RO","admin1":"33","admin2":"146021","admin3":"","latitude":"45.5790500","longitude":"24.2465100"},"admin1":{"geonameid":667267,"name":"Sibiu","admin1":"33"},"locations":[{"geonameid":684318,"name":"Boița","asciiname":"Boita","alternatenames":"Boita,Boiţa","latitude":"45.6345400","longitude":"24.2603700","fclass":"P","fcode":"PPLA2","country":"RO","cc2":"","admin1":"33","admin2":"146021","admin3":"","admin4":"","population":1642,"elevation":0,"gtopo30":374,"timezone":"Europe/Bucharest","moddate":"2013-04-21T00:00:00.000Z"},{"geonameid":682587,"name":"Castelu Turnu Roşu","asciiname":"Castelu Turnu Rosu","alternatenames":"Castel Turnul Rosu,Castel Turnul Roşu,Castelu Turnu Rosu,Castelu Turnu Roşu","latitude":"45.6166700","longitude":"24.2500000","fclass":"P","fcode":"PPLX","country":"RO","cc2":"","admin1":"33","admin2":"146021","admin3":"","admin4":"","population":0,"elevation":0,"gtopo30":800,"timezone":"Europe/Bucharest","moddate":"2016-02-07T00:00:00.000Z"},{"geonameid":678514,"name":"Fabrica Tălmaciu","asciiname":"Fabrica Talmaciu","alternatenames":"","latitude":"45.6500000","longitude":"24.2666700","fclass":"P","fcode":"PPLX","country":"RO","cc2":"","admin1":"33","admin2":"146021","admin3":"","admin4":"","population":0,"elevation":0,"gtopo30":429,"timezone":"Europe/Bucharest","moddate":"2016-02-07T00:00:00.000Z"},{"geonameid":678346,"name":"Feltrineli","asciiname":"Feltrineli","alternatenames":"","latitude":"45.6500000","longitude":"24.2666700","fclass":"P","fcode":"PPL","country":"RO","cc2":"","admin1":"33","admin2":"146021","admin3":"","admin4":"","population":0,"elevation":0,"gtopo30":429,"timezone":"Europe/Bucharest","moddate":"2016-02-07T00:00:00.000Z"},{"geonameid":674992,"name":"Latrioara","asciiname":"Latrioara","alternatenames":"","latitude":"45.6500000","longitude":"24.2666700","fclass":"P","fcode":"PPL","country":"RO","cc2":"","admin1":"33","admin2":"146021","admin3":"","admin4":"","population":0,"elevation":0,"gtopo30":429,"timezone":"Europe/Bucharest","moddate":"2016-02-07T00:00:00.000Z"},{"geonameid":674965,"name":"Lazaret","asciiname":"Lazaret","alternatenames":"","latitude":"45.5612400","longitude":"24.2626000","fclass":"P","fcode":"PPL","country":"RO","cc2":"","admin1":"33","admin2":"146021","admin3":"","admin4":"","population":10,"elevation":0,"gtopo30":376,"timezone":"Europe/Bucharest","moddate":"2013-04-21T00:00:00.000Z"},{"geonameid":8063517,"name":"Lotrioara","asciiname":"Lotrioara","alternatenames":"","latitude":"45.5748100","longitude":"24.2220100","fclass":"P","fcode":"PPL","country":"RO","cc2":"","admin1":"33","admin2":"146021","admin3":"","admin4":"","population":280,"elevation":0,"gtopo30":465,"timezone":"Europe/Bucharest","moddate":"2013-04-21T00:00:00.000Z"},{"geonameid":673620,"name":"Meghiş","asciiname":"Meghis","alternatenames":"","latitude":"45.6500000","longitude":"24.2666700","fclass":"P","fcode":"PPL","country":"RO","cc2":"","admin1":"33","admin2":"146021","admin3":"","admin4":"","population":0,"elevation":0,"gtopo30":429,"timezone":"Europe/Bucharest","moddate":"2016-02-07T00:00:00.000Z"},{"geonameid":671445,"name":"Paltin","asciiname":"Paltin","alternatenames":"","latitude":"45.5442900","longitude":"24.2479100","fclass":"P","fcode":"PPL","country":"RO","cc2":"","admin1":"33","admin2":"146021","admin3":"","admin4":"","population":0,"elevation":0,"gtopo30":412,"timezone":"Europe/Bucharest","moddate":"2016-02-07T00:00:00.000Z"},{"geonameid":670306,"name":"Podu de Fier","asciiname":"Podu de Fier","alternatenames":"","latitude":"45.6500000","longitude":"24.2666700","fclass":"P","fcode":"PPLX","country":"RO","cc2":"","admin1":"33","admin2":"146021","admin3":"","admin4":"","population":0,"elevation":0,"gtopo30":429,"timezone":"Europe/Bucharest","moddate":"2016-02-07T00:00:00.000Z"}],"admin3":[],"alternateNames":[]},"__N_SSG":true}