{"pageProps":{"locale":"ro","admin2":{"geonameid":665082,"name":"Comuna Tâmna","country":"RO","admin1":"26","admin2":"113732","admin3":"","latitude":"44.5614700","longitude":"23.0079300"},"admin1":{"geonameid":673612,"name":"Mehedinţi","admin1":"26"},"locations":[{"geonameid":686652,"name":"Adunații Teiului","asciiname":"Adunatii Teiului","alternatenames":"","latitude":"44.5187700","longitude":"23.0543600","fclass":"P","fcode":"PPL","country":"RO","cc2":"","admin1":"26","admin2":"113732","admin3":"","admin4":"","population":183,"elevation":0,"gtopo30":289,"timezone":"Europe/Bucharest","moddate":"2013-04-21T00:00:00.000Z"},{"geonameid":684501,"name":"Boceni","asciiname":"Boceni","alternatenames":"","latitude":"44.5617400","longitude":"23.0036200","fclass":"P","fcode":"PPL","country":"RO","cc2":"","admin1":"26","admin2":"113732","admin3":"","admin4":"","population":282,"elevation":0,"gtopo30":276,"timezone":"Europe/Bucharest","moddate":"2013-04-21T00:00:00.000Z"},{"geonameid":681127,"name":"Colareț","asciiname":"Colaret","alternatenames":"","latitude":"44.5408600","longitude":"23.0270600","fclass":"P","fcode":"PPL","country":"RO","cc2":"","admin1":"26","admin2":"113732","admin3":"","admin4":"","population":277,"elevation":0,"gtopo30":260,"timezone":"Europe/Bucharest","moddate":"2013-04-21T00:00:00.000Z"},{"geonameid":680291,"name":"Cremenea","asciiname":"Cremenea","alternatenames":"Cremenea,Cremenea de Jos","latitude":"44.6068800","longitude":"23.0186900","fclass":"P","fcode":"PPL","country":"RO","cc2":"RO","admin1":"26","admin2":"113732","admin3":"","admin4":"","population":412,"elevation":0,"gtopo30":214,"timezone":"Europe/Bucharest","moddate":"2013-04-21T00:00:00.000Z"},{"geonameid":680285,"name":"Cremenea de Sus","asciiname":"Cremenea de Sus","alternatenames":"","latitude":"44.6038900","longitude":"22.9905600","fclass":"P","fcode":"PPL","country":"RO","cc2":"","admin1":"26","admin2":"113732","admin3":"","admin4":"","population":0,"elevation":0,"gtopo30":300,"timezone":"Europe/Bucharest","moddate":"2016-02-07T00:00:00.000Z"},{"geonameid":678411,"name":"Fața Cremenii","asciiname":"Fata Cremenii","alternatenames":"Cremenea Fata,Cremenea Faţa,Fata Cremenei,Fata Cremenii,Faţa Cremenei,Faţa Cremenii","latitude":"44.5918300","longitude":"22.9973700","fclass":"P","fcode":"PPL","country":"RO","cc2":"RO","admin1":"26","admin2":"113732","admin3":"","admin4":"","population":272,"elevation":0,"gtopo30":190,"timezone":"Europe/Bucharest","moddate":"2013-04-21T00:00:00.000Z"},{"geonameid":675362,"name":"Izvorălu","asciiname":"Izvoralu","alternatenames":"Isvoral,Isvoralu,Isvoralul,Isvorăl,Isvorălu,Isvorălul,Izvoralu,Izvorălu","latitude":"44.5414300","longitude":"22.9683700","fclass":"P","fcode":"PPL","country":"RO","cc2":"RO","admin1":"26","admin2":"113732","admin3":"","admin4":"","population":460,"elevation":0,"gtopo30":305,"timezone":"Europe/Bucharest","moddate":"2013-04-21T00:00:00.000Z"},{"geonameid":673901,"name":"Manu","asciiname":"Manu","alternatenames":"","latitude":"44.5501600","longitude":"22.9462500","fclass":"P","fcode":"PPL","country":"RO","cc2":"","admin1":"26","admin2":"113732","admin3":"","admin4":"","population":80,"elevation":0,"gtopo30":316,"timezone":"Europe/Bucharest","moddate":"2013-04-21T00:00:00.000Z"},{"geonameid":671193,"name":"Pavăț","asciiname":"Pavat","alternatenames":"","latitude":"44.5701000","longitude":"22.9854700","fclass":"P","fcode":"PPL","country":"RO","cc2":"","admin1":"26","admin2":"113732","admin3":"","admin4":"","population":141,"elevation":0,"gtopo30":289,"timezone":"Europe/Bucharest","moddate":"2013-04-21T00:00:00.000Z"},{"geonameid":670458,"name":"Plopi","asciiname":"Plopi","alternatenames":"","latitude":"44.5329700","longitude":"23.0156000","fclass":"P","fcode":"PPL","country":"RO","cc2":"","admin1":"26","admin2":"113732","admin3":"","admin4":"","population":398,"elevation":0,"gtopo30":328,"timezone":"Europe/Bucharest","moddate":"2013-04-21T00:00:00.000Z"},{"geonameid":665083,"name":"Tâmna","asciiname":"Tamna","alternatenames":"Tamna,Timna,Tâmna,Tîmna","latitude":"44.5666700","longitude":"23.0166700","fclass":"P","fcode":"PPLA2","country":"RO","cc2":"","admin1":"26","admin2":"113732","admin3":"","admin4":"","population":3656,"elevation":0,"gtopo30":226,"timezone":"Europe/Bucharest","moddate":"2012-06-12T00:00:00.000Z"},{"geonameid":663527,"name":"Valea Perilor","asciiname":"Valea Perilor","alternatenames":"","latitude":"44.5833300","longitude":"23.0166700","fclass":"P","fcode":"PPLX","country":"RO","cc2":"","admin1":"26","admin2":"113732","admin3":"","admin4":"","population":0,"elevation":0,"gtopo30":240,"timezone":"Europe/Bucharest","moddate":"2016-02-07T00:00:00.000Z"},{"geonameid":663336,"name":"Valea Ursului","asciiname":"Valea Ursului","alternatenames":"","latitude":"44.5900500","longitude":"23.0554700","fclass":"P","fcode":"PPL","country":"RO","cc2":"","admin1":"26","admin2":"113732","admin3":"","admin4":"","population":929,"elevation":0,"gtopo30":181,"timezone":"Europe/Bucharest","moddate":"2013-04-20T00:00:00.000Z"}],"admin3":[],"alternateNames":[]},"__N_SSG":true}