{"pageProps":{"locale":"ro","admin2":{"geonameid":672607,"name":"Comuna Murgeşti","country":"RO","admin1":"11","admin2":"47818","admin3":"","latitude":"45.4061200","longitude":"26.8888300"},"admin1":{"geonameid":683121,"name":"Buzău","admin1":"11"},"locations":[{"geonameid":685262,"name":"Batogu","asciiname":"Batogu","alternatenames":"","latitude":"45.4105000","longitude":"26.8798400","fclass":"P","fcode":"PPL","country":"RO","cc2":"","admin1":"11","admin2":"47818","admin3":"","admin4":"","population":86,"elevation":0,"gtopo30":277,"timezone":"Europe/Bucharest","moddate":"2013-04-21T00:00:00.000Z"},{"geonameid":677782,"name":"Funduri","asciiname":"Funduri","alternatenames":"","latitude":"45.4166700","longitude":"26.8666700","fclass":"P","fcode":"PPLX","country":"RO","cc2":"","admin1":"11","admin2":"47818","admin3":"","admin4":"","population":0,"elevation":0,"gtopo30":303,"timezone":"Europe/Bucharest","moddate":"2016-02-07T00:00:00.000Z"},{"geonameid":672993,"name":"Mocani","asciiname":"Mocani","alternatenames":"","latitude":"45.4000000","longitude":"26.8833300","fclass":"P","fcode":"PPL","country":"RO","cc2":"","admin1":"11","admin2":"47818","admin3":"","admin4":"","population":0,"elevation":0,"gtopo30":292,"timezone":"Europe/Bucharest","moddate":"2016-02-07T00:00:00.000Z"},{"geonameid":672764,"name":"Motohani","asciiname":"Motohani","alternatenames":"","latitude":"45.3833300","longitude":"26.8833300","fclass":"P","fcode":"PPL","country":"RO","cc2":"","admin1":"11","admin2":"47818","admin3":"","admin4":"","population":0,"elevation":0,"gtopo30":313,"timezone":"Europe/Bucharest","moddate":"2016-02-07T00:00:00.000Z"},{"geonameid":672609,"name":"Murgeşti","asciiname":"Murgesti","alternatenames":"Murgesti,Murgeşti,Murgosti,Murgoşti","latitude":"45.4000000","longitude":"26.8833300","fclass":"P","fcode":"PPLA2","country":"RO","cc2":"","admin1":"11","admin2":"47818","admin3":"","admin4":"","population":1140,"elevation":0,"gtopo30":292,"timezone":"Europe/Bucharest","moddate":"2012-06-12T00:00:00.000Z"},{"geonameid":665830,"name":"Sudiţi","asciiname":"Suditi","alternatenames":"","latitude":"45.3833300","longitude":"26.8833300","fclass":"P","fcode":"PPLX","country":"RO","cc2":"","admin1":"11","admin2":"47818","admin3":"","admin4":"","population":0,"elevation":0,"gtopo30":313,"timezone":"Europe/Bucharest","moddate":"2016-02-07T00:00:00.000Z"},{"geonameid":663479,"name":"Valea Ratei","asciiname":"Valea Ratei","alternatenames":"","latitude":"45.4155500","longitude":"26.8972100","fclass":"P","fcode":"PPL","country":"RO","cc2":"","admin1":"11","admin2":"47818","admin3":"","admin4":"","population":84,"elevation":0,"gtopo30":313,"timezone":"Europe/Bucharest","moddate":"2013-04-20T00:00:00.000Z"}],"admin3":[],"alternateNames":[]},"__N_SSG":true}