{"pageProps":{"locale":"ro","admin2":{"geonameid":684044,"name":"Comuna Botoroaga","country":"RO","admin1":"35","admin2":"152172","admin3":"","latitude":"44.1499700","longitude":"25.5517100"},"admin1":{"geonameid":665283,"name":"Teleorman","admin1":"35"},"locations":[{"geonameid":684045,"name":"Botoroaga","asciiname":"Botoroaga","alternatenames":"Botoroaga,Hodoroaga,Ion Gheorghe Duca","latitude":"44.1483300","longitude":"25.5447200","fclass":"P","fcode":"PPLA2","country":"RO","cc2":"","admin1":"35","admin2":"152172","admin3":"","admin4":"","population":6488,"elevation":0,"gtopo30":86,"timezone":"Europe/Bucharest","moddate":"2012-06-12T00:00:00.000Z"},{"geonameid":682887,"name":"Călugăru","asciiname":"Calugaru","alternatenames":"Calugareni,Calugaru,Călugăreni,Călugăru","latitude":"44.1500000","longitude":"25.4833300","fclass":"P","fcode":"PPL","country":"RO","cc2":"","admin1":"35","admin2":"152172","admin3":"","admin4":"","population":0,"elevation":0,"gtopo30":91,"timezone":"Europe/Bucharest","moddate":"2016-02-07T00:00:00.000Z"},{"geonameid":664973,"name":"Târnava","asciiname":"Tarnava","alternatenames":"Tarnava,Tarnavele,Tirnava,Târnava,Târnavele,Tîrnava","latitude":"44.1444000","longitude":"25.5634700","fclass":"P","fcode":"PPL","country":"RO","cc2":"RO","admin1":"35","admin2":"152172","admin3":"","admin4":"","population":2019,"elevation":0,"gtopo30":79,"timezone":"Europe/Bucharest","moddate":"2013-04-21T00:00:00.000Z"},{"geonameid":664968,"name":"Târnava de Jos","asciiname":"Tarnava de Jos","alternatenames":"Tarnava de Jos,Tirnava de Jos,Târnava de Jos,Tîrnava de Jos","latitude":"44.1500000","longitude":"25.5666700","fclass":"P","fcode":"PPLX","country":"RO","cc2":"","admin1":"35","admin2":"152172","admin3":"","admin4":"","population":0,"elevation":0,"gtopo30":73,"timezone":"Europe/Bucharest","moddate":"2016-02-07T00:00:00.000Z"},{"geonameid":664503,"name":"Tunari","asciiname":"Tunari","alternatenames":"","latitude":"44.1374300","longitude":"25.5901400","fclass":"P","fcode":"PPL","country":"RO","cc2":"","admin1":"35","admin2":"152172","admin3":"","admin4":"","population":309,"elevation":0,"gtopo30":84,"timezone":"Europe/Bucharest","moddate":"2013-04-21T00:00:00.000Z"},{"geonameid":663831,"name":"Valea Cireșului","asciiname":"Valea Ciresului","alternatenames":"Alexandru Lahovari,Lahovari,Valea Ciresului,Valea Cireşului","latitude":"44.1669900","longitude":"25.5643700","fclass":"P","fcode":"PPL","country":"RO","cc2":"RO","admin1":"35","admin2":"152172","admin3":"","admin4":"","population":2108,"elevation":0,"gtopo30":89,"timezone":"Europe/Bucharest","moddate":"2013-04-20T00:00:00.000Z"}],"admin3":[],"alternateNames":[]},"__N_SSG":true}