{"pageProps":{"locale":"ro","admin2":{"geonameid":677157,"name":"Comuna Girov","country":"RO","admin1":"28","admin2":"122702","admin3":"","latitude":"46.9491800","longitude":"26.4824400"},"admin1":{"geonameid":672460,"name":"Neamţ","admin1":"28"},"locations":[{"geonameid":684069,"name":"Boțești","asciiname":"Botesti","alternatenames":"","latitude":"46.9357400","longitude":"26.5018500","fclass":"P","fcode":"PPL","country":"RO","cc2":"","admin1":"28","admin2":"122702","admin3":"","admin4":"","population":531,"elevation":0,"gtopo30":323,"timezone":"Europe/Bucharest","moddate":"2013-04-21T00:00:00.000Z"},{"geonameid":683071,"name":"Căciulești","asciiname":"Caciulesti","alternatenames":"","latitude":"46.9644100","longitude":"26.4770500","fclass":"P","fcode":"PPL","country":"RO","cc2":"","admin1":"28","admin2":"122702","admin3":"","admin4":"","population":611,"elevation":0,"gtopo30":348,"timezone":"Europe/Bucharest","moddate":"2013-04-21T00:00:00.000Z"},{"geonameid":680951,"name":"Conţeşti","asciiname":"Contesti","alternatenames":"","latitude":"46.9500000","longitude":"26.4833300","fclass":"P","fcode":"PPL","country":"RO","cc2":"","admin1":"28","admin2":"122702","admin3":"","admin4":"","population":0,"elevation":0,"gtopo30":341,"timezone":"Europe/Bucharest","moddate":"2016-02-07T00:00:00.000Z"},{"geonameid":679756,"name":"Dănești","asciiname":"Danesti","alternatenames":"","latitude":"46.9210000","longitude":"26.5230700","fclass":"P","fcode":"PPL","country":"RO","cc2":"","admin1":"28","admin2":"122702","admin3":"","admin4":"","population":296,"elevation":0,"gtopo30":309,"timezone":"Europe/Bucharest","moddate":"2013-04-21T00:00:00.000Z"},{"geonameid":679154,"name":"Doina","asciiname":"Doina","alternatenames":"","latitude":"46.9185600","longitude":"26.5113600","fclass":"P","fcode":"PPL","country":"RO","cc2":"","admin1":"28","admin2":"122702","admin3":"","admin4":"","population":286,"elevation":0,"gtopo30":325,"timezone":"Europe/Bucharest","moddate":"2013-04-21T00:00:00.000Z"},{"geonameid":677957,"name":"Frăsinel","asciiname":"Frasinel","alternatenames":"","latitude":"46.9666700","longitude":"26.4666700","fclass":"P","fcode":"PPL","country":"RO","cc2":"","admin1":"28","admin2":"122702","admin3":"","admin4":"","population":0,"elevation":0,"gtopo30":359,"timezone":"Europe/Bucharest","moddate":"2016-02-07T00:00:00.000Z"},{"geonameid":677158,"name":"Girov","asciiname":"Girov","alternatenames":"Girov","latitude":"46.9500000","longitude":"26.5166700","fclass":"P","fcode":"PPLA2","country":"RO","cc2":"","admin1":"28","admin2":"122702","admin3":"","admin4":"","population":7396,"elevation":0,"gtopo30":347,"timezone":"Europe/Bucharest","moddate":"2012-06-12T00:00:00.000Z"},{"geonameid":676459,"name":"Gura Văii","asciiname":"Gura Vaii","alternatenames":"Gura Vaei,Gura Vaii,Gura Văei,Gura Văii","latitude":"46.9565400","longitude":"26.4501200","fclass":"P","fcode":"PPL","country":"RO","cc2":"RO","admin1":"28","admin2":"122702","admin3":"","admin4":"","population":589,"elevation":0,"gtopo30":427,"timezone":"Europe/Bucharest","moddate":"2013-04-21T00:00:00.000Z"},{"geonameid":669885,"name":"Popești","asciiname":"Popesti","alternatenames":"","latitude":"46.9701900","longitude":"26.4438200","fclass":"P","fcode":"PPL","country":"RO","cc2":"","admin1":"28","admin2":"122702","admin3":"","admin4":"","population":230,"elevation":0,"gtopo30":399,"timezone":"Europe/Bucharest","moddate":"2013-04-21T00:00:00.000Z"},{"geonameid":664427,"name":"Turturești","asciiname":"Turturesti","alternatenames":"","latitude":"46.9407700","longitude":"26.4502100","fclass":"P","fcode":"PPL","country":"RO","cc2":"","admin1":"28","admin2":"122702","admin3":"","admin4":"","population":356,"elevation":0,"gtopo30":415,"timezone":"Europe/Bucharest","moddate":"2013-04-21T00:00:00.000Z"},{"geonameid":663031,"name":"Verșești","asciiname":"Versesti","alternatenames":"","latitude":"46.9797300","longitude":"26.4830900","fclass":"P","fcode":"PPL","country":"RO","cc2":"","admin1":"28","admin2":"122702","admin3":"","admin4":"","population":303,"elevation":0,"gtopo30":355,"timezone":"Europe/Bucharest","moddate":"2013-04-20T00:00:00.000Z"}],"admin3":[],"alternateNames":[]},"__N_SSG":true}