{"pageProps":{"locale":"ro","admin2":{"geonameid":678043,"name":"Comuna Floreşti","country":"RO","admin1":"30","admin2":"133330","admin3":"","latitude":"45.0271800","longitude":"25.7853600"},"admin1":{"geonameid":669737,"name":"Prahova","admin1":"30"},"locations":[{"geonameid":682957,"name":"Călinești","asciiname":"Calinesti","alternatenames":"","latitude":"45.0195500","longitude":"25.7811500","fclass":"P","fcode":"PPL","country":"RO","cc2":"","admin1":"30","admin2":"133330","admin3":"","admin4":"","population":432,"elevation":0,"gtopo30":299,"timezone":"Europe/Bucharest","moddate":"2013-04-21T00:00:00.000Z"},{"geonameid":682782,"name":"Cap Roșu","asciiname":"Cap Rosu","alternatenames":"","latitude":"45.0478800","longitude":"25.7875500","fclass":"P","fcode":"PPL","country":"RO","cc2":"","admin1":"30","admin2":"133330","admin3":"","admin4":"","population":320,"elevation":0,"gtopo30":338,"timezone":"Europe/Bucharest","moddate":"2013-04-21T00:00:00.000Z"},{"geonameid":682550,"name":"Cătina","asciiname":"Catina","alternatenames":"","latitude":"45.0098400","longitude":"25.7839500","fclass":"P","fcode":"PPL","country":"RO","cc2":"","admin1":"30","admin2":"133330","admin3":"","admin4":"","population":1328,"elevation":0,"gtopo30":300,"timezone":"Europe/Bucharest","moddate":"2013-04-21T00:00:00.000Z"},{"geonameid":678063,"name":"Floreşti","asciiname":"Floresti","alternatenames":"Floresti,Floreşti","latitude":"45.0500000","longitude":"25.7833300","fclass":"P","fcode":"PPLA2","country":"RO","cc2":"","admin1":"30","admin2":"133330","admin3":"","admin4":"","population":7507,"elevation":0,"gtopo30":333,"timezone":"Europe/Bucharest","moddate":"2012-06-12T00:00:00.000Z"},{"geonameid":672158,"name":"Novăcești","asciiname":"Novacesti","alternatenames":"Novacesti,Novacestii,Novaceştii,Novăceşti","latitude":"45.0270200","longitude":"25.7787400","fclass":"P","fcode":"PPL","country":"RO","cc2":"RO","admin1":"30","admin2":"133330","admin3":"","admin4":"","population":728,"elevation":0,"gtopo30":319,"timezone":"Europe/Bucharest","moddate":"2013-04-21T00:00:00.000Z"}],"admin3":[],"alternateNames":[{"alternatenameId":8326236,"geonameid":669737,"isoLanguage":"en","alternateName":"Prahova","isPreferredName":true,"isShortName":true,"isColloquial":false,"isHistoric":false}]},"__N_SSG":true}