{"pageProps":{"locale":"ro","admin2":{"geonameid":686262,"name":"Comuna Apostolache","country":"RO","admin1":"30","admin2":"132011","admin3":"","latitude":"45.1212300","longitude":"26.2653700"},"admin1":{"geonameid":669737,"name":"Prahova","admin1":"30"},"locations":[{"geonameid":686263,"name":"Apostolache","asciiname":"Apostolache","alternatenames":"Apostolache","latitude":"45.1333300","longitude":"26.2666700","fclass":"P","fcode":"PPLA2","country":"RO","cc2":"","admin1":"30","admin2":"132011","admin3":"","admin4":"","population":2311,"elevation":0,"gtopo30":193,"timezone":"Europe/Bucharest","moddate":"2012-06-12T00:00:00.000Z"},{"geonameid":683097,"name":"Buzota","asciiname":"Buzota","alternatenames":"Buzota,Buzuta","latitude":"45.1183700","longitude":"26.2425400","fclass":"P","fcode":"PPL","country":"RO","cc2":"RO","admin1":"30","admin2":"132011","admin3":"","admin4":"","population":357,"elevation":0,"gtopo30":163,"timezone":"Europe/Bucharest","moddate":"2013-04-21T00:00:00.000Z"},{"geonameid":673111,"name":"Mârlogea","asciiname":"Marlogea","alternatenames":"Marlogea,Mirlogea,Mârlogea,Mîrlogea","latitude":"45.1279000","longitude":"26.2880100","fclass":"P","fcode":"PPL","country":"RO","cc2":"RO","admin1":"30","admin2":"132011","admin3":"","admin4":"","population":426,"elevation":0,"gtopo30":181,"timezone":"Europe/Bucharest","moddate":"2013-04-21T00:00:00.000Z"},{"geonameid":664368,"name":"Udrești","asciiname":"Udresti","alternatenames":"","latitude":"45.1158700","longitude":"26.2857400","fclass":"P","fcode":"PPL","country":"RO","cc2":"","admin1":"30","admin2":"132011","admin3":"","admin4":"","population":146,"elevation":0,"gtopo30":376,"timezone":"Europe/Bucharest","moddate":"2013-04-21T00:00:00.000Z"},{"geonameid":663816,"name":"Valea Cricovului","asciiname":"Valea Cricovului","alternatenames":"Valea Boului,Valea Cricovului","latitude":"45.1152500","longitude":"26.2487300","fclass":"P","fcode":"PPL","country":"RO","cc2":"RO","admin1":"30","admin2":"132011","admin3":"","admin4":"","population":359,"elevation":0,"gtopo30":207,"timezone":"Europe/Bucharest","moddate":"2013-04-20T00:00:00.000Z"}],"admin3":[],"alternateNames":[{"alternatenameId":8326236,"geonameid":669737,"isoLanguage":"en","alternateName":"Prahova","isPreferredName":true,"isShortName":true,"isColloquial":false,"isHistoric":false}]},"__N_SSG":true}