{"pageProps":{"locale":"ro","admin2":{"geonameid":665449,"name":"Comuna Tătărăşti","country":"RO","admin1":"04","admin2":"25745","admin3":"","latitude":"46.2282300","longitude":"27.1963100"},"admin1":{"geonameid":685947,"name":"Bacău","admin1":"04"},"locations":[{"geonameid":680736,"name":"Cornii de Jos","asciiname":"Cornii de Jos","alternatenames":"","latitude":"46.2040100","longitude":"27.1935300","fclass":"P","fcode":"PPL","country":"RO","cc2":"","admin1":"04","admin2":"25745","admin3":"","admin4":"","population":152,"elevation":0,"gtopo30":229,"timezone":"Europe/Bucharest","moddate":"2013-04-21T00:00:00.000Z"},{"geonameid":680735,"name":"Cornii de Sus","asciiname":"Cornii de Sus","alternatenames":"Corni-de-Sus,Cornii de Sus","latitude":"46.2180500","longitude":"27.1826000","fclass":"P","fcode":"PPL","country":"RO","cc2":"RO","admin1":"04","admin2":"25745","admin3":"","admin4":"","population":919,"elevation":0,"gtopo30":193,"timezone":"Europe/Bucharest","moddate":"2013-04-21T00:00:00.000Z"},{"geonameid":678977,"name":"Drăgești","asciiname":"Dragesti","alternatenames":"Dragesti,Dragestii,Drăgeşti,Drăgeştii","latitude":"46.2495500","longitude":"27.1951900","fclass":"P","fcode":"PPL","country":"RO","cc2":"RO","admin1":"04","admin2":"25745","admin3":"","admin4":"","population":461,"elevation":0,"gtopo30":175,"timezone":"Europe/Bucharest","moddate":"2013-04-21T00:00:00.000Z"},{"geonameid":677446,"name":"Gherdana","asciiname":"Gherdana","alternatenames":"","latitude":"46.2651800","longitude":"27.1845800","fclass":"P","fcode":"PPL","country":"RO","cc2":"","admin1":"04","admin2":"25745","admin3":"","admin4":"","population":437,"elevation":0,"gtopo30":236,"timezone":"Europe/Bucharest","moddate":"2013-04-21T00:00:00.000Z"},{"geonameid":677120,"name":"Giurgeni","asciiname":"Giurgeni","alternatenames":"Giorgenii,Giurgeni","latitude":"46.2379600","longitude":"27.1983300","fclass":"P","fcode":"PPL","country":"RO","cc2":"RO","admin1":"04","admin2":"25745","admin3":"","admin4":"","population":271,"elevation":0,"gtopo30":218,"timezone":"Europe/Bucharest","moddate":"2013-04-21T00:00:00.000Z"},{"geonameid":665450,"name":"Tătărăști","asciiname":"Tatarasti","alternatenames":"Corni,Tatarestii,Tătăreştii","latitude":"46.2166700","longitude":"27.2000000","fclass":"P","fcode":"PPLA2","country":"RO","cc2":"","admin1":"04","admin2":"25745","admin3":"","admin4":"","population":417,"elevation":0,"gtopo30":227,"timezone":"Europe/Bucharest","moddate":"2015-11-13T00:00:00.000Z"},{"geonameid":664230,"name":"Ungureni","asciiname":"Ungureni","alternatenames":"Ungureni,Ungurenii","latitude":"46.2050200","longitude":"27.2146100","fclass":"P","fcode":"PPL","country":"RO","cc2":"RO","admin1":"04","admin2":"25745","admin3":"","admin4":"","population":100,"elevation":0,"gtopo30":200,"timezone":"Europe/Bucharest","moddate":"2013-04-20T00:00:00.000Z"}],"admin3":[],"alternateNames":[]},"__N_SSG":true}