{"pageProps":{"locale":"ro","admin2":{"geonameid":664196,"name":"Comuna General Berthelot","country":"RO","admin1":"21","admin2":"91731","admin3":"","latitude":"45.6116400","longitude":"22.8879500"},"admin1":{"geonameid":675917,"name":"Hunedoara","admin1":"21"},"locations":[{"geonameid":680343,"name":"Crăguiș","asciiname":"Craguis","alternatenames":"Craguis,Craguisi,Crăguiş,Crăguişi","latitude":"45.6261100","longitude":"22.8985600","fclass":"P","fcode":"PPL","country":"RO","cc2":"RO","admin1":"21","admin2":"91731","admin3":"","admin4":"","population":106,"elevation":0,"gtopo30":404,"timezone":"Europe/Bucharest","moddate":"2013-04-21T00:00:00.000Z"},{"geonameid":678444,"name":"Fărcădin","asciiname":"Farcadin","alternatenames":"","latitude":"45.6091100","longitude":"22.8737400","fclass":"P","fcode":"PPL","country":"RO","cc2":"","admin1":"21","admin2":"91731","admin3":"","admin4":"","population":248,"elevation":0,"gtopo30":348,"timezone":"Europe/Bucharest","moddate":"2013-04-21T00:00:00.000Z"},{"geonameid":678441,"name":"Fărcădinu de Sus","asciiname":"Farcadinu de Sus","alternatenames":"","latitude":"45.6000000","longitude":"22.8666700","fclass":"P","fcode":"PPLX","country":"RO","cc2":"","admin1":"21","admin2":"91731","admin3":"","admin4":"","population":0,"elevation":0,"gtopo30":353,"timezone":"Europe/Bucharest","moddate":"2016-02-07T00:00:00.000Z"},{"geonameid":664202,"name":"General Berthelot","asciiname":"General Berthelot","alternatenames":"Alsofarkadin,Alsófarkadin,Farcadinul de Jos,Fărcădinul de Jos,Unirea","latitude":"45.6166700","longitude":"22.8833300","fclass":"P","fcode":"PPLA2","country":"RO","cc2":"","admin1":"21","admin2":"91731","admin3":"","admin4":"","population":239,"elevation":0,"gtopo30":368,"timezone":"Europe/Bucharest","moddate":"2015-12-04T00:00:00.000Z"},{"geonameid":674650,"name":"Livezi","asciiname":"Livezi","alternatenames":"Gauricea,Găuricea,Livezi","latitude":"45.6141700","longitude":"22.8680500","fclass":"P","fcode":"PPL","country":"RO","cc2":"RO","admin1":"21","admin2":"91731","admin3":"","admin4":"","population":132,"elevation":0,"gtopo30":397,"timezone":"Europe/Bucharest","moddate":"2013-04-21T00:00:00.000Z"},{"geonameid":672804,"name":"Mosoru","asciiname":"Mosoru","alternatenames":"","latitude":"45.6166700","longitude":"22.8833300","fclass":"P","fcode":"PPL","country":"RO","cc2":"","admin1":"21","admin2":"91731","admin3":"","admin4":"","population":0,"elevation":0,"gtopo30":368,"timezone":"Europe/Bucharest","moddate":"2016-02-07T00:00:00.000Z"},{"geonameid":671356,"name":"Părani","asciiname":"Parani","alternatenames":"","latitude":"45.6166700","longitude":"22.8833300","fclass":"P","fcode":"PPL","country":"RO","cc2":"","admin1":"21","admin2":"91731","admin3":"","admin4":"","population":0,"elevation":0,"gtopo30":368,"timezone":"Europe/Bucharest","moddate":"2016-02-07T00:00:00.000Z"},{"geonameid":664415,"name":"Tuștea","asciiname":"Tustea","alternatenames":"","latitude":"45.6003100","longitude":"22.8469900","fclass":"P","fcode":"PPL","country":"RO","cc2":"","admin1":"21","admin2":"91731","admin3":"","admin4":"","population":305,"elevation":0,"gtopo30":364,"timezone":"Europe/Bucharest","moddate":"2013-04-21T00:00:00.000Z"}],"admin3":[],"alternateNames":[]},"__N_SSG":true}