{"pageProps":{"locale":"ro","admin2":{"geonameid":664695,"name":"Comuna Toteşti","country":"RO","admin1":"21","admin2":"91624","admin3":"","latitude":"45.5713700","longitude":"22.8902300"},"admin1":{"geonameid":675917,"name":"Hunedoara","admin1":"21"},"locations":[{"geonameid":681537,"name":"Cârneşti","asciiname":"Carnesti","alternatenames":"Carnesti,Cirnesti,Cârneşti,Cîrneşti","latitude":"45.5500000","longitude":"22.8666700","fclass":"P","fcode":"PPL","country":"RO","cc2":"RO","admin1":"21","admin2":"91624","admin3":"","admin4":"","population":0,"elevation":0,"gtopo30":399,"timezone":"Europe/Bucharest","moddate":"2020-03-08T00:00:00.000Z"},{"geonameid":680917,"name":"Copaci","asciiname":"Copaci","alternatenames":"","latitude":"45.5912500","longitude":"22.9033000","fclass":"P","fcode":"PPL","country":"RO","cc2":"","admin1":"21","admin2":"91624","admin3":"","admin4":"","population":5,"elevation":0,"gtopo30":352,"timezone":"Europe/Bucharest","moddate":"2013-04-21T00:00:00.000Z"},{"geonameid":671574,"name":"Păclișa","asciiname":"Paclisa","alternatenames":"Pachisa,Paclisa,Piclisa,Pîclişa,Păchişa,Păclişa","latitude":"45.5624200","longitude":"22.8808500","fclass":"P","fcode":"PPL","country":"RO","cc2":"RO","admin1":"21","admin2":"91624","admin3":"","admin4":"","population":509,"elevation":0,"gtopo30":380,"timezone":"Europe/Bucharest","moddate":"2013-04-21T00:00:00.000Z"},{"geonameid":669000,"name":"Reea","asciiname":"Reea","alternatenames":"Rea,Reea","latitude":"45.5797800","longitude":"22.9133600","fclass":"P","fcode":"PPL","country":"RO","cc2":"RO","admin1":"21","admin2":"91624","admin3":"","admin4":"","population":374,"elevation":0,"gtopo30":349,"timezone":"Europe/Bucharest","moddate":"2013-04-21T00:00:00.000Z"},{"geonameid":664698,"name":"Toteşti","asciiname":"Totesti","alternatenames":"Totesti,Toteşti","latitude":"45.5666700","longitude":"22.8833300","fclass":"P","fcode":"PPLA2","country":"RO","cc2":"","admin1":"21","admin2":"91624","admin3":"","admin4":"","population":1990,"elevation":0,"gtopo30":373,"timezone":"Europe/Bucharest","moddate":"2012-06-12T00:00:00.000Z"}],"admin3":[],"alternateNames":[]},"__N_SSG":true}