{"pageProps":{"locale":"ro","admin2":{"geonameid":673479,"name":"Comuna Miceşti","country":"RO","admin1":"03","admin2":"17209","admin3":"","latitude":"44.9736700","longitude":"24.8557700"},"admin1":{"geonameid":686192,"name":"Argeş","admin1":"03"},"locations":[{"geonameid":683673,"name":"Brânzari","asciiname":"Branzari","alternatenames":"","latitude":"44.9586800","longitude":"24.8365700","fclass":"P","fcode":"PPL","country":"RO","cc2":"","admin1":"03","admin2":"17209","admin3":"","admin4":"","population":75,"elevation":0,"gtopo30":378,"timezone":"Europe/Bucharest","moddate":"2013-04-21T00:00:00.000Z"},{"geonameid":683455,"name":"Budeasa Mică","asciiname":"Budeasa Mica","alternatenames":"","latitude":"44.9500000","longitude":"24.8500000","fclass":"P","fcode":"PPL","country":"RO","cc2":"","admin1":"03","admin2":"17209","admin3":"","admin4":"","population":3789,"elevation":0,"gtopo30":455,"timezone":"Europe/Bucharest","moddate":"2016-02-07T00:00:00.000Z"},{"geonameid":673482,"name":"Miceşti","asciiname":"Micesti","alternatenames":"","latitude":"44.9500000","longitude":"24.8666700","fclass":"P","fcode":"PPLA2","country":"RO","cc2":"","admin1":"03","admin2":"17209","admin3":"","admin4":"","population":4061,"elevation":0,"gtopo30":353,"timezone":"Europe/Bucharest","moddate":"2012-06-12T00:00:00.000Z"},{"geonameid":671237,"name":"Păuleasca","asciiname":"Pauleasca","alternatenames":"Pauleasa,Pauleasca,Păuleasa,Valea Micesti,Valea Miceşti","latitude":"45.0060600","longitude":"24.8439300","fclass":"P","fcode":"PPL","country":"RO","cc2":"RO","admin1":"03","admin2":"17209","admin3":"","admin4":"","population":686,"elevation":0,"gtopo30":405,"timezone":"Europe/Bucharest","moddate":"2013-04-21T00:00:00.000Z"},{"geonameid":670603,"name":"Piţigoaia","asciiname":"Pitigoaia","alternatenames":"","latitude":"44.9833300","longitude":"24.8833300","fclass":"P","fcode":"PPLX","country":"RO","cc2":"","admin1":"03","admin2":"17209","admin3":"","admin4":"","population":0,"elevation":0,"gtopo30":362,"timezone":"Europe/Bucharest","moddate":"2016-02-07T00:00:00.000Z"},{"geonameid":669477,"name":"Purcăreni","asciiname":"Purcareni","alternatenames":"","latitude":"44.9684700","longitude":"24.8873600","fclass":"P","fcode":"PPL","country":"RO","cc2":"","admin1":"03","admin2":"17209","admin3":"","admin4":"","population":1478,"elevation":0,"gtopo30":316,"timezone":"Europe/Bucharest","moddate":"2013-04-21T00:00:00.000Z"},{"geonameid":663918,"name":"Valea Badii","asciiname":"Valea Badii","alternatenames":"","latitude":"44.9833300","longitude":"24.8833300","fclass":"P","fcode":"PPLX","country":"RO","cc2":"","admin1":"03","admin2":"17209","admin3":"","admin4":"","population":0,"elevation":0,"gtopo30":362,"timezone":"Europe/Bucharest","moddate":"2016-02-07T00:00:00.000Z"}],"admin3":[],"alternateNames":[]},"__N_SSG":true}