{"pageProps":{"locale":"ro","admin2":{"geonameid":665289,"name":"Comuna Telega","country":"RO","admin1":"30","admin2":"135789","admin3":"","latitude":"45.1427000","longitude":"25.8144100"},"admin1":{"geonameid":669737,"name":"Prahova","admin1":"30"},"locations":[{"geonameid":684537,"name":"Bobeşti","asciiname":"Bobesti","alternatenames":"","latitude":"45.1333300","longitude":"25.7833300","fclass":"P","fcode":"PPLX","country":"RO","cc2":"","admin1":"30","admin2":"135789","admin3":"","admin4":"","population":0,"elevation":0,"gtopo30":436,"timezone":"Europe/Bucharest","moddate":"2016-02-07T00:00:00.000Z"},{"geonameid":684107,"name":"Boșilcești","asciiname":"Bosilcesti","alternatenames":"","latitude":"45.1523000","longitude":"25.8406800","fclass":"P","fcode":"PPL","country":"RO","cc2":"","admin1":"30","admin2":"135789","admin3":"","admin4":"","population":54,"elevation":0,"gtopo30":751,"timezone":"Europe/Bucharest","moddate":"2013-04-21T00:00:00.000Z"},{"geonameid":683182,"name":"Buștenari","asciiname":"Bustenari","alternatenames":"","latitude":"45.1415000","longitude":"25.8344800","fclass":"P","fcode":"PPL","country":"RO","cc2":"","admin1":"30","admin2":"135789","admin3":"","admin4":"","population":791,"elevation":0,"gtopo30":542,"timezone":"Europe/Bucharest","moddate":"2013-04-21T00:00:00.000Z"},{"geonameid":679171,"name":"Doftana","asciiname":"Doftana","alternatenames":"Doftana","latitude":"45.1500000","longitude":"25.8000000","fclass":"P","fcode":"PPL","country":"RO","cc2":"","admin1":"30","admin2":"135789","admin3":"","admin4":"","population":6777,"elevation":0,"gtopo30":517,"timezone":"Europe/Bucharest","moddate":"2019-02-21T00:00:00.000Z"},{"geonameid":679168,"name":"Doftăneşti","asciiname":"Doftanesti","alternatenames":"","latitude":"45.1333300","longitude":"25.8333300","fclass":"P","fcode":"PPLX","country":"RO","cc2":"","admin1":"30","admin2":"135789","admin3":"","admin4":"","population":0,"elevation":0,"gtopo30":466,"timezone":"Europe/Bucharest","moddate":"2016-02-07T00:00:00.000Z"},{"geonameid":673602,"name":"Melicești","asciiname":"Melicesti","alternatenames":"","latitude":"45.1621300","longitude":"25.8118100","fclass":"P","fcode":"PPL","country":"RO","cc2":"","admin1":"30","admin2":"135789","admin3":"","admin4":"","population":665,"elevation":0,"gtopo30":558,"timezone":"Europe/Bucharest","moddate":"2013-04-21T00:00:00.000Z"},{"geonameid":665290,"name":"Telega","asciiname":"Telega","alternatenames":"Telega","latitude":"45.1333300","longitude":"25.7833300","fclass":"P","fcode":"PPLA2","country":"RO","cc2":"","admin1":"30","admin2":"135789","admin3":"","admin4":"","population":6358,"elevation":0,"gtopo30":436,"timezone":"Europe/Bucharest","moddate":"2012-06-12T00:00:00.000Z"},{"geonameid":664780,"name":"Țonțești","asciiname":"Tontesti","alternatenames":"Tintestii,Tinteştii,Tontesti,Ţonteşti","latitude":"45.1262200","longitude":"25.8330100","fclass":"P","fcode":"PPL","country":"RO","cc2":"RO","admin1":"30","admin2":"135789","admin3":"","admin4":"","population":24,"elevation":0,"gtopo30":440,"timezone":"Europe/Bucharest","moddate":"2013-04-21T00:00:00.000Z"}],"admin3":[],"alternateNames":[{"alternatenameId":8326236,"geonameid":669737,"isoLanguage":"en","alternateName":"Prahova","isPreferredName":true,"isShortName":true,"isColloquial":false,"isHistoric":false}]},"__N_SSG":true}