{"pageProps":{"locale":"en","admin2":{"geonameid":3333126,"name":"Blackburn with Darwen","country":"GB","admin1":"ENG","admin2":"A8","admin3":"","latitude":"53.6666700","longitude":"-2.4666700","localeAltName":"Blackburn with Darwen"},"admin1":{"geonameid":6269131,"name":"England","admin1":"ENG","localeAltName":"England"},"locations":[{"geonameid":2655948,"name":"Belmont","asciiname":"Belmont","alternatenames":"Belmont","latitude":"53.6333300","longitude":"-2.5000000","fclass":"P","fcode":"PPL","country":"GB","cc2":"","admin1":"ENG","admin2":"A8","admin3":"00EX003","admin4":"","population":0,"elevation":0,"gtopo30":284,"timezone":"Europe/London","moddate":"2016-07-04T00:00:00.000Z"},{"geonameid":2655524,"name":"Blackburn","asciiname":"Blackburn","alternatenames":"Blackburn,Blakbernas,Blakboern,Blakbörn,Blehkbern,Blekbern,Blekburn,beullaegbeon,blk‌brn,blqbrn,bu lai ke ben,bu li ban,burakkuban,Блекберн,Блекбърн,Блэкберн,Բլեկբերն,בלקברן,بلک‌برن,แบล็กเบิร์น,ブラックバーン,布力般,布莱克本,布萊克本,블랙번","latitude":"53.7500000","longitude":"-2.4833300","fclass":"P","fcode":"PPLA2","country":"GB","cc2":"","admin1":"ENG","admin2":"A8","admin3":"","admin4":"","population":146521,"elevation":0,"gtopo30":121,"timezone":"Europe/London","moddate":"2017-06-12T00:00:00.000Z"},{"geonameid":2651495,"name":"Darwen","asciiname":"Darwen","alternatenames":"Darven,Darwen,Ntargouin,darwn,Ντάργουιν,Дарвен,دارون","latitude":"53.6980300","longitude":"-2.4649400","fclass":"P","fcode":"PPL","country":"GB","cc2":"","admin1":"ENG","admin2":"A8","admin3":"00EX001","admin4":"","population":32566,"elevation":0,"gtopo30":172,"timezone":"Europe/London","moddate":"2011-03-03T00:00:00.000Z"},{"geonameid":2650227,"name":"Edgworth","asciiname":"Edgworth","alternatenames":"","latitude":"53.6463600","longitude":"-2.3940100","fclass":"P","fcode":"PPL","country":"GB","cc2":"","admin1":"ENG","admin2":"A8","admin3":"00EX003","admin4":"","population":2321,"elevation":0,"gtopo30":198,"timezone":"Europe/London","moddate":"2017-06-12T00:00:00.000Z"},{"geonameid":2649558,"name":"Feniscowles","asciiname":"Feniscowles","alternatenames":"Feniscowles,Fenniscowles","latitude":"53.7264200","longitude":"-2.5381000","fclass":"P","fcode":"PPL","country":"GB","cc2":"","admin1":"ENG","admin2":"A8","admin3":"00EX002","admin4":"","population":0,"elevation":0,"gtopo30":106,"timezone":"Europe/London","moddate":"2016-06-22T00:00:00.000Z"},{"geonameid":2643528,"name":"Lower Darwen","asciiname":"Lower Darwen","alternatenames":"Lower Darrven,Lower Darwen","latitude":"53.7214500","longitude":"-2.4750500","fclass":"P","fcode":"PPL","country":"GB","cc2":"","admin1":"ENG","admin2":"A8","admin3":"00EX001","admin4":"","population":0,"elevation":0,"gtopo30":120,"timezone":"Europe/London","moddate":"2011-03-03T00:00:00.000Z"},{"geonameid":2642855,"name":"Meadowbank","asciiname":"Meadowbank","alternatenames":"","latitude":"53.7166700","longitude":"-2.5166700","fclass":"P","fcode":"PPL","country":"GB","cc2":"","admin1":"ENG","admin2":"A8","admin3":"00EX002","admin4":"","population":0,"elevation":0,"gtopo30":184,"timezone":"Europe/London","moddate":"2016-06-22T00:00:00.000Z"},{"geonameid":2635328,"name":"Turton","asciiname":"Turton","alternatenames":"","latitude":"53.6333300","longitude":"-2.4000000","fclass":"P","fcode":"PPL","country":"GB","cc2":"","admin1":"ENG","admin2":"A8","admin3":"00EX003","admin4":"","population":0,"elevation":0,"gtopo30":157,"timezone":"Europe/London","moddate":"2016-06-22T00:00:00.000Z"}],"admin3":[{"geonameid":7300542,"name":"Eccleshill","admin3":"00EX001"},{"geonameid":7296559,"name":"Livesey","admin3":"00EX002"},{"geonameid":7299745,"name":"North Turton","admin3":"00EX003"},{"geonameid":7299746,"name":"Pleasington","admin3":"00EX004"},{"geonameid":7301700,"name":"Tockholes","admin3":"00EX005"},{"geonameid":7294199,"name":"Yate and Pickup Bank","admin3":"00EX006"}],"alternateNames":[{"alternatenameId":8666548,"geonameid":3333126,"isoLanguage":"en","alternateName":"Blackburn with Darwen","isPreferredName":true,"isShortName":true,"isColloquial":false,"isHistoric":false},{"alternatenameId":1626647,"geonameid":6269131,"isoLanguage":"en","alternateName":"England","isPreferredName":true,"isShortName":true,"isColloquial":false,"isHistoric":false}]},"__N_SSG":true}