{"pageProps":{"locale":"ro","admin2":{"geonameid":679515,"name":"Comuna Deleni","country":"RO","admin1":"14","admin2":"61675","admin3":"","latitude":"44.0617500","longitude":"28.0226300"},"admin1":{"geonameid":680962,"name":"Constanța","admin1":"14","localeAltName":"Constanța"},"locations":[{"geonameid":679538,"name":"Deleni","asciiname":"Deleni","alternatenames":"Deleni,Enigea","latitude":"44.1000000","longitude":"28.0166700","fclass":"P","fcode":"PPLA2","country":"RO","cc2":"","admin1":"14","admin2":"61675","admin3":"","admin4":"","population":2492,"elevation":0,"gtopo30":118,"timezone":"Europe/Bucharest","moddate":"2012-06-12T00:00:00.000Z"},{"geonameid":677775,"name":"Furca","asciiname":"Furca","alternatenames":"Becter,Furca","latitude":"44.0166700","longitude":"28.0500000","fclass":"P","fcode":"PPL","country":"RO","cc2":"","admin1":"14","admin2":"61675","admin3":"","admin4":"","population":0,"elevation":0,"gtopo30":87,"timezone":"Europe/Bucharest","moddate":"2016-02-07T00:00:00.000Z"},{"geonameid":670939,"name":"Petroșani","asciiname":"Petrosani","alternatenames":"Chioseler,Petrosani,Petroşani","latitude":"44.0146300","longitude":"28.0521600","fclass":"P","fcode":"PPL","country":"RO","cc2":"RO","admin1":"14","admin2":"61675","admin3":"","admin4":"","population":636,"elevation":0,"gtopo30":71,"timezone":"Europe/Bucharest","moddate":"2013-04-21T00:00:00.000Z"},{"geonameid":670852,"name":"Pietreni","asciiname":"Pietreni","alternatenames":"Cocargea,Cogarcea,Pietreni","latitude":"44.0960900","longitude":"28.0683300","fclass":"P","fcode":"PPL","country":"RO","cc2":"RO","admin1":"14","admin2":"61675","admin3":"","admin4":"","population":1061,"elevation":0,"gtopo30":91,"timezone":"Europe/Bucharest","moddate":"2013-04-21T00:00:00.000Z"},{"geonameid":670199,"name":"Poeniţa","asciiname":"Poenita","alternatenames":"Borungea,Poenita,Poeniţa","latitude":"44.0166700","longitude":"28.0166700","fclass":"P","fcode":"PPL","country":"RO","cc2":"","admin1":"14","admin2":"61675","admin3":"","admin4":"","population":0,"elevation":0,"gtopo30":109,"timezone":"Europe/Bucharest","moddate":"2020-06-10T00:00:00.000Z"},{"geonameid":666873,"name":"Șipotele","asciiname":"Sipotele","alternatenames":"Ghiolpunar,Sipotele,Şipotele","latitude":"44.0447400","longitude":"27.9597000","fclass":"P","fcode":"PPL","country":"RO","cc2":"RO","admin1":"14","admin2":"61675","admin3":"","admin4":"","population":565,"elevation":0,"gtopo30":41,"timezone":"Europe/Bucharest","moddate":"2013-04-21T00:00:00.000Z"}],"admin3":[],"alternateNames":[{"alternatenameId":402149,"geonameid":680962,"isoLanguage":"ro","alternateName":"Constanța","isPreferredName":true,"isShortName":true,"isColloquial":false,"isHistoric":false}]},"__N_SSG":true}