{"pageProps":{"locale":"ro","admin2":{"geonameid":673867,"name":"Comuna Marca","country":"RO","admin1":"31","admin2":"141946","admin3":"","latitude":"47.2349500","longitude":"22.5508900"},"admin1":{"geonameid":668248,"name":"Sălaj","admin1":"31"},"locations":[{"geonameid":674855,"name":"Leșmir","asciiname":"Lesmir","alternatenames":"","latitude":"47.2565900","longitude":"22.5747400","fclass":"P","fcode":"PPL","country":"RO","cc2":"","admin1":"31","admin2":"141946","admin3":"","admin4":"","population":491,"elevation":0,"gtopo30":175,"timezone":"Europe/Bucharest","moddate":"2013-04-21T00:00:00.000Z"},{"geonameid":673868,"name":"Marca","asciiname":"Marca","alternatenames":"Marca","latitude":"47.2166700","longitude":"22.5666700","fclass":"P","fcode":"PPLA2","country":"RO","cc2":"","admin1":"31","admin2":"141946","admin3":"","admin4":"","population":2890,"elevation":0,"gtopo30":182,"timezone":"Europe/Bucharest","moddate":"2012-06-12T00:00:00.000Z"},{"geonameid":673866,"name":"Marca Huta","asciiname":"Marca Huta","alternatenames":"","latitude":"47.1886100","longitude":"22.5033900","fclass":"P","fcode":"PPL","country":"RO","cc2":"","admin1":"31","admin2":"141946","admin3":"","admin4":"","population":80,"elevation":0,"gtopo30":554,"timezone":"Europe/Bucharest","moddate":"2013-04-21T00:00:00.000Z"},{"geonameid":669830,"name":"Porț","asciiname":"Port","alternatenames":"","latitude":"47.2346100","longitude":"22.5542400","fclass":"P","fcode":"PPL","country":"RO","cc2":"","admin1":"31","admin2":"141946","admin3":"","admin4":"","population":330,"elevation":0,"gtopo30":168,"timezone":"Europe/Bucharest","moddate":"2013-04-21T00:00:00.000Z"},{"geonameid":665778,"name":"Șumal","asciiname":"Sumal","alternatenames":"","latitude":"47.2806600","longitude":"22.5659100","fclass":"P","fcode":"PPL","country":"RO","cc2":"","admin1":"31","admin2":"141946","admin3":"","admin4":"","population":661,"elevation":0,"gtopo30":203,"timezone":"Europe/Bucharest","moddate":"2013-04-21T00:00:00.000Z"}],"admin3":[],"alternateNames":[]},"__N_SSG":true}