{"pageProps":{"locale":"ro","admin2":{"geonameid":670767,"name":"Comuna Pârgăreşti","country":"RO","admin1":"04","admin2":"24276","admin3":"","latitude":"46.2441400","longitude":"26.6501700"},"admin1":{"geonameid":685947,"name":"Bacău","admin1":"04"},"locations":[{"geonameid":685859,"name":"Bahna","asciiname":"Bahna","alternatenames":"","latitude":"46.2261800","longitude":"26.6504700","fclass":"P","fcode":"PPL","country":"RO","cc2":"","admin1":"04","admin2":"24276","admin3":"","admin4":"","population":594,"elevation":0,"gtopo30":310,"timezone":"Europe/Bucharest","moddate":"2013-04-21T00:00:00.000Z"},{"geonameid":672245,"name":"Nicorești","asciiname":"Nicoresti","alternatenames":"","latitude":"46.2350400","longitude":"26.6490300","fclass":"P","fcode":"PPL","country":"RO","cc2":"","admin1":"04","admin2":"24276","admin3":"","admin4":"","population":902,"elevation":0,"gtopo30":376,"timezone":"Europe/Bucharest","moddate":"2013-04-21T00:00:00.000Z"},{"geonameid":670742,"name":"Pârâu Boghii","asciiname":"Parau Boghii","alternatenames":"Parau Boghii,Piriu Boghii,Pârâu Boghii,Pîrîu Boghii","latitude":"46.2617300","longitude":"26.6445600","fclass":"P","fcode":"PPL","country":"RO","cc2":"RO","admin1":"04","admin2":"24276","admin3":"","admin4":"","population":336,"elevation":0,"gtopo30":262,"timezone":"Europe/Bucharest","moddate":"2013-04-21T00:00:00.000Z"},{"geonameid":670768,"name":"Pârgăreşti","asciiname":"Pargaresti","alternatenames":"Pargarestii,Pirgaresti,Pîrgăreşti","latitude":"46.2500000","longitude":"26.6500000","fclass":"P","fcode":"PPLA2","country":"RO","cc2":"","admin1":"04","admin2":"24276","admin3":"","admin4":"","population":4798,"elevation":0,"gtopo30":330,"timezone":"Europe/Bucharest","moddate":"2012-06-12T00:00:00.000Z"},{"geonameid":667828,"name":"Satu Nou","asciiname":"Satu Nou","alternatenames":"","latitude":"46.2444700","longitude":"26.6534300","fclass":"P","fcode":"PPL","country":"RO","cc2":"","admin1":"04","admin2":"24276","admin3":"","admin4":"","population":1699,"elevation":0,"gtopo30":351,"timezone":"Europe/Bucharest","moddate":"2013-04-21T00:00:00.000Z"}],"admin3":[],"alternateNames":[]},"__N_SSG":true}