{"pageProps":{"locale":"ro","admin2":{"geonameid":668039,"name":"Comuna Sărata","country":"RO","admin1":"04","admin2":"26320","admin3":"","latitude":"46.4958200","longitude":"26.8691600"},"admin1":{"geonameid":685947,"name":"Bacău","admin1":"04"},"locations":[{"geonameid":685508,"name":"Bălțata","asciiname":"Baltata","alternatenames":"","latitude":"46.4891500","longitude":"26.8697500","fclass":"P","fcode":"PPL","country":"RO","cc2":"","admin1":"04","admin2":"26320","admin3":"","admin4":"","population":91,"elevation":0,"gtopo30":264,"timezone":"Europe/Bucharest","moddate":"2013-04-21T00:00:00.000Z"},{"geonameid":682012,"name":"Chiseta","asciiname":"Chiseta","alternatenames":"","latitude":"46.5000000","longitude":"26.8833300","fclass":"P","fcode":"PPLX","country":"RO","cc2":"","admin1":"04","admin2":"26320","admin3":"","admin4":"","population":0,"elevation":0,"gtopo30":189,"timezone":"Europe/Bucharest","moddate":"2016-02-07T00:00:00.000Z"},{"geonameid":679600,"name":"Dealu Nou","asciiname":"Dealu Nou","alternatenames":"Deal Nou,Dealu Nou,Dealul Nou","latitude":"46.5000000","longitude":"26.8666700","fclass":"P","fcode":"PPL","country":"RO","cc2":"","admin1":"04","admin2":"26320","admin3":"","admin4":"","population":0,"elevation":0,"gtopo30":277,"timezone":"Europe/Bucharest","moddate":"2016-02-07T00:00:00.000Z"},{"geonameid":668049,"name":"Sărata","asciiname":"Sarata","alternatenames":"","latitude":"46.5024900","longitude":"26.8685700","fclass":"P","fcode":"PPLA2","country":"RO","cc2":"","admin1":"04","admin2":"26320","admin3":"","admin4":"","population":1708,"elevation":0,"gtopo30":242,"timezone":"Europe/Bucharest","moddate":"2013-04-21T00:00:00.000Z"},{"geonameid":665603,"name":"Talpa","asciiname":"Talpa","alternatenames":"","latitude":"46.5166700","longitude":"26.8500000","fclass":"P","fcode":"PPL","country":"RO","cc2":"","admin1":"04","admin2":"26320","admin3":"","admin4":"","population":0,"elevation":0,"gtopo30":334,"timezone":"Europe/Bucharest","moddate":"2016-02-07T00:00:00.000Z"}],"admin3":[],"alternateNames":[]},"__N_SSG":true}