{"pageProps":{"locale":"ro","admin2":{"geonameid":683272,"name":"Comuna Buneşti","country":"RO","admin1":"09","admin2":"40704","admin3":"","latitude":"46.1004200","longitude":"25.0552800"},"admin1":{"geonameid":683843,"name":"Braşov","admin1":"09"},"locations":[{"geonameid":683279,"name":"Buneşti","asciiname":"Bunesti","alternatenames":"Bundorf,Bunesti,Buneşti","latitude":"46.1000000","longitude":"25.0500000","fclass":"P","fcode":"PPLA2","country":"RO","cc2":"","admin1":"09","admin2":"40704","admin3":"","admin4":"","population":2435,"elevation":0,"gtopo30":600,"timezone":"Europe/Bucharest","moddate":"2012-06-12T00:00:00.000Z"},{"geonameid":680141,"name":"Criț","asciiname":"Crit","alternatenames":"","latitude":"46.1226300","longitude":"25.0201900","fclass":"P","fcode":"PPL","country":"RO","cc2":"","admin1":"09","admin2":"40704","admin3":"","admin4":"","population":593,"elevation":0,"gtopo30":472,"timezone":"Europe/Bucharest","moddate":"2013-04-21T00:00:00.000Z"},{"geonameid":673535,"name":"Meșendorf","asciiname":"Mesendorf","alternatenames":"","latitude":"46.0892400","longitude":"24.9852800","fclass":"P","fcode":"PPL","country":"RO","cc2":"","admin1":"09","admin2":"40704","admin3":"","admin4":"","population":331,"elevation":0,"gtopo30":533,"timezone":"Europe/Bucharest","moddate":"2013-04-21T00:00:00.000Z"},{"geonameid":668803,"name":"Roadeș","asciiname":"Roades","alternatenames":"Radeln,Radenthal,Rados,Rádos","latitude":"46.1166700","longitude":"25.1000000","fclass":"P","fcode":"PPL","country":"RO","cc2":"","admin1":"09","admin2":"40704","admin3":"","admin4":"","population":283,"elevation":0,"gtopo30":556,"timezone":"Europe/Bucharest","moddate":"2015-11-18T00:00:00.000Z"},{"geonameid":662704,"name":"Viscri","asciiname":"Viscri","alternatenames":"Szaszfeheregyhaza,Szászfehéregyháza,Viskri,Вискри","latitude":"46.0552200","longitude":"25.0938900","fclass":"P","fcode":"PPL","country":"RO","cc2":"","admin1":"09","admin2":"40704","admin3":"","admin4":"","population":2476,"elevation":0,"gtopo30":532,"timezone":"Europe/Bucharest","moddate":"2016-02-07T00:00:00.000Z"}],"admin3":[],"alternateNames":[]},"__N_SSG":true}