{"pageProps":{"locale":"ro","admin2":{"geonameid":680764,"name":"Comuna Corneşti","country":"RO","admin1":"13","admin2":"57449","admin3":"","latitude":"47.0281100","longitude":"23.6850000"},"admin1":{"geonameid":681291,"name":"Cluj","admin1":"13"},"locations":[{"geonameid":684799,"name":"Bârlea","asciiname":"Barlea","alternatenames":"Barlea,Birlea,Bârlea,Bîrlea","latitude":"46.9911600","longitude":"23.7230600","fclass":"P","fcode":"PPL","country":"RO","cc2":"RO","admin1":"13","admin2":"57449","admin3":"","admin4":"","population":244,"elevation":0,"gtopo30":339,"timezone":"Europe/Bucharest","moddate":"2013-04-21T00:00:00.000Z"},{"geonameid":680774,"name":"Corneşti","asciiname":"Cornesti","alternatenames":"Cornesti,Corneşti","latitude":"47.0333300","longitude":"23.6833300","fclass":"P","fcode":"PPLA2","country":"RO","cc2":"","admin1":"13","admin2":"57449","admin3":"","admin4":"","population":1797,"elevation":0,"gtopo30":370,"timezone":"Europe/Bucharest","moddate":"2012-06-12T00:00:00.000Z"},{"geonameid":675689,"name":"Igriția","asciiname":"Igritia","alternatenames":"Kisigrice","latitude":"47.0833300","longitude":"23.6333300","fclass":"P","fcode":"PPL","country":"RO","cc2":"","admin1":"13","admin2":"57449","admin3":"","admin4":"","population":40,"elevation":0,"gtopo30":409,"timezone":"Europe/Bucharest","moddate":"2015-11-23T00:00:00.000Z"},{"geonameid":674520,"name":"Lujerdiu","asciiname":"Lujerdiu","alternatenames":"Lujerdiu,Lujerdiul","latitude":"46.9697800","longitude":"23.7171900","fclass":"P","fcode":"PPL","country":"RO","cc2":"RO","admin1":"13","admin2":"57449","admin3":"","admin4":"","population":442,"elevation":0,"gtopo30":298,"timezone":"Europe/Bucharest","moddate":"2013-04-21T00:00:00.000Z"},{"geonameid":672869,"name":"Morău","asciiname":"Morau","alternatenames":"","latitude":"46.9970400","longitude":"23.6931000","fclass":"P","fcode":"PPL","country":"RO","cc2":"","admin1":"13","admin2":"57449","admin3":"","admin4":"","population":96,"elevation":0,"gtopo30":330,"timezone":"Europe/Bucharest","moddate":"2013-04-21T00:00:00.000Z"},{"geonameid":666060,"name":"Stoiana","asciiname":"Stoiana","alternatenames":"","latitude":"47.0182400","longitude":"23.6888600","fclass":"P","fcode":"PPL","country":"RO","cc2":"","admin1":"13","admin2":"57449","admin3":"","admin4":"","population":180,"elevation":0,"gtopo30":347,"timezone":"Europe/Bucharest","moddate":"2013-04-21T00:00:00.000Z"},{"geonameid":665047,"name":"Tiocu de Jos","asciiname":"Tiocu de Jos","alternatenames":"Tiocu de Jos,Tiocul-de-Jos","latitude":"47.0590700","longitude":"23.6609300","fclass":"P","fcode":"PPL","country":"RO","cc2":"RO","admin1":"13","admin2":"57449","admin3":"","admin4":"","population":191,"elevation":0,"gtopo30":367,"timezone":"Europe/Bucharest","moddate":"2013-04-21T00:00:00.000Z"},{"geonameid":665046,"name":"Tiocu de Sus","asciiname":"Tiocu de Sus","alternatenames":"Tiocu de Sus,Tiocul-de-Sus","latitude":"47.0761800","longitude":"23.6485000","fclass":"P","fcode":"PPL","country":"RO","cc2":"RO","admin1":"13","admin2":"57449","admin3":"","admin4":"","population":164,"elevation":0,"gtopo30":399,"timezone":"Europe/Bucharest","moddate":"2013-04-21T00:00:00.000Z"},{"geonameid":665045,"name":"Tioltiur","asciiname":"Tioltiur","alternatenames":"","latitude":"47.0134500","longitude":"23.7202600","fclass":"P","fcode":"PPL","country":"RO","cc2":"","admin1":"13","admin2":"57449","admin3":"","admin4":"","population":269,"elevation":0,"gtopo30":374,"timezone":"Europe/Bucharest","moddate":"2013-04-21T00:00:00.000Z"}],"admin3":[],"alternateNames":[]},"__N_SSG":true}