{"pageProps":{"locale":"en","admin2":{"geonameid":2647043,"name":"Hertfordshire","country":"GB","admin1":"ENG","admin2":"F8","admin3":"","latitude":"51.8333300","longitude":"-0.2500000","localeAltName":"Hertfordshire"},"admin1":{"geonameid":6269131,"name":"England","admin1":"ENG","localeAltName":"England"},"locations":[{"geonameid":2657863,"name":"Abbots Langley","asciiname":"Abbots Langley","alternatenames":"Abbots Langley,Ebbots-Lengli,Ебботс-Ленглі","latitude":"51.7057300","longitude":"-0.4175700","fclass":"P","fcode":"PPL","country":"GB","cc2":"","admin1":"ENG","admin2":"F8","admin3":"26UJ","admin4":"26UJ001","population":10472,"elevation":0,"gtopo30":128,"timezone":"Europe/London","moddate":"2018-07-03T00:00:00.000Z"},{"geonameid":2657567,"name":"Albury","asciiname":"Albury","alternatenames":"","latitude":"51.9018400","longitude":"0.0802500","fclass":"P","fcode":"PPL","country":"GB","cc2":"","admin1":"ENG","admin2":"F8","admin3":"26UD","admin4":"26UD001","population":0,"elevation":0,"gtopo30":107,"timezone":"Europe/London","moddate":"2018-07-03T00:00:00.000Z"},{"geonameid":2657559,"name":"Aldbury","asciiname":"Aldbury","alternatenames":"","latitude":"51.8023400","longitude":"-0.6022700","fclass":"P","fcode":"PPL","country":"GB","cc2":"","admin1":"ENG","admin2":"F8","admin3":"26UC","admin4":"26UC001","population":642,"elevation":0,"gtopo30":140,"timezone":"Europe/London","moddate":"2018-07-03T00:00:00.000Z"},{"geonameid":2657553,"name":"Aldenham","asciiname":"Aldenham","alternatenames":"Aldenham","latitude":"51.6736300","longitude":"-0.3535700","fclass":"P","fcode":"PPL","country":"GB","cc2":"","admin1":"ENG","admin2":"F8","admin3":"26UE","admin4":"26UE001","population":0,"elevation":0,"gtopo30":84,"timezone":"Europe/London","moddate":"2018-07-03T00:00:00.000Z"},{"geonameid":2657269,"name":"Anstey","asciiname":"Anstey","alternatenames":"","latitude":"51.9762600","longitude":"0.0435600","fclass":"P","fcode":"PPL","country":"GB","cc2":"","admin1":"ENG","admin2":"F8","admin3":"26UD","admin4":"26UD002","population":0,"elevation":0,"gtopo30":120,"timezone":"Europe/London","moddate":"2018-07-03T00:00:00.000Z"},{"geonameid":7303831,"name":"Apsley","asciiname":"Apsley","alternatenames":"","latitude":"51.7364100","longitude":"-0.4678000","fclass":"P","fcode":"PPL","country":"GB","cc2":"","admin1":"ENG","admin2":"F8","admin3":"26UC","admin4":"","population":0,"elevation":0,"gtopo30":82,"timezone":"Europe/London","moddate":"2011-03-03T00:00:00.000Z"},{"geonameid":2657193,"name":"Ardeley","asciiname":"Ardeley","alternatenames":"Ardeley","latitude":"51.9276800","longitude":"-0.0979300","fclass":"P","fcode":"PPL","country":"GB","cc2":"","admin1":"ENG","admin2":"F8","admin3":"26UD","admin4":"26UD003","population":0,"elevation":0,"gtopo30":125,"timezone":"Europe/London","moddate":"2018-07-03T00:00:00.000Z"},{"geonameid":9257652,"name":"Ashbrook","asciiname":"Ashbrook","alternatenames":"","latitude":"51.9327000","longitude":"-0.2489100","fclass":"P","fcode":"PPL","country":"GB","cc2":"","admin1":"ENG","admin2":"F8","admin3":"26UF","admin4":"26UF013","population":0,"elevation":0,"gtopo30":78,"timezone":"Europe/London","moddate":"2014-08-02T00:00:00.000Z"},{"geonameid":2656911,"name":"Ashwell","asciiname":"Ashwell","alternatenames":"Ashwell","latitude":"52.0386600","longitude":"-0.1539800","fclass":"P","fcode":"PPL","country":"GB","cc2":"","admin1":"ENG","admin2":"F8","admin3":"26UF","admin4":"26UF001","population":1870,"elevation":0,"gtopo30":66,"timezone":"Europe/London","moddate":"2018-07-03T00:00:00.000Z"},{"geonameid":2656890,"name":"Aspenden","asciiname":"Aspenden","alternatenames":"","latitude":"51.9362700","longitude":"-0.0286700","fclass":"P","fcode":"PPL","country":"GB","cc2":"","admin1":"ENG","admin2":"F8","admin3":"26UD","admin4":"26UD004","population":0,"elevation":0,"gtopo30":97,"timezone":"Europe/London","moddate":"2018-07-03T00:00:00.000Z"},{"geonameid":2656871,"name":"Aston","asciiname":"Aston","alternatenames":"Aston","latitude":"51.8833300","longitude":"-0.1500000","fclass":"P","fcode":"PPL","country":"GB","cc2":"","admin1":"ENG","admin2":"F8","admin3":"26UD","admin4":"26UD005","population":0,"elevation":0,"gtopo30":95,"timezone":"Europe/London","moddate":"2018-07-03T00:00:00.000Z"},{"geonameid":2656863,"name":"Aston End","asciiname":"Aston End","alternatenames":"","latitude":"51.9019000","longitude":"-0.1514000","fclass":"P","fcode":"PPL","country":"GB","cc2":"","admin1":"ENG","admin2":"F8","admin3":"26UD","admin4":"26UD005","population":0,"elevation":0,"gtopo30":94,"timezone":"Europe/London","moddate":"2018-07-03T00:00:00.000Z"},{"geonameid":2656710,"name":"Ayot Saint Lawrence","asciiname":"Ayot Saint Lawrence","alternatenames":"","latitude":"51.8362000","longitude":"-0.2682200","fclass":"P","fcode":"PPL","country":"GB","cc2":"","admin1":"ENG","admin2":"F8","admin3":"26UL","admin4":"26UL001","population":0,"elevation":0,"gtopo30":123,"timezone":"Europe/London","moddate":"2018-07-03T00:00:00.000Z"},{"geonameid":2656709,"name":"Ayot Saint Peter","asciiname":"Ayot Saint Peter","alternatenames":"","latitude":"51.8166700","longitude":"-0.2166700","fclass":"P","fcode":"PPL","country":"GB","cc2":"","admin1":"ENG","admin2":"F8","admin3":"26UL","admin4":"","population":0,"elevation":0,"gtopo30":124,"timezone":"Europe/London","moddate":"2010-05-24T00:00:00.000Z"},{"geonameid":2656594,"name":"Baldock","asciiname":"Baldock","alternatenames":"Baldock","latitude":"51.9878100","longitude":"-0.1883500","fclass":"P","fcode":"PPL","country":"GB","cc2":"","admin1":"ENG","admin2":"F8","admin3":"26UF","admin4":"","population":10086,"elevation":0,"gtopo30":68,"timezone":"Europe/London","moddate":"2011-03-03T00:00:00.000Z"},{"geonameid":2656326,"name":"Barkway","asciiname":"Barkway","alternatenames":"","latitude":"52.0020000","longitude":"0.0154100","fclass":"P","fcode":"PPL","country":"GB","cc2":"","admin1":"ENG","admin2":"F8","admin3":"26UF","admin4":"26UF002","population":775,"elevation":0,"gtopo30":130,"timezone":"Europe/London","moddate":"2018-07-03T00:00:00.000Z"},{"geonameid":2656321,"name":"Barley","asciiname":"Barley","alternatenames":"","latitude":"52.0262000","longitude":"0.0386200","fclass":"P","fcode":"PPL","country":"GB","cc2":"","admin1":"ENG","admin2":"F8","admin3":"26UF","admin4":"26UF003","population":662,"elevation":0,"gtopo30":101,"timezone":"Europe/London","moddate":"2018-07-03T00:00:00.000Z"},{"geonameid":2656136,"name":"Bayford","asciiname":"Bayford","alternatenames":"Bayford","latitude":"51.7595500","longitude":"-0.1019700","fclass":"P","fcode":"PPL","country":"GB","cc2":"","admin1":"ENG","admin2":"F8","admin3":"26UD","admin4":"26UD006","population":466,"elevation":0,"gtopo30":94,"timezone":"Europe/London","moddate":"2018-07-03T00:00:00.000Z"},{"geonameid":11550602,"name":"Bedmond","asciiname":"Bedmond","alternatenames":"","latitude":"51.7208900","longitude":"-0.4107000","fclass":"P","fcode":"PPL","country":"GB","cc2":"","admin1":"ENG","admin2":"F8","admin3":"26UJ","admin4":"26UJ001","population":0,"elevation":0,"gtopo30":138,"timezone":"Europe/London","moddate":"2017-06-04T00:00:00.000Z"},{"geonameid":2655898,"name":"Benington","asciiname":"Benington","alternatenames":"Benington,Bennington","latitude":"51.8964100","longitude":"-0.1101500","fclass":"P","fcode":"PPL","country":"GB","cc2":"GB","admin1":"ENG","admin2":"F8","admin3":"26UD","admin4":"26UD008","population":608,"elevation":0,"gtopo30":118,"timezone":"Europe/London","moddate":"2018-07-03T00:00:00.000Z"},{"geonameid":2655858,"name":"Berkhamsted","asciiname":"Berkhamsted","alternatenames":"Beorhdanstaedae,Beorhðanstædæ,Berkhampstead,Berkhamstead,Berkhamsted,Berkkhemsted,Berko,Burkkhamsted,bo ke han si de,brkmstd,Беркхемстед,Бъркхамстед,برکمستد,伯克翰斯德","latitude":"51.7604000","longitude":"-0.5652800","fclass":"P","fcode":"PPL","country":"GB","cc2":"","admin1":"ENG","admin2":"F8","admin3":"26UC","admin4":"26UC002","population":21997,"elevation":0,"gtopo30":113,"timezone":"Europe/London","moddate":"2018-10-28T00:00:00.000Z"},{"geonameid":6615332,"name":"Bernards Heath","asciiname":"Bernards Heath","alternatenames":"","latitude":"51.7608700","longitude":"-0.3336900","fclass":"P","fcode":"PPLX","country":"GB","cc2":"","admin1":"ENG","admin2":"F8","admin3":"6615330","admin4":"","population":0,"elevation":0,"gtopo30":127,"timezone":"Europe/London","moddate":"2011-03-03T00:00:00.000Z"},{"geonameid":2655562,"name":"Bishops Stortford","asciiname":"Bishops Stortford","alternatenames":"Bishop's Stortford,Bishops Stortford,Bishops Strotford,Bishop’s Stortford,Bisop's Stortfornt,bi xiao pu si tuo fu de,byshaps astwrtfwrd,Μπίσοπς Στόρτφορντ,بیشاپس استورتفورد,畢曉普斯托福德","latitude":"51.8711300","longitude":"0.1586800","fclass":"P","fcode":"PPL","country":"GB","cc2":"","admin1":"ENG","admin2":"F8","admin3":"26UD","admin4":"26UD009","population":37838,"elevation":0,"gtopo30":70,"timezone":"Europe/London","moddate":"2018-07-03T00:00:00.000Z"},{"geonameid":2655186,"name":"Borehamwood","asciiname":"Borehamwood","alternatenames":"Borehamwood,bo lei mu wu de,博勒姆伍德","latitude":"51.6546800","longitude":"-0.2776200","fclass":"P","fcode":"PPL","country":"GB","cc2":"","admin1":"ENG","admin2":"F8","admin3":"26UE","admin4":"26UE002","population":32176,"elevation":0,"gtopo30":92,"timezone":"Europe/London","moddate":"2018-07-03T00:00:00.000Z"},{"geonameid":2655096,"name":"Bourne End","asciiname":"Bourne End","alternatenames":"","latitude":"51.7458200","longitude":"-0.5225800","fclass":"P","fcode":"PPL","country":"GB","cc2":"","admin1":"ENG","admin2":"F8","admin3":"26UC","admin4":"","population":233,"elevation":0,"gtopo30":93,"timezone":"Europe/London","moddate":"2017-06-12T00:00:00.000Z"},{"geonameid":2655079,"name":"Bovingdon","asciiname":"Bovingdon","alternatenames":"Bovingdon","latitude":"51.7231200","longitude":"-0.5367000","fclass":"P","fcode":"PPL","country":"GB","cc2":"","admin1":"ENG","admin2":"F8","admin3":"26UC","admin4":"26UC003","population":5295,"elevation":0,"gtopo30":160,"timezone":"Europe/London","moddate":"2018-07-03T00:00:00.000Z"},{"geonameid":2654930,"name":"Bramfield","asciiname":"Bramfield","alternatenames":"Bramfield","latitude":"51.8166700","longitude":"-0.1000000","fclass":"P","fcode":"PPL","country":"GB","cc2":"","admin1":"ENG","admin2":"F8","admin3":"26UD","admin4":"26UD039","population":0,"elevation":0,"gtopo30":73,"timezone":"Europe/London","moddate":"2018-07-03T00:00:00.000Z"},{"geonameid":2654863,"name":"Braughing","asciiname":"Braughing","alternatenames":"Braughing","latitude":"51.9068400","longitude":"0.0278900","fclass":"P","fcode":"PPL","country":"GB","cc2":"","admin1":"ENG","admin2":"F8","admin3":"26UD","admin4":"26UD011","population":854,"elevation":0,"gtopo30":77,"timezone":"Europe/London","moddate":"2018-07-03T00:00:00.000Z"},{"geonameid":2654784,"name":"Brent Pelham","asciiname":"Brent Pelham","alternatenames":"","latitude":"51.9570900","longitude":"0.0854700","fclass":"P","fcode":"PPL","country":"GB","cc2":"","admin1":"ENG","admin2":"F8","admin3":"26UD","admin4":"26UD012","population":0,"elevation":0,"gtopo30":126,"timezone":"Europe/London","moddate":"2018-07-03T00:00:00.000Z"},{"geonameid":11888136,"name":"Bricket Wood","asciiname":"Bricket Wood","alternatenames":"","latitude":"51.7073400","longitude":"-0.3671200","fclass":"P","fcode":"PPL","country":"GB","cc2":"","admin1":"ENG","admin2":"F8","admin3":"6615330","admin4":"26UG008","population":0,"elevation":0,"gtopo30":76,"timezone":"Europe/London","moddate":"2018-07-05T00:00:00.000Z"},{"geonameid":11593113,"name":"Brookmans Park","asciiname":"Brookmans Park","alternatenames":"","latitude":"51.7197700","longitude":"-0.2015300","fclass":"P","fcode":"PPL","country":"GB","cc2":"","admin1":"ENG","admin2":"F8","admin3":"26UL","admin4":"26UL006","population":0,"elevation":0,"gtopo30":98,"timezone":"Europe/London","moddate":"2017-06-21T00:00:00.000Z"},{"geonameid":2654481,"name":"Broxbourne","asciiname":"Broxbourne","alternatenames":"","latitude":"51.7471200","longitude":"-0.0192300","fclass":"P","fcode":"PPL","country":"GB","cc2":"","admin1":"ENG","admin2":"F8","admin3":"26UB","admin4":"","population":13298,"elevation":0,"gtopo30":41,"timezone":"Europe/London","moddate":"2012-04-12T00:00:00.000Z"},{"geonameid":2654404,"name":"Buckland","asciiname":"Buckland","alternatenames":"","latitude":"51.9844300","longitude":"-0.0267800","fclass":"P","fcode":"PPL","country":"GB","cc2":"","admin1":"ENG","admin2":"F8","admin3":"26UD","admin4":"26UD014","population":0,"elevation":0,"gtopo30":141,"timezone":"Europe/London","moddate":"2018-07-03T00:00:00.000Z"},{"geonameid":2654323,"name":"Buntingford","asciiname":"Buntingford","alternatenames":"bantyngfwrd,بانتینگفورد","latitude":"51.9461200","longitude":"-0.0184100","fclass":"P","fcode":"PPL","country":"GB","cc2":"","admin1":"ENG","admin2":"F8","admin3":"26UD","admin4":"26UD015","population":4948,"elevation":0,"gtopo30":93,"timezone":"Europe/London","moddate":"2018-07-03T00:00:00.000Z"},{"geonameid":2654179,"name":"Bushey","asciiname":"Bushey","alternatenames":"Bushey,Bushey Heath","latitude":"51.6431600","longitude":"-0.3605300","fclass":"P","fcode":"PPL","country":"GB","cc2":"","admin1":"ENG","admin2":"F8","admin3":"26UE","admin4":"","population":17380,"elevation":0,"gtopo30":99,"timezone":"Europe/London","moddate":"2012-06-07T00:00:00.000Z"},{"geonameid":2654177,"name":"Bushey Heath","asciiname":"Bushey Heath","alternatenames":"","latitude":"51.6353900","longitude":"-0.3438400","fclass":"P","fcode":"PPL","country":"GB","cc2":"","admin1":"ENG","admin2":"F8","admin3":"26UE","admin4":"","population":0,"elevation":0,"gtopo30":149,"timezone":"Europe/London","moddate":"2015-06-10T00:00:00.000Z"},{"geonameid":2654134,"name":"Bygrave","asciiname":"Bygrave","alternatenames":"Bygrave","latitude":"52.0043500","longitude":"-0.1660400","fclass":"P","fcode":"PPL","country":"GB","cc2":"","admin1":"ENG","admin2":"F8","admin3":"26UF","admin4":"26UF004","population":0,"elevation":0,"gtopo30":74,"timezone":"Europe/London","moddate":"2018-07-03T00:00:00.000Z"},{"geonameid":2654031,"name":"Caldecote","asciiname":"Caldecote","alternatenames":"","latitude":"52.0293100","longitude":"-0.2001600","fclass":"P","fcode":"PPL","country":"GB","cc2":"","admin1":"ENG","admin2":"F8","admin3":"26UF","admin4":"26UF005","population":0,"elevation":0,"gtopo30":53,"timezone":"Europe/London","moddate":"2018-07-03T00:00:00.000Z"},{"geonameid":2654032,"name":"Caldecote","asciiname":"Caldecote","alternatenames":"","latitude":"51.6333300","longitude":"-0.3333300","fclass":"P","fcode":"PPL","country":"GB","cc2":"","admin1":"ENG","admin2":"F8","admin3":"26UE","admin4":"","population":0,"elevation":0,"gtopo30":156,"timezone":"Europe/London","moddate":"2010-05-24T00:00:00.000Z"},{"geonameid":9409259,"name":"Chapmore End","asciiname":"Chapmore End","alternatenames":"","latitude":"51.8320600","longitude":"-0.0745400","fclass":"P","fcode":"PPL","country":"GB","cc2":"","admin1":"ENG","admin2":"F8","admin3":"26UD","admin4":"26UD007","population":0,"elevation":0,"gtopo30":75,"timezone":"Europe/London","moddate":"2014-08-27T00:00:00.000Z"},{"geonameid":10377015,"name":"Charlton","asciiname":"Charlton","alternatenames":"","latitude":"51.9385000","longitude":"-0.2892500","fclass":"P","fcode":"PPL","country":"GB","cc2":"","admin1":"ENG","admin2":"F8","admin3":"26UF","admin4":"","population":0,"elevation":0,"gtopo30":78,"timezone":"Europe/London","moddate":"2015-07-16T00:00:00.000Z"},{"geonameid":2653232,"name":"Cheshunt","asciiname":"Cheshunt","alternatenames":"Chesant,Cheshunt,chznt,qie sen te,Чесант,چزنت,切森特","latitude":"51.7002000","longitude":"-0.0302600","fclass":"P","fcode":"PPL","country":"GB","cc2":"","admin1":"ENG","admin2":"F8","admin3":"26UB","admin4":"","population":57374,"elevation":0,"gtopo30":24,"timezone":"Europe/London","moddate":"2015-07-14T00:00:00.000Z"},{"geonameid":2653142,"name":"Chipperfield","asciiname":"Chipperfield","alternatenames":"Chipperfield","latitude":"51.7038700","longitude":"-0.4908200","fclass":"P","fcode":"PPL","country":"GB","cc2":"","admin1":"ENG","admin2":"F8","admin3":"26UC","admin4":"26UC004","population":0,"elevation":0,"gtopo30":139,"timezone":"Europe/London","moddate":"2018-07-03T00:00:00.000Z"},{"geonameid":2653085,"name":"Chorleywood","asciiname":"Chorleywood","alternatenames":"Chorleywood,chwrlywwd,چورلیوود","latitude":"51.6547200","longitude":"-0.5140400","fclass":"P","fcode":"PPL","country":"GB","cc2":"","admin1":"ENG","admin2":"F8","admin3":"26UJ","admin4":"26UJ002","population":11917,"elevation":0,"gtopo30":113,"timezone":"Europe/London","moddate":"2018-07-03T00:00:00.000Z"},{"geonameid":11550819,"name":"Churchgate","asciiname":"Churchgate","alternatenames":"","latitude":"51.7009200","longitude":"-0.0561300","fclass":"P","fcode":"PPL","country":"GB","cc2":"","admin1":"ENG","admin2":"F8","admin3":"26UB","admin4":"","population":0,"elevation":0,"gtopo30":43,"timezone":"Europe/London","moddate":"2017-06-07T00:00:00.000Z"},{"geonameid":2652786,"name":"Clothall","asciiname":"Clothall","alternatenames":"","latitude":"51.9709000","longitude":"-0.1500700","fclass":"P","fcode":"PPL","country":"GB","cc2":"","admin1":"ENG","admin2":"F8","admin3":"26UF","admin4":"26UF006","population":0,"elevation":0,"gtopo30":129,"timezone":"Europe/London","moddate":"2018-07-03T00:00:00.000Z"},{"geonameid":2652656,"name":"Codicote","asciiname":"Codicote","alternatenames":"Codicote","latitude":"51.8505200","longitude":"-0.2367000","fclass":"P","fcode":"PPL","country":"GB","cc2":"","admin1":"ENG","admin2":"F8","admin3":"26UF","admin4":"26UF007","population":10938,"elevation":0,"gtopo30":106,"timezone":"Europe/London","moddate":"2018-07-03T00:00:00.000Z"},{"geonameid":2652590,"name":"Cole Green","asciiname":"Cole Green","alternatenames":"","latitude":"51.7875400","longitude":"-0.1438100","fclass":"P","fcode":"PPL","country":"GB","cc2":"","admin1":"ENG","admin2":"F8","admin3":"26UD","admin4":"26UD025","population":0,"elevation":0,"gtopo30":76,"timezone":"Europe/London","moddate":"2018-07-03T00:00:00.000Z"},{"geonameid":2652539,"name":"Colney Heath","asciiname":"Colney Heath","alternatenames":"","latitude":"51.7379400","longitude":"-0.2538700","fclass":"P","fcode":"PPL","country":"GB","cc2":"","admin1":"ENG","admin2":"F8","admin3":"6615330","admin4":"26UG001","population":0,"elevation":0,"gtopo30":75,"timezone":"Europe/London","moddate":"2018-07-03T00:00:00.000Z"},{"geonameid":2652267,"name":"Cottered","asciiname":"Cottered","alternatenames":"","latitude":"51.9467500","longitude":"-0.0818400","fclass":"P","fcode":"PPL","country":"GB","cc2":"","admin1":"ENG","admin2":"F8","admin3":"26UD","admin4":"26UD016","population":451,"elevation":0,"gtopo30":138,"timezone":"Europe/London","moddate":"2018-07-03T00:00:00.000Z"},{"geonameid":2651826,"name":"Croxley Green","asciiname":"Croxley Green","alternatenames":"Croxley Green","latitude":"51.6333300","longitude":"-0.4500000","fclass":"P","fcode":"PPL","country":"GB","cc2":"","admin1":"ENG","admin2":"F8","admin3":"26UJ","admin4":"","population":0,"elevation":0,"gtopo30":61,"timezone":"Europe/London","moddate":"2012-02-01T00:00:00.000Z"},{"geonameid":2651777,"name":"Cuffley","asciiname":"Cuffley","alternatenames":"","latitude":"51.7079900","longitude":"-0.1120900","fclass":"P","fcode":"PPL","country":"GB","cc2":"","admin1":"ENG","admin2":"F8","admin3":"26UL","admin4":"26UL005","population":4282,"elevation":0,"gtopo30":69,"timezone":"Europe/London","moddate":"2018-07-03T00:00:00.000Z"},{"geonameid":2651491,"name":"Datchworth","asciiname":"Datchworth","alternatenames":"Datchworth","latitude":"51.8512600","longitude":"-0.1595600","fclass":"P","fcode":"PPL","country":"GB","cc2":"","admin1":"ENG","admin2":"F8","admin3":"26UD","admin4":"26UD017","population":1210,"elevation":0,"gtopo30":112,"timezone":"Europe/London","moddate":"2018-07-03T00:00:00.000Z"},{"geonameid":2651261,"name":"Digswell","asciiname":"Digswell","alternatenames":"","latitude":"51.8234200","longitude":"-0.1916600","fclass":"P","fcode":"PPL","country":"GB","cc2":"","admin1":"ENG","admin2":"F8","admin3":"26UL","admin4":"26UL007","population":0,"elevation":0,"gtopo30":89,"timezone":"Europe/London","moddate":"2018-07-03T00:00:00.000Z"},{"geonameid":8129271,"name":"Dudswell","asciiname":"Dudswell","alternatenames":"","latitude":"51.7773500","longitude":"-0.6011200","fclass":"P","fcode":"PPLL","country":"GB","cc2":"","admin1":"ENG","admin2":"F8","admin3":"26UC","admin4":"26UC013","population":0,"elevation":0,"gtopo30":116,"timezone":"Europe/London","moddate":"2012-01-04T00:00:00.000Z"},{"geonameid":12047678,"name":"Eastbury","asciiname":"Eastbury","alternatenames":"","latitude":"51.6167000","longitude":"-0.4167000","fclass":"P","fcode":"PPL","country":"GB","cc2":"","admin1":"ENG","admin2":"F8","admin3":"26UJ","admin4":"","population":0,"elevation":0,"gtopo30":77,"timezone":"Europe/London","moddate":"2019-06-03T00:00:00.000Z"},{"geonameid":11550754,"name":"Eastwick","asciiname":"Eastwick","alternatenames":"","latitude":"51.7873000","longitude":"0.0809800","fclass":"P","fcode":"PPL","country":"GB","cc2":"","admin1":"ENG","admin2":"F8","admin3":"26UD","admin4":"26UD018","population":0,"elevation":0,"gtopo30":49,"timezone":"Europe/London","moddate":"2017-06-06T00:00:00.000Z"},{"geonameid":2650047,"name":"Elstree","asciiname":"Elstree","alternatenames":"Elstree","latitude":"51.6403000","longitude":"-0.2969300","fclass":"P","fcode":"PPL","country":"GB","cc2":"","admin1":"ENG","admin2":"F8","admin3":"26UE","admin4":"26UE002","population":1835,"elevation":0,"gtopo30":129,"timezone":"Europe/London","moddate":"2018-07-03T00:00:00.000Z"},{"geonameid":2649891,"name":"Essendon","asciiname":"Essendon","alternatenames":"","latitude":"51.7632200","longitude":"-0.1548000","fclass":"P","fcode":"PPL","country":"GB","cc2":"","admin1":"ENG","admin2":"F8","admin3":"26UL","admin4":"26UL003","population":580,"elevation":0,"gtopo30":104,"timezone":"Europe/London","moddate":"2018-07-03T00:00:00.000Z"},{"geonameid":6695413,"name":"Felden","asciiname":"Felden","alternatenames":"","latitude":"51.7330400","longitude":"-0.4941300","fclass":"P","fcode":"PPL","country":"GB","cc2":"","admin1":"ENG","admin2":"F8","admin3":"26UC","admin4":"","population":0,"elevation":0,"gtopo30":156,"timezone":"Europe/London","moddate":"2010-05-25T00:00:00.000Z"},{"geonameid":2649334,"name":"Flamstead","asciiname":"Flamstead","alternatenames":"Flamstead","latitude":"51.8197100","longitude":"-0.4370700","fclass":"P","fcode":"PPL","country":"GB","cc2":"","admin1":"ENG","admin2":"F8","admin3":"26UC","admin4":"26UC005","population":990,"elevation":0,"gtopo30":148,"timezone":"Europe/London","moddate":"2018-07-03T00:00:00.000Z","localeAltName":"Flamstead"},{"geonameid":11550818,"name":"Flamstead End","asciiname":"Flamstead End","alternatenames":"","latitude":"51.7135800","longitude":"-0.0505500","fclass":"P","fcode":"PPL","country":"GB","cc2":"","admin1":"ENG","admin2":"F8","admin3":"26UB","admin4":"","population":0,"elevation":0,"gtopo30":39,"timezone":"Europe/London","moddate":"2017-06-07T00:00:00.000Z"},{"geonameid":2649328,"name":"Flaunden","asciiname":"Flaunden","alternatenames":"Flaunden","latitude":"51.6973500","longitude":"-0.5306100","fclass":"P","fcode":"PPL","country":"GB","cc2":"","admin1":"ENG","admin2":"F8","admin3":"26UC","admin4":"26UC006","population":0,"elevation":0,"gtopo30":142,"timezone":"Europe/London","moddate":"2018-07-03T00:00:00.000Z"},{"geonameid":6619860,"name":"Fleetville","asciiname":"Fleetville","alternatenames":"","latitude":"51.7521300","longitude":"-0.3122300","fclass":"P","fcode":"PPLX","country":"GB","cc2":"","admin1":"ENG","admin2":"F8","admin3":"6615330","admin4":"","population":0,"elevation":0,"gtopo30":95,"timezone":"Europe/London","moddate":"2010-05-24T00:00:00.000Z"},{"geonameid":2648976,"name":"Furneux Pelham","asciiname":"Furneux Pelham","alternatenames":"","latitude":"51.9314100","longitude":"0.0805100","fclass":"P","fcode":"PPL","country":"GB","cc2":"","admin1":"ENG","admin2":"F8","admin3":"26UD","admin4":"26UD019","population":553,"elevation":0,"gtopo30":106,"timezone":"Europe/London","moddate":"2018-07-03T00:00:00.000Z"},{"geonameid":2648828,"name":"Garston","asciiname":"Garston","alternatenames":"Garston","latitude":"51.6833300","longitude":"-0.3833300","fclass":"P","fcode":"PPL","country":"GB","cc2":"","admin1":"ENG","admin2":"F8","admin3":"26UK","admin4":"","population":0,"elevation":0,"gtopo30":69,"timezone":"Europe/London","moddate":"2012-02-28T00:00:00.000Z"},{"geonameid":11552292,"name":"Gilston Park","asciiname":"Gilston Park","alternatenames":"","latitude":"51.8013200","longitude":"0.0890500","fclass":"P","fcode":"PPL","country":"GB","cc2":"","admin1":"ENG","admin2":"F8","admin3":"26UD","admin4":"26UD020","population":0,"elevation":0,"gtopo30":57,"timezone":"Europe/London","moddate":"2017-06-08T00:00:00.000Z"},{"geonameid":2648362,"name":"Goffs Oak","asciiname":"Goffs Oak","alternatenames":"","latitude":"51.7101500","longitude":"-0.0872000","fclass":"P","fcode":"PPL","country":"GB","cc2":"","admin1":"ENG","admin2":"F8","admin3":"26UB","admin4":"","population":0,"elevation":0,"gtopo30":98,"timezone":"Europe/London","moddate":"2010-05-24T00:00:00.000Z"},{"geonameid":11979580,"name":"Gosmore","asciiname":"Gosmore","alternatenames":"","latitude":"51.9304000","longitude":"-0.2708800","fclass":"P","fcode":"PPL","country":"GB","cc2":"","admin1":"ENG","admin2":"F8","admin3":"26UF","admin4":"26UF013","population":0,"elevation":0,"gtopo30":76,"timezone":"Europe/London","moddate":"2018-11-29T00:00:00.000Z"},{"geonameid":2648195,"name":"Graveley","asciiname":"Graveley","alternatenames":"","latitude":"51.9360600","longitude":"-0.2105000","fclass":"P","fcode":"PPL","country":"GB","cc2":"","admin1":"ENG","admin2":"F8","admin3":"26UF","admin4":"26UF008","population":0,"elevation":0,"gtopo30":99,"timezone":"Europe/London","moddate":"2018-07-03T00:00:00.000Z"},{"geonameid":2648175,"name":"Great Amwell","asciiname":"Great Amwell","alternatenames":"","latitude":"51.7901400","longitude":"-0.0166900","fclass":"P","fcode":"PPL","country":"GB","cc2":"","admin1":"ENG","admin2":"F8","admin3":"26UD","admin4":"26UD021","population":1098,"elevation":0,"gtopo30":57,"timezone":"Europe/London","moddate":"2018-07-03T00:00:00.000Z"},{"geonameid":2648101,"name":"Great Gaddesden","asciiname":"Great Gaddesden","alternatenames":"","latitude":"51.7913800","longitude":"-0.5050900","fclass":"P","fcode":"PPL","country":"GB","cc2":"","admin1":"ENG","admin2":"F8","admin3":"26UC","admin4":"26UC007","population":0,"elevation":0,"gtopo30":110,"timezone":"Europe/London","moddate":"2018-07-03T00:00:00.000Z"},{"geonameid":2648078,"name":"Great Hormead","asciiname":"Great Hormead","alternatenames":"","latitude":"51.9508800","longitude":"0.0383200","fclass":"P","fcode":"PPL","country":"GB","cc2":"","admin1":"ENG","admin2":"F8","admin3":"26UD","admin4":"26UD027","population":412,"elevation":0,"gtopo30":104,"timezone":"Europe/London","moddate":"2018-07-03T00:00:00.000Z"},{"geonameid":2648053,"name":"Great Munden","asciiname":"Great Munden","alternatenames":"","latitude":"51.8996700","longitude":"-0.0394400","fclass":"P","fcode":"PPLA4","country":"GB","cc2":"","admin1":"ENG","admin2":"F8","admin3":"26UD","admin4":"26UD022","population":0,"elevation":0,"gtopo30":120,"timezone":"Europe/London","moddate":"2018-07-03T00:00:00.000Z"},{"geonameid":2648047,"name":"Great Offley","asciiname":"Great Offley","alternatenames":"Great Offley,Offley","latitude":"51.9275200","longitude":"-0.3356800","fclass":"P","fcode":"PPL","country":"GB","cc2":"","admin1":"ENG","admin2":"F8","admin3":"26UF","admin4":"26UF022","population":748,"elevation":0,"gtopo30":161,"timezone":"Europe/London","moddate":"2018-07-03T00:00:00.000Z"},{"geonameid":2647986,"name":"Great Wymondley","asciiname":"Great Wymondley","alternatenames":"Great Wymondley,Wymondley","latitude":"51.9432900","longitude":"-0.2357300","fclass":"P","fcode":"PPL","country":"GB","cc2":"","admin1":"ENG","admin2":"F8","admin3":"26UF","admin4":"26UF034","population":0,"elevation":0,"gtopo30":88,"timezone":"Europe/London","moddate":"2018-07-03T00:00:00.000Z"},{"geonameid":10104075,"name":"Green End","asciiname":"Green End","alternatenames":"","latitude":"51.8850200","longitude":"-0.0717100","fclass":"P","fcode":"PPL","country":"GB","cc2":"","admin1":"ENG","admin2":"F8","admin3":"26UD","admin4":"26UD031","population":0,"elevation":0,"gtopo30":113,"timezone":"Europe/London","moddate":"2015-02-17T00:00:00.000Z"},{"geonameid":11592721,"name":"Hadham Cross","asciiname":"Hadham Cross","alternatenames":"","latitude":"51.8477600","longitude":"0.0701200","fclass":"P","fcode":"PPL","country":"GB","cc2":"","admin1":"ENG","admin2":"F8","admin3":"26UD","admin4":"26UD033","population":0,"elevation":0,"gtopo30":62,"timezone":"Europe/London","moddate":"2017-06-19T00:00:00.000Z"},{"geonameid":11550820,"name":"Hammond Street","asciiname":"Hammond Street","alternatenames":"","latitude":"51.7214500","longitude":"-0.0739000","fclass":"P","fcode":"PPL","country":"GB","cc2":"","admin1":"ENG","admin2":"F8","admin3":"26UB","admin4":"","population":0,"elevation":0,"gtopo30":93,"timezone":"Europe/London","moddate":"2017-06-07T00:00:00.000Z"},{"geonameid":2647451,"name":"Harpenden","asciiname":"Harpenden","alternatenames":"ha peng deng,harpndn,هارپندن,哈彭登","latitude":"51.8168400","longitude":"-0.3570600","fclass":"P","fcode":"PPL","country":"GB","cc2":"","admin1":"ENG","admin2":"F8","admin3":"6615330","admin4":"26UG002","population":30240,"elevation":0,"gtopo30":107,"timezone":"Europe/London","moddate":"2018-07-03T00:00:00.000Z"},{"geonameid":2647349,"name":"Hatfield","asciiname":"Hatfield","alternatenames":"Bishops Hatfield,Hatfeldia,Hatfield,Hatfield i Hertfordshire,Khatfild,ha te fei er de,hatfyld  hrtfwrdshr,Хатфилд,هاتفیلد، هرتفوردشر,哈特菲尔德","latitude":"51.7633800","longitude":"-0.2241900","fclass":"P","fcode":"PPL","country":"GB","cc2":"","admin1":"ENG","admin2":"F8","admin3":"26UL","admin4":"26UL004","population":41677,"elevation":0,"gtopo30":84,"timezone":"Europe/London","moddate":"2018-07-03T00:00:00.000Z"},{"geonameid":11550609,"name":"Hatfield Hyde","asciiname":"Hatfield Hyde","alternatenames":"","latitude":"51.7832400","longitude":"-0.1926500","fclass":"P","fcode":"PPL","country":"GB","cc2":"","admin1":"ENG","admin2":"F8","admin3":"26UL","admin4":"","population":0,"elevation":0,"gtopo30":78,"timezone":"Europe/London","moddate":"2017-06-05T00:00:00.000Z"},{"geonameid":10104074,"name":"Haultwick","asciiname":"Haultwick","alternatenames":"","latitude":"51.8935200","longitude":"-0.0621400","fclass":"P","fcode":"PPL","country":"GB","cc2":"","admin1":"ENG","admin2":"F8","admin3":"26UD","admin4":"26UD031","population":0,"elevation":0,"gtopo30":103,"timezone":"Europe/London","moddate":"2015-02-17T00:00:00.000Z"},{"geonameid":2647138,"name":"Hemel Hempstead","asciiname":"Hemel Hempstead","alternatenames":"Hemel,Hemel Hempstead,Khemel Khempsted,he mo er heng pu si te de,hemeolhempeuseutedeu,hml hmpstd,Хемел Хемпстед,همل همپستد,ヘメル・ヘムステッド,赫默爾亨普斯特德,헤멀헴프스테드","latitude":"51.7536800","longitude":"-0.4497500","fclass":"P","fcode":"PPL","country":"GB","cc2":"","admin1":"ENG","admin2":"F8","admin3":"26UC","admin4":"","population":85629,"elevation":0,"gtopo30":138,"timezone":"Europe/London","moddate":"2015-05-06T00:00:00.000Z"},{"geonameid":2647044,"name":"Hertford","asciiname":"Hertford","alternatenames":"Heortford,Hertfordia,Khertford,ha te fu,hateupeodeu,hatofodo,hrtfwrd,Хертфорд,هرتفورد,ہارٹفورڈ,ჰერტფორდი,ハートフォード,哈特福,하트퍼드","latitude":"51.7958800","longitude":"-0.0785400","fclass":"P","fcode":"PPLA2","country":"GB","cc2":"","admin1":"ENG","admin2":"F8","admin3":"26UD","admin4":"","population":25847,"elevation":0,"gtopo30":45,"timezone":"Europe/London","moddate":"2010-10-16T00:00:00.000Z"},{"geonameid":11593299,"name":"Hertford Heath","asciiname":"Hertford Heath","alternatenames":"","latitude":"51.7828400","longitude":"-0.0445500","fclass":"P","fcode":"PPL","country":"GB","cc2":"","admin1":"ENG","admin2":"F8","admin3":"26UD","admin4":"26UD024","population":0,"elevation":0,"gtopo30":96,"timezone":"Europe/London","moddate":"2017-06-22T00:00:00.000Z"},{"geonameid":2647042,"name":"Hertingfordbury","asciiname":"Hertingfordbury","alternatenames":"","latitude":"51.7905700","longitude":"-0.1052700","fclass":"P","fcode":"PPL","country":"GB","cc2":"","admin1":"ENG","admin2":"F8","admin3":"26UD","admin4":"26UD023","population":0,"elevation":0,"gtopo30":55,"timezone":"Europe/London","moddate":"2018-07-03T00:00:00.000Z"},{"geonameid":2647006,"name":"Hexton","asciiname":"Hexton","alternatenames":"Hexton","latitude":"51.9605600","longitude":"-0.3913700","fclass":"P","fcode":"PPL","country":"GB","cc2":"","admin1":"ENG","admin2":"F8","admin3":"26UF","admin4":"26UF009","population":123,"elevation":0,"gtopo30":83,"timezone":"Europe/London","moddate":"2018-07-03T00:00:00.000Z"},{"geonameid":2646918,"name":"High Welwyn","asciiname":"High Welwyn","alternatenames":"","latitude":"51.8166700","longitude":"-0.2000000","fclass":"P","fcode":"PPL","country":"GB","cc2":"","admin1":"ENG","admin2":"F8","admin3":"26UL","admin4":"","population":0,"elevation":0,"gtopo30":82,"timezone":"Europe/London","moddate":"2010-05-24T00:00:00.000Z"},{"geonameid":10244605,"name":"Highfield","asciiname":"Highfield","alternatenames":"","latitude":"51.7635100","longitude":"-0.4710800","fclass":"P","fcode":"PPLX","country":"GB","cc2":"","admin1":"ENG","admin2":"F8","admin3":"26UC","admin4":"","population":0,"elevation":0,"gtopo30":131,"timezone":"Europe/London","moddate":"2015-05-06T00:00:00.000Z"},{"geonameid":2646839,"name":"Hinxworth","asciiname":"Hinxworth","alternatenames":"Hinxworth","latitude":"52.0481600","longitude":"-0.1984400","fclass":"P","fcode":"PPL","country":"GB","cc2":"","admin1":"ENG","admin2":"F8","admin3":"26UF","admin4":"26UF010","population":0,"elevation":0,"gtopo30":52,"timezone":"Europe/London","moddate":"2018-07-03T00:00:00.000Z"},{"geonameid":2646826,"name":"Hitchin","asciiname":"Hitchin","alternatenames":"Hitchin,hichin,hytchyn,hytsyn,xi qin,היטשין,هیتچین,希欽,히친","latitude":"51.9492400","longitude":"-0.2849600","fclass":"P","fcode":"PPL","country":"GB","cc2":"","admin1":"ENG","admin2":"F8","admin3":"26UF","admin4":"","population":36099,"elevation":0,"gtopo30":77,"timezone":"Europe/London","moddate":"2017-06-12T00:00:00.000Z"},{"geonameid":6621558,"name":"Hockerill","asciiname":"Hockerill","alternatenames":"","latitude":"51.8669200","longitude":"0.1702100","fclass":"P","fcode":"PPLX","country":"GB","cc2":"","admin1":"ENG","admin2":"F8","admin3":"26UD","admin4":"26UD009","population":0,"elevation":0,"gtopo30":77,"timezone":"Europe/London","moddate":"2018-07-03T00:00:00.000Z"},{"geonameid":2646807,"name":"Hoddesdon","asciiname":"Hoddesdon","alternatenames":"Hoddesdon,Khoddsdon,hwdsdwn,Ходдсдон,هودسدون","latitude":"51.7614800","longitude":"-0.0114400","fclass":"P","fcode":"PPL","country":"GB","cc2":"","admin1":"ENG","admin2":"F8","admin3":"26UB","admin4":"","population":35174,"elevation":0,"gtopo30":46,"timezone":"Europe/London","moddate":"2010-08-03T00:00:00.000Z"},{"geonameid":10376600,"name":"Holdbrook North","asciiname":"Holdbrook North","alternatenames":"","latitude":"51.6871400","longitude":"-0.0230000","fclass":"P","fcode":"PPLX","country":"GB","cc2":"","admin1":"ENG","admin2":"F8","admin3":"26UB","admin4":"","population":0,"elevation":0,"gtopo30":18,"timezone":"Europe/London","moddate":"2015-07-14T00:00:00.000Z"},{"geonameid":2646690,"name":"Holwell","asciiname":"Holwell","alternatenames":"","latitude":"51.9862400","longitude":"-0.3038200","fclass":"P","fcode":"PPL","country":"GB","cc2":"","admin1":"ENG","admin2":"F8","admin3":"26UF","admin4":"26UF011","population":0,"elevation":0,"gtopo30":62,"timezone":"Europe/London","moddate":"2018-07-03T00:00:00.000Z"},{"geonameid":2646604,"name":"Hormead","asciiname":"Hormead","alternatenames":"","latitude":"51.9475500","longitude":"0.0358800","fclass":"P","fcode":"PPL","country":"GB","cc2":"","admin1":"ENG","admin2":"F8","admin3":"26UD","admin4":"26UD027","population":0,"elevation":0,"gtopo30":117,"timezone":"Europe/London","moddate":"2018-07-03T00:00:00.000Z"},{"geonameid":11593309,"name":"Hunsdon","asciiname":"Hunsdon","alternatenames":"","latitude":"51.8088000","longitude":"0.0557000","fclass":"P","fcode":"PPL","country":"GB","cc2":"","admin1":"ENG","admin2":"F8","admin3":"26UD","admin4":"26UD028","population":0,"elevation":0,"gtopo30":73,"timezone":"Europe/London","moddate":"2017-06-22T00:00:00.000Z"},{"geonameid":2646305,"name":"Ickleford","asciiname":"Ickleford","alternatenames":"Ickleford","latitude":"51.9701800","longitude":"-0.2798900","fclass":"P","fcode":"PPL","country":"GB","cc2":"","admin1":"ENG","admin2":"F8","admin3":"26UF","admin4":"26UF012","population":0,"elevation":0,"gtopo30":55,"timezone":"Europe/London","moddate":"2018-07-03T00:00:00.000Z"},{"geonameid":2646061,"name":"Ippollitts","asciiname":"Ippollitts","alternatenames":"","latitude":"51.9297100","longitude":"-0.2587800","fclass":"P","fcode":"PPL","country":"GB","cc2":"","admin1":"ENG","admin2":"F8","admin3":"26UF","admin4":"26UF013","population":0,"elevation":0,"gtopo30":85,"timezone":"Europe/London","moddate":"2018-07-03T00:00:00.000Z"},{"geonameid":2645850,"name":"Kelshall","asciiname":"Kelshall","alternatenames":"Kelshall","latitude":"52.0100300","longitude":"-0.0647200","fclass":"P","fcode":"PPL","country":"GB","cc2":"","admin1":"ENG","admin2":"F8","admin3":"26UF","admin4":"26UF014","population":0,"elevation":0,"gtopo30":159,"timezone":"Europe/London","moddate":"2018-07-03T00:00:00.000Z"},{"geonameid":2645532,"name":"Kimpton","asciiname":"Kimpton","alternatenames":"Kimpton","latitude":"51.8508900","longitude":"-0.2998000","fclass":"P","fcode":"PPL","country":"GB","cc2":"","admin1":"ENG","admin2":"F8","admin3":"26UF","admin4":"26UF015","population":1436,"elevation":0,"gtopo30":90,"timezone":"Europe/London","moddate":"2018-07-03T00:00:00.000Z"},{"geonameid":2645460,"name":"Kings Langley","asciiname":"Kings Langley","alternatenames":"Kings Langley,Langeleia Regis,קינגס לאנגלי","latitude":"51.7139500","longitude":"-0.4504400","fclass":"P","fcode":"PPL","country":"GB","cc2":"","admin1":"ENG","admin2":"F8","admin3":"26UC","admin4":"26UC008","population":7230,"elevation":0,"gtopo30":93,"timezone":"Europe/London","moddate":"2018-07-03T00:00:00.000Z"},{"geonameid":2645422,"name":"Kings Walden","asciiname":"Kings Walden","alternatenames":"Kings Walden","latitude":"51.8833300","longitude":"-0.3166700","fclass":"P","fcode":"PPL","country":"GB","cc2":"","admin1":"ENG","admin2":"F8","admin3":"26UF","admin4":"26UF016","population":0,"elevation":0,"gtopo30":144,"timezone":"Europe/London","moddate":"2018-07-03T00:00:00.000Z"},{"geonameid":2645488,"name":"Kinsbourne Green","asciiname":"Kinsbourne Green","alternatenames":"","latitude":"51.8310000","longitude":"-0.3948200","fclass":"P","fcode":"PPL","country":"GB","cc2":"","admin1":"ENG","admin2":"F8","admin3":"6615330","admin4":"26UG003","population":0,"elevation":0,"gtopo30":141,"timezone":"Europe/London","moddate":"2018-07-03T00:00:00.000Z"},{"geonameid":2645161,"name":"Knebworth","asciiname":"Knebworth","alternatenames":"Knebworth,نب‌ورد","latitude":"51.8667400","longitude":"-0.1839400","fclass":"P","fcode":"PPL","country":"GB","cc2":"","admin1":"ENG","admin2":"F8","admin3":"26UF","admin4":"26UF017","population":4155,"elevation":0,"gtopo30":92,"timezone":"Europe/London","moddate":"2018-07-03T00:00:00.000Z"},{"geonameid":2644720,"name":"Leavesden Green","asciiname":"Leavesden Green","alternatenames":"Leavesden,Leavesden Green,Leavesdon","latitude":"51.6902200","longitude":"-0.3340500","fclass":"P","fcode":"PPL","country":"GB","cc2":"","admin1":"ENG","admin2":"F8","admin3":"26UE","admin4":"26UE001","population":0,"elevation":0,"gtopo30":97,"timezone":"Europe/London","moddate":"2018-07-03T00:00:00.000Z"},{"geonameid":12200399,"name":"Letchmore Heath","asciiname":"Letchmore Heath","alternatenames":"","latitude":"51.6664800","longitude":"-0.3352200","fclass":"P","fcode":"PPL","country":"GB","cc2":"","admin1":"ENG","admin2":"F8","admin3":"26UE","admin4":"26UE001","population":0,"elevation":0,"gtopo30":77,"timezone":"Europe/London","moddate":"2020-12-10T00:00:00.000Z"},{"geonameid":8224216,"name":"Letchworth Garden City","asciiname":"Letchworth Garden City","alternatenames":"Letchworth,Letchworth Garden City","latitude":"51.9793800","longitude":"-0.2266400","fclass":"P","fcode":"PPL","country":"GB","cc2":"","admin1":"ENG","admin2":"F8","admin3":"26UF","admin4":"26UF035","population":43529,"elevation":0,"gtopo30":84,"timezone":"Europe/London","moddate":"2020-02-01T00:00:00.000Z"},{"geonameid":8520850,"name":"Letty Green","asciiname":"Letty Green","alternatenames":"Letty Green","latitude":"51.7818100","longitude":"-0.1369900","fclass":"P","fcode":"PPL","country":"GB","cc2":"","admin1":"ENG","admin2":"F8","admin3":"26UD","admin4":"26UD025","population":316,"elevation":0,"gtopo30":74,"timezone":"Europe/London","moddate":"2017-06-12T00:00:00.000Z","localeAltName":"Letty Green"},{"geonameid":10104078,"name":"Levens Green","asciiname":"Levens Green","alternatenames":"","latitude":"51.8822900","longitude":"-0.0362200","fclass":"P","fcode":"PPL","country":"GB","cc2":"","admin1":"ENG","admin2":"F8","admin3":"26UD","admin4":"26UD022","population":0,"elevation":0,"gtopo30":109,"timezone":"Europe/London","moddate":"2015-02-17T00:00:00.000Z"},{"geonameid":2644565,"name":"Leverstock Green","asciiname":"Leverstock Green","alternatenames":"Leverstock Green","latitude":"51.7481800","longitude":"-0.4326300","fclass":"P","fcode":"PPL","country":"GB","cc2":"","admin1":"ENG","admin2":"F8","admin3":"26UC","admin4":"","population":0,"elevation":0,"gtopo30":138,"timezone":"Europe/London","moddate":"2011-03-03T00:00:00.000Z"},{"geonameid":2644508,"name":"Lilley","asciiname":"Lilley","alternatenames":"Lilley","latitude":"51.9254300","longitude":"-0.3746900","fclass":"P","fcode":"PPL","country":"GB","cc2":"","admin1":"ENG","admin2":"F8","admin3":"26UF","admin4":"26UF019","population":0,"elevation":0,"gtopo30":136,"timezone":"Europe/London","moddate":"2018-07-03T00:00:00.000Z"},{"geonameid":2644381,"name":"Little Amwell","asciiname":"Little Amwell","alternatenames":"Little Amwell","latitude":"51.7833300","longitude":"-0.0333300","fclass":"P","fcode":"PPL","country":"GB","cc2":"","admin1":"ENG","admin2":"F8","admin3":"26UD","admin4":"26UD024","population":2606,"elevation":0,"gtopo30":96,"timezone":"Europe/London","moddate":"2018-12-04T00:00:00.000Z"},{"geonameid":2644372,"name":"Little Berkhamstead","asciiname":"Little Berkhamstead","alternatenames":"Little Berkhamsted","latitude":"51.7550400","longitude":"-0.1300300","fclass":"P","fcode":"PPL","country":"GB","cc2":"","admin1":"ENG","admin2":"F8","admin3":"26UD","admin4":"26UD029","population":0,"elevation":0,"gtopo30":117,"timezone":"Europe/London","moddate":"2018-07-03T00:00:00.000Z"},{"geonameid":2644329,"name":"Little Gaddesden","asciiname":"Little Gaddesden","alternatenames":"Little Gaddesden","latitude":"51.8101300","longitude":"-0.5618700","fclass":"P","fcode":"PPL","country":"GB","cc2":"","admin1":"ENG","admin2":"F8","admin3":"26UC","admin4":"26UC009","population":627,"elevation":0,"gtopo30":192,"timezone":"Europe/London","moddate":"2018-07-03T00:00:00.000Z"},{"geonameid":2644322,"name":"Little Hadham","asciiname":"Little Hadham","alternatenames":"Little Hadham","latitude":"51.8843900","longitude":"0.0904700","fclass":"P","fcode":"PPL","country":"GB","cc2":"","admin1":"ENG","admin2":"F8","admin3":"26UD","admin4":"26UD030","population":383,"elevation":0,"gtopo30":70,"timezone":"Europe/London","moddate":"2018-07-03T00:00:00.000Z"},{"geonameid":2644310,"name":"Little Hormead","asciiname":"Little Hormead","alternatenames":"","latitude":"51.9417500","longitude":"0.0392200","fclass":"P","fcode":"PPL","country":"GB","cc2":"","admin1":"ENG","admin2":"F8","admin3":"26UD","admin4":"26UD027","population":0,"elevation":0,"gtopo30":108,"timezone":"Europe/London","moddate":"2018-07-03T00:00:00.000Z"},{"geonameid":2644283,"name":"Little Munden","asciiname":"Little Munden","alternatenames":"","latitude":"51.8666700","longitude":"-0.0500000","fclass":"P","fcode":"PPL","country":"GB","cc2":"","admin1":"ENG","admin2":"F8","admin3":"26UD","admin4":"26UD031","population":0,"elevation":0,"gtopo30":102,"timezone":"Europe/London","moddate":"2018-07-03T00:00:00.000Z"},{"geonameid":2644214,"name":"Little Wymondley","asciiname":"Little Wymondley","alternatenames":"Little Wymondley","latitude":"51.9326800","longitude":"-0.2355200","fclass":"P","fcode":"PPL","country":"GB","cc2":"","admin1":"ENG","admin2":"F8","admin3":"26UF","admin4":"26UF034","population":995,"elevation":0,"gtopo30":79,"timezone":"Europe/London","moddate":"2018-07-03T00:00:00.000Z"},{"geonameid":2643738,"name":"London Colney","asciiname":"London Colney","alternatenames":"London Colney,London Olney","latitude":"51.7245300","longitude":"-0.2964600","fclass":"P","fcode":"PPL","country":"GB","cc2":"","admin1":"ENG","admin2":"F8","admin3":"6615330","admin4":"26UG004","population":0,"elevation":0,"gtopo30":74,"timezone":"Europe/London","moddate":"2018-07-03T00:00:00.000Z"},{"geonameid":2643666,"name":"Long Marston","asciiname":"Long Marston","alternatenames":"","latitude":"51.8316100","longitude":"-0.6978500","fclass":"P","fcode":"PPL","country":"GB","cc2":"","admin1":"ENG","admin2":"F8","admin3":"26UC","admin4":"26UC015","population":0,"elevation":0,"gtopo30":87,"timezone":"Europe/London","moddate":"2018-07-03T00:00:00.000Z"},{"geonameid":8260197,"name":"Maple Cross","asciiname":"Maple Cross","alternatenames":"","latitude":"51.6250000","longitude":"-0.5080000","fclass":"P","fcode":"PPL","country":"GB","cc2":"","admin1":"ENG","admin2":"F8","admin3":"26UJ","admin4":"","population":2427,"elevation":0,"gtopo30":47,"timezone":"Europe/London","moddate":"2017-06-12T00:00:00.000Z"},{"geonameid":2643011,"name":"Markyate","asciiname":"Markyate","alternatenames":"Markyate,Markyatestreet","latitude":"51.8384600","longitude":"-0.4634500","fclass":"P","fcode":"PPL","country":"GB","cc2":"","admin1":"ENG","admin2":"F8","admin3":"26UC","admin4":"26UC010","population":2912,"elevation":0,"gtopo30":133,"timezone":"Europe/London","moddate":"2018-07-03T00:00:00.000Z"},{"geonameid":2642827,"name":"Meesden","asciiname":"Meesden","alternatenames":"","latitude":"51.9723800","longitude":"0.0823500","fclass":"P","fcode":"PPL","country":"GB","cc2":"","admin1":"ENG","admin2":"F8","admin3":"26UD","admin4":"26UD032","population":0,"elevation":0,"gtopo30":138,"timezone":"Europe/London","moddate":"2018-07-03T00:00:00.000Z"},{"geonameid":6547224,"name":"Moor Park","asciiname":"Moor Park","alternatenames":"","latitude":"51.6295000","longitude":"-0.4341200","fclass":"P","fcode":"PPL","country":"GB","cc2":"","admin1":"ENG","admin2":"F8","admin3":"26UJ","admin4":"","population":0,"elevation":0,"gtopo30":65,"timezone":"Europe/London","moddate":"2010-05-24T00:00:00.000Z"},{"geonameid":2642057,"name":"Much Hadham","asciiname":"Much Hadham","alternatenames":"","latitude":"51.8540700","longitude":"0.0718800","fclass":"P","fcode":"PPL","country":"GB","cc2":"","admin1":"ENG","admin2":"F8","admin3":"26UD","admin4":"26UD033","population":1994,"elevation":0,"gtopo30":61,"timezone":"Europe/London","moddate":"2018-07-03T00:00:00.000Z"},{"geonameid":6615343,"name":"Napsbury Park","asciiname":"Napsbury Park","alternatenames":"","latitude":"51.7222400","longitude":"-0.3132000","fclass":"P","fcode":"PPLX","country":"GB","cc2":"","admin1":"ENG","admin2":"F8","admin3":"6615330","admin4":"26UG004","population":0,"elevation":0,"gtopo30":79,"timezone":"Europe/London","moddate":"2018-07-03T00:00:00.000Z"},{"geonameid":10104073,"name":"Nasty","asciiname":"Nasty","alternatenames":"","latitude":"51.9012300","longitude":"-0.0288000","fclass":"P","fcode":"PPL","country":"GB","cc2":"","admin1":"ENG","admin2":"F8","admin3":"26UD","admin4":"26UD022","population":0,"elevation":0,"gtopo30":108,"timezone":"Europe/London","moddate":"2015-02-17T00:00:00.000Z"},{"geonameid":2641643,"name":"Newgate Street","asciiname":"Newgate Street","alternatenames":"","latitude":"51.7286800","longitude":"-0.1167300","fclass":"P","fcode":"PPL","country":"GB","cc2":"","admin1":"ENG","admin2":"F8","admin3":"26UL","admin4":"26UL004","population":412,"elevation":0,"gtopo30":113,"timezone":"Europe/London","moddate":"2018-07-03T00:00:00.000Z"},{"geonameid":2641604,"name":"Newnham","asciiname":"Newnham","alternatenames":"","latitude":"52.0209800","longitude":"-0.1878200","fclass":"P","fcode":"PPL","country":"GB","cc2":"","admin1":"ENG","admin2":"F8","admin3":"26UF","admin4":"26UF020","population":0,"elevation":0,"gtopo30":56,"timezone":"Europe/London","moddate":"2018-07-03T00:00:00.000Z"},{"geonameid":2641305,"name":"North Mymms","asciiname":"North Mymms","alternatenames":"","latitude":"51.7140300","longitude":"-0.2124500","fclass":"P","fcode":"PPL","country":"GB","cc2":"","admin1":"ENG","admin2":"F8","admin3":"26UL","admin4":"26UL006","population":274,"elevation":0,"gtopo30":95,"timezone":"Europe/London","moddate":"2018-07-03T00:00:00.000Z"},{"geonameid":6559327,"name":"North Watford","asciiname":"North Watford","alternatenames":"","latitude":"51.6807200","longitude":"-0.3944600","fclass":"P","fcode":"PPL","country":"GB","cc2":"","admin1":"ENG","admin2":"F8","admin3":"26UK","admin4":"","population":0,"elevation":0,"gtopo30":79,"timezone":"Europe/London","moddate":"2011-03-03T00:00:00.000Z"},{"geonameid":2641427,"name":"Northaw","asciiname":"Northaw","alternatenames":"Northaw","latitude":"51.7034400","longitude":"-0.1479500","fclass":"P","fcode":"PPL","country":"GB","cc2":"","admin1":"ENG","admin2":"F8","admin3":"26UL","admin4":"26UL005","population":590,"elevation":0,"gtopo30":102,"timezone":"Europe/London","moddate":"2018-07-03T00:00:00.000Z"},{"geonameid":2641394,"name":"Northchurch","asciiname":"Northchurch","alternatenames":"","latitude":"51.7711300","longitude":"-0.5851900","fclass":"P","fcode":"PPL","country":"GB","cc2":"","admin1":"ENG","admin2":"F8","admin3":"26UC","admin4":"26UC002","population":0,"elevation":0,"gtopo30":130,"timezone":"Europe/London","moddate":"2018-07-03T00:00:00.000Z"},{"geonameid":2641205,"name":"Norton","asciiname":"Norton","alternatenames":"","latitude":"51.9944200","longitude":"-0.2084400","fclass":"P","fcode":"PPL","country":"GB","cc2":"","admin1":"ENG","admin2":"F8","admin3":"26UF","admin4":"26UF035","population":0,"elevation":0,"gtopo30":83,"timezone":"Europe/London","moddate":"2018-07-03T00:00:00.000Z"},{"geonameid":10104079,"name":"Old Hall Green","asciiname":"Old Hall Green","alternatenames":"","latitude":"51.8801700","longitude":"-0.0194000","fclass":"P","fcode":"PPL","country":"GB","cc2":"","admin1":"ENG","admin2":"F8","admin3":"26UD","admin4":"26UD022","population":0,"elevation":0,"gtopo30":120,"timezone":"Europe/London","moddate":"2015-02-17T00:00:00.000Z"},{"geonameid":2640647,"name":"Panshanger","asciiname":"Panshanger","alternatenames":"","latitude":"51.7992300","longitude":"-0.1783700","fclass":"P","fcode":"PPL","country":"GB","cc2":"","admin1":"ENG","admin2":"F8","admin3":"26UL","admin4":"","population":0,"elevation":0,"gtopo30":83,"timezone":"Europe/London","moddate":"2011-03-03T00:00:00.000Z"},{"geonameid":2640600,"name":"Park Street","asciiname":"Park Street","alternatenames":"Park Street","latitude":"51.7166700","longitude":"-0.3333300","fclass":"P","fcode":"PPL","country":"GB","cc2":"","admin1":"ENG","admin2":"F8","admin3":"6615330","admin4":"26UG008","population":0,"elevation":0,"gtopo30":73,"timezone":"Europe/London","moddate":"2018-07-03T00:00:00.000Z"},{"geonameid":11593367,"name":"Perry Green","asciiname":"Perry Green","alternatenames":"","latitude":"51.8395200","longitude":"0.0852700","fclass":"P","fcode":"PPL","country":"GB","cc2":"","admin1":"ENG","admin2":"F8","admin3":"26UD","admin4":"26UD033","population":0,"elevation":0,"gtopo30":83,"timezone":"Europe/London","moddate":"2017-06-22T00:00:00.000Z"},{"geonameid":10244606,"name":"Piccotts End","asciiname":"Piccotts End","alternatenames":"","latitude":"51.7719600","longitude":"-0.4882900","fclass":"P","fcode":"PPL","country":"GB","cc2":"","admin1":"ENG","admin2":"F8","admin3":"26UC","admin4":"26UC007","population":0,"elevation":0,"gtopo30":114,"timezone":"Europe/London","moddate":"2015-05-06T00:00:00.000Z"},{"geonameid":2640267,"name":"Pirton","asciiname":"Pirton","alternatenames":"","latitude":"51.9712000","longitude":"-0.3339400","fclass":"P","fcode":"PPL","country":"GB","cc2":"","admin1":"ENG","admin2":"F8","admin3":"26UF","admin4":"26UF023","population":1274,"elevation":0,"gtopo30":79,"timezone":"Europe/London","moddate":"2018-07-03T00:00:00.000Z"},{"geonameid":2639970,"name":"Potters Bar","asciiname":"Potters Bar","alternatenames":"Potters Bar","latitude":"51.6935300","longitude":"-0.1783500","fclass":"P","fcode":"PPLA4","country":"GB","cc2":"","admin1":"ENG","admin2":"F8","admin3":"26UE","admin4":"","population":22639,"elevation":0,"gtopo30":125,"timezone":"Europe/London","moddate":"2017-06-12T00:00:00.000Z"},{"geonameid":2639917,"name":"Preston","asciiname":"Preston","alternatenames":"Preston,Престон","latitude":"51.9089100","longitude":"-0.2856000","fclass":"P","fcode":"PPL","country":"GB","cc2":"","admin1":"ENG","admin2":"F8","admin3":"26UF","admin4":"26UF024","population":0,"elevation":0,"gtopo30":147,"timezone":"Europe/London","moddate":"2018-07-03T00:00:00.000Z"},{"geonameid":2639870,"name":"Puckeridge","asciiname":"Puckeridge","alternatenames":"Puckeridge","latitude":"51.8901300","longitude":"0.0130900","fclass":"P","fcode":"PPL","country":"GB","cc2":"","admin1":"ENG","admin2":"F8","admin3":"26UD","admin4":"26UD036","population":3561,"elevation":0,"gtopo30":72,"timezone":"Europe/London","moddate":"2018-07-03T00:00:00.000Z"},{"geonameid":2639832,"name":"Puttenham","asciiname":"Puttenham","alternatenames":"","latitude":"51.8239200","longitude":"-0.7146300","fclass":"P","fcode":"PPL","country":"GB","cc2":"","admin1":"ENG","admin2":"F8","admin3":"26UC","admin4":"26UC015","population":0,"elevation":0,"gtopo30":86,"timezone":"Europe/London","moddate":"2018-07-03T00:00:00.000Z"},{"geonameid":2639720,"name":"Radlett","asciiname":"Radlett","alternatenames":"Radlett","latitude":"51.6859300","longitude":"-0.3186800","fclass":"P","fcode":"PPL","country":"GB","cc2":"","admin1":"ENG","admin2":"F8","admin3":"26UE","admin4":"26UE001","population":8163,"elevation":0,"gtopo30":74,"timezone":"Europe/London","moddate":"2018-07-03T00:00:00.000Z"},{"geonameid":2639712,"name":"Radwell","asciiname":"Radwell","alternatenames":"","latitude":"52.0184900","longitude":"-0.2012700","fclass":"P","fcode":"PPL","country":"GB","cc2":"","admin1":"ENG","admin2":"F8","admin3":"26UF","admin4":"26UF025","population":0,"elevation":0,"gtopo30":71,"timezone":"Europe/London","moddate":"2018-07-03T00:00:00.000Z"},{"geonameid":2639567,"name":"Redbourn","asciiname":"Redbourn","alternatenames":"","latitude":"51.7989600","longitude":"-0.3959400","fclass":"P","fcode":"PPL","country":"GB","cc2":"","admin1":"ENG","admin2":"F8","admin3":"6615330","admin4":"26UG005","population":5113,"elevation":0,"gtopo30":102,"timezone":"Europe/London","moddate":"2018-07-03T00:00:00.000Z"},{"geonameid":2639520,"name":"Reed","asciiname":"Reed","alternatenames":"","latitude":"52.0082900","longitude":"-0.0190500","fclass":"P","fcode":"PPL","country":"GB","cc2":"","admin1":"ENG","admin2":"F8","admin3":"26UF","admin4":"26UF026","population":310,"elevation":0,"gtopo30":156,"timezone":"Europe/London","moddate":"2018-07-03T00:00:00.000Z"},{"geonameid":2639381,"name":"Rickmansworth","asciiname":"Rickmansworth","alternatenames":"Rickmansworth","latitude":"51.6389800","longitude":"-0.4771800","fclass":"P","fcode":"PPL","country":"GB","cc2":"","admin1":"ENG","admin2":"F8","admin3":"26UJ","admin4":"","population":12043,"elevation":0,"gtopo30":53,"timezone":"Europe/London","moddate":"2015-01-04T00:00:00.000Z"},{"geonameid":2639376,"name":"Ridge","asciiname":"Ridge","alternatenames":"Ridge","latitude":"51.6891100","longitude":"-0.2444500","fclass":"P","fcode":"PPL","country":"GB","cc2":"","admin1":"ENG","admin2":"F8","admin3":"26UE","admin4":"26UE003","population":0,"elevation":0,"gtopo30":123,"timezone":"Europe/London","moddate":"2018-07-03T00:00:00.000Z"},{"geonameid":2639018,"name":"Royston","asciiname":"Royston","alternatenames":"Royston i Hertfordshire,rwystwn  hrtfwrdshr,رویستون، هرتفوردشر","latitude":"52.0483200","longitude":"-0.0243800","fclass":"P","fcode":"PPL","country":"GB","cc2":"","admin1":"ENG","admin2":"F8","admin3":"26UF","admin4":"26UF027","population":15781,"elevation":0,"gtopo30":65,"timezone":"Europe/London","moddate":"2018-07-03T00:00:00.000Z"},{"geonameid":2638947,"name":"Rushden","asciiname":"Rushden","alternatenames":"Rushden","latitude":"51.9666700","longitude":"-0.1000000","fclass":"P","fcode":"PPL","country":"GB","cc2":"","admin1":"ENG","admin2":"F8","admin3":"26UF","admin4":"26UF028","population":0,"elevation":0,"gtopo30":137,"timezone":"Europe/London","moddate":"2018-07-03T00:00:00.000Z"},{"geonameid":2638890,"name":"Sacombe","asciiname":"Sacombe","alternatenames":"","latitude":"51.8588400","longitude":"-0.0677200","fclass":"P","fcode":"PPL","country":"GB","cc2":"","admin1":"ENG","admin2":"F8","admin3":"26UD","admin4":"26UD034","population":0,"elevation":0,"gtopo30":63,"timezone":"Europe/London","moddate":"2018-07-03T00:00:00.000Z"},{"geonameid":2638704,"name":"Saint Pauls Walden","asciiname":"Saint Pauls Walden","alternatenames":"","latitude":"51.8858400","longitude":"-0.2668200","fclass":"P","fcode":"PPL","country":"GB","cc2":"","admin1":"ENG","admin2":"F8","admin3":"26UF","admin4":"26UF029","population":0,"elevation":0,"gtopo30":129,"timezone":"Europe/London","moddate":"2018-07-03T00:00:00.000Z"},{"geonameid":2638570,"name":"Sandon","asciiname":"Sandon","alternatenames":"","latitude":"51.9927000","longitude":"-0.0759200","fclass":"P","fcode":"PPL","country":"GB","cc2":"","admin1":"ENG","admin2":"F8","admin3":"26UF","admin4":"26UF030","population":0,"elevation":0,"gtopo30":157,"timezone":"Europe/London","moddate":"2018-07-03T00:00:00.000Z"},{"geonameid":2638560,"name":"Sandridge","asciiname":"Sandridge","alternatenames":"","latitude":"51.7809000","longitude":"-0.3052100","fclass":"P","fcode":"PPL","country":"GB","cc2":"","admin1":"ENG","admin2":"F8","admin3":"6615330","admin4":"26UG006","population":0,"elevation":0,"gtopo30":85,"timezone":"Europe/London","moddate":"2018-07-03T00:00:00.000Z"},{"geonameid":2638501,"name":"Sarratt","asciiname":"Sarratt","alternatenames":"","latitude":"51.6845800","longitude":"-0.4940000","fclass":"P","fcode":"PPL","country":"GB","cc2":"","admin1":"ENG","admin2":"F8","admin3":"26UJ","admin4":"26UJ004","population":918,"elevation":0,"gtopo30":126,"timezone":"Europe/London","moddate":"2018-07-03T00:00:00.000Z"},{"geonameid":2638481,"name":"Sawbridgeworth","asciiname":"Sawbridgeworth","alternatenames":"Sawbridgeworth,ساوبریج‌وورث","latitude":"51.8166700","longitude":"0.1500000","fclass":"P","fcode":"PPL","country":"GB","cc2":"","admin1":"ENG","admin2":"F8","admin3":"26UD","admin4":"26UD035","population":8400,"elevation":0,"gtopo30":67,"timezone":"Europe/London","moddate":"2018-07-03T00:00:00.000Z"},{"geonameid":2638051,"name":"Shenley","asciiname":"Shenley","alternatenames":"Shenley","latitude":"51.6905400","longitude":"-0.2806700","fclass":"P","fcode":"PPL","country":"GB","cc2":"","admin1":"ENG","admin2":"F8","admin3":"26UE","admin4":"26UE004","population":4143,"elevation":0,"gtopo30":134,"timezone":"Europe/London","moddate":"2018-07-03T00:00:00.000Z"},{"geonameid":2638044,"name":"Shephall","asciiname":"Shephall","alternatenames":"Sheephall,Shephall","latitude":"51.8939100","longitude":"-0.1734500","fclass":"P","fcode":"PPL","country":"GB","cc2":"","admin1":"ENG","admin2":"F8","admin3":"26UH","admin4":"","population":0,"elevation":0,"gtopo30":106,"timezone":"Europe/London","moddate":"2011-03-03T00:00:00.000Z"},{"geonameid":8605059,"name":"Smallford","asciiname":"Smallford","alternatenames":"","latitude":"51.7518000","longitude":"-0.2693400","fclass":"P","fcode":"PPL","country":"GB","cc2":"","admin1":"ENG","admin2":"F8","admin3":"6615330","admin4":"26UG001","population":0,"elevation":0,"gtopo30":77,"timezone":"Europe/London","moddate":"2013-09-10T00:00:00.000Z"},{"geonameid":2637375,"name":"South Mimms","asciiname":"South Mimms","alternatenames":"","latitude":"51.6958600","longitude":"-0.2327300","fclass":"P","fcode":"PPL","country":"GB","cc2":"","admin1":"ENG","admin2":"F8","admin3":"26UE","admin4":"26UE005","population":874,"elevation":0,"gtopo30":100,"timezone":"Europe/London","moddate":"2018-07-03T00:00:00.000Z"},{"geonameid":6690815,"name":"South Oxhey","asciiname":"South Oxhey","alternatenames":"South Oxney","latitude":"51.6250500","longitude":"-0.3864100","fclass":"P","fcode":"PPLX","country":"GB","cc2":"","admin1":"ENG","admin2":"F8","admin3":"26UJ","admin4":"26UJ005","population":0,"elevation":0,"gtopo30":72,"timezone":"Europe/London","moddate":"2018-07-03T00:00:00.000Z","localeAltName":"South Oxney"},{"geonameid":2638867,"name":"St Albans","asciiname":"St Albans","alternatenames":"Fanum Sancti Albani,Saint Albans,Sejnt Olbans,Sent Olbans,Sent-Ehlbans,Sent-Olbans,St Albans,St. Albans,sant albanz,seinteuolbeonseu,sheng ao er ben si,snt albnz,Сейнт Олбанс,Сент Олбанс,Сент-Олбанс,Сент-Элбанс,سانت ألبانز,سنت آلبنز,セント・オールバンズ,聖奧爾本斯,세인트올번스","latitude":"51.7500000","longitude":"-0.3333300","fclass":"P","fcode":"PPL","country":"GB","cc2":"","admin1":"ENG","admin2":"F8","admin3":"6615330","admin4":"","population":84561,"elevation":0,"gtopo30":98,"timezone":"Europe/London","moddate":"2019-09-05T00:00:00.000Z","localeAltName":"St Albans"},{"geonameid":2637094,"name":"Standon","asciiname":"Standon","alternatenames":"","latitude":"51.8838300","longitude":"0.0246300","fclass":"P","fcode":"PPL","country":"GB","cc2":"","admin1":"ENG","admin2":"F8","admin3":"26UD","admin4":"26UD036","population":0,"elevation":0,"gtopo30":65,"timezone":"Europe/London","moddate":"2018-07-03T00:00:00.000Z"},{"geonameid":2637054,"name":"Stanstead Abbotts","asciiname":"Stanstead Abbotts","alternatenames":"","latitude":"51.7864200","longitude":"0.0117500","fclass":"P","fcode":"PPL","country":"GB","cc2":"","admin1":"ENG","admin2":"F8","admin3":"26UD","admin4":"26UD037","population":0,"elevation":0,"gtopo30":33,"timezone":"Europe/London","moddate":"2018-07-03T00:00:00.000Z"},{"geonameid":2637024,"name":"Stapleford","asciiname":"Stapleford","alternatenames":"Stapleford","latitude":"51.8364100","longitude":"-0.1033400","fclass":"P","fcode":"PPL","country":"GB","cc2":"","admin1":"ENG","admin2":"F8","admin3":"26UD","admin4":"26UD039","population":0,"elevation":0,"gtopo30":69,"timezone":"Europe/London","moddate":"2018-07-03T00:00:00.000Z"},{"geonameid":2636940,"name":"Stevenage","asciiname":"Stevenage","alternatenames":"Stevenage,Stiden Ac,Stivenedzh,Stivenidz,Stīðen Āc,XVJ,astywnj,seutebeoniji,si di fu ni qi,srrivanej,sti weni c,sutibunijji,Стивенедж,Стивениџ,استیونج,سٹیوینڈیج,സ്റ്റീവനേജ്,สตีเวนิจ,スティーブニッジ,斯蒂夫尼奇,스테버니지","latitude":"51.9022400","longitude":"-0.2025600","fclass":"P","fcode":"PPL","country":"GB","cc2":"","admin1":"ENG","admin2":"F8","admin3":"26UH","admin4":"","population":90232,"elevation":94,"gtopo30":95,"timezone":"Europe/London","moddate":"2018-11-30T00:00:00.000Z"},{"geonameid":8714627,"name":"Stevenage Old Town","asciiname":"Stevenage Old Town","alternatenames":"Stevenage Old Town","latitude":"51.9114400","longitude":"-0.2082100","fclass":"P","fcode":"PPLX","country":"GB","cc2":"","admin1":"ENG","admin2":"F8","admin3":"26UH","admin4":"","population":0,"elevation":0,"gtopo30":96,"timezone":"Europe/London","moddate":"2014-03-06T00:00:00.000Z"},{"geonameid":2636889,"name":"Stocking Pelham","asciiname":"Stocking Pelham","alternatenames":"","latitude":"51.9414900","longitude":"0.1117100","fclass":"P","fcode":"PPL","country":"GB","cc2":"","admin1":"ENG","admin2":"F8","admin3":"26UD","admin4":"26UD040","population":0,"elevation":0,"gtopo30":128,"timezone":"Europe/London","moddate":"2018-07-03T00:00:00.000Z"},{"geonameid":2636072,"name":"Tewin","asciiname":"Tewin","alternatenames":"","latitude":"51.8166500","longitude":"-0.1561300","fclass":"P","fcode":"PPL","country":"GB","cc2":"","admin1":"ENG","admin2":"F8","admin3":"26UD","admin4":"26UD041","population":864,"elevation":0,"gtopo30":82,"timezone":"Europe/London","moddate":"2018-07-03T00:00:00.000Z"},{"geonameid":6615329,"name":"The Camp","asciiname":"The Camp","alternatenames":"","latitude":"51.7477300","longitude":"-0.3080500","fclass":"P","fcode":"PPLX","country":"GB","cc2":"","admin1":"ENG","admin2":"F8","admin3":"6615330","admin4":"","population":0,"elevation":0,"gtopo30":96,"timezone":"Europe/London","moddate":"2010-05-24T00:00:00.000Z"},{"geonameid":2636034,"name":"Therfield","asciiname":"Therfield","alternatenames":"Therfield","latitude":"52.0164000","longitude":"-0.0533000","fclass":"P","fcode":"PPL","country":"GB","cc2":"","admin1":"ENG","admin2":"F8","admin3":"26UF","admin4":"26UF031","population":320,"elevation":0,"gtopo30":160,"timezone":"Europe/London","moddate":"2018-07-03T00:00:00.000Z"},{"geonameid":2636009,"name":"Thorley","asciiname":"Thorley","alternatenames":"","latitude":"51.8488000","longitude":"0.1419000","fclass":"P","fcode":"PPL","country":"GB","cc2":"","admin1":"ENG","admin2":"F8","admin3":"26UD","admin4":"26UD042","population":0,"elevation":0,"gtopo30":87,"timezone":"Europe/London","moddate":"2018-07-03T00:00:00.000Z"},{"geonameid":2635901,"name":"Thundridge","asciiname":"Thundridge","alternatenames":"","latitude":"51.8362800","longitude":"-0.0347200","fclass":"P","fcode":"PPL","country":"GB","cc2":"","admin1":"ENG","admin2":"F8","admin3":"26UD","admin4":"26UD043","population":704,"elevation":0,"gtopo30":49,"timezone":"Europe/London","moddate":"2018-07-03T00:00:00.000Z"},{"geonameid":9409258,"name":"Tonwell","asciiname":"Tonwell","alternatenames":"","latitude":"51.8380300","longitude":"-0.0656200","fclass":"P","fcode":"PPL","country":"GB","cc2":"","admin1":"ENG","admin2":"F8","admin3":"26UD","admin4":"26UD007","population":0,"elevation":0,"gtopo30":76,"timezone":"Europe/London","moddate":"2014-08-27T00:00:00.000Z"},{"geonameid":2635459,"name":"Tring","asciiname":"Tring","alternatenames":"Tring,tryng,Тринг,ترینگ","latitude":"51.7947100","longitude":"-0.6582400","fclass":"P","fcode":"PPL","country":"GB","cc2":"","admin1":"ENG","admin2":"F8","admin3":"26UC","admin4":"26UC014","population":11929,"elevation":0,"gtopo30":134,"timezone":"Europe/London","moddate":"2018-07-03T00:00:00.000Z"},{"geonameid":8604598,"name":"Trowley Bottom","asciiname":"Trowley Bottom","alternatenames":"Trowley Bottom","latitude":"51.8138300","longitude":"-0.4401700","fclass":"P","fcode":"PPL","country":"GB","cc2":"","admin1":"ENG","admin2":"F8","admin3":"26UC","admin4":"26UC005","population":0,"elevation":0,"gtopo30":123,"timezone":"Europe/London","moddate":"2013-08-18T00:00:00.000Z","localeAltName":"Trowley Bottom"},{"geonameid":6951041,"name":"Wadesmill","asciiname":"Wadesmill","alternatenames":"","latitude":"51.8392500","longitude":"-0.0317600","fclass":"P","fcode":"PPL","country":"GB","cc2":"","admin1":"ENG","admin2":"F8","admin3":"26UD","admin4":"26UD043","population":0,"elevation":0,"gtopo30":49,"timezone":"Europe/London","moddate":"2018-07-03T00:00:00.000Z"},{"geonameid":2634881,"name":"Walkern","asciiname":"Walkern","alternatenames":"","latitude":"51.9188800","longitude":"-0.1275800","fclass":"P","fcode":"PPL","country":"GB","cc2":"","admin1":"ENG","admin2":"F8","admin3":"26UD","admin4":"26UD044","population":1541,"elevation":0,"gtopo30":88,"timezone":"Europe/London","moddate":"2018-07-03T00:00:00.000Z"},{"geonameid":2634866,"name":"Wallington","asciiname":"Wallington","alternatenames":"","latitude":"51.9878500","longitude":"-0.1189800","fclass":"P","fcode":"PPL","country":"GB","cc2":"","admin1":"ENG","admin2":"F8","admin3":"26UF","admin4":"26UF032","population":0,"elevation":0,"gtopo30":132,"timezone":"Europe/London","moddate":"2018-07-03T00:00:00.000Z"},{"geonameid":2634842,"name":"Waltham Cross","asciiname":"Waltham Cross","alternatenames":"waltham kras,والتهام کراس","latitude":"51.6860200","longitude":"-0.0357500","fclass":"P","fcode":"PPL","country":"GB","cc2":"","admin1":"ENG","admin2":"F8","admin3":"26UB","admin4":"","population":10000,"elevation":0,"gtopo30":20,"timezone":"Europe/London","moddate":"2015-07-14T00:00:00.000Z"},{"geonameid":2634777,"name":"Ware","asciiname":"Ware","alternatenames":"wr  hrtfwrdshr,ور، هرتفوردشر","latitude":"51.8105800","longitude":"-0.0287500","fclass":"P","fcode":"PPL","country":"GB","cc2":"","admin1":"ENG","admin2":"F8","admin3":"26UD","admin4":"26UD045","population":17576,"elevation":0,"gtopo30":36,"timezone":"Europe/London","moddate":"2018-07-03T00:00:00.000Z"},{"geonameid":2634677,"name":"Watford","asciiname":"Watford","alternatenames":"Uotford,Votford,Votfordas,WXF,Watford,waspeodeu,watfwrd,watofodo,wo te fu de,wtpwrd,wwtpwrd,Вотфорд,Уотфорд,ווטפורד,וטפורד,واتفورد,ワトフォード,沃特福德,왓퍼드","latitude":"51.6553100","longitude":"-0.3960200","fclass":"P","fcode":"PPL","country":"GB","cc2":"","admin1":"ENG","admin2":"F8","admin3":"26UK","admin4":"","population":125707,"elevation":0,"gtopo30":77,"timezone":"Europe/London","moddate":"2016-07-22T00:00:00.000Z"},{"geonameid":2634660,"name":"Watton at Stone","asciiname":"Watton at Stone","alternatenames":"Watton,Watton at Stone","latitude":"51.8584200","longitude":"-0.1138100","fclass":"P","fcode":"PPL","country":"GB","cc2":"","admin1":"ENG","admin2":"F8","admin3":"26UD","admin4":"26UD047","population":2338,"elevation":0,"gtopo30":62,"timezone":"Europe/London","moddate":"2018-07-03T00:00:00.000Z"},{"geonameid":11549421,"name":"Welham Green","asciiname":"Welham Green","alternatenames":"","latitude":"51.7346000","longitude":"-0.2208400","fclass":"P","fcode":"PPL","country":"GB","cc2":"","admin1":"ENG","admin2":"F8","admin3":"26UL","admin4":"26UL006","population":0,"elevation":0,"gtopo30":92,"timezone":"Europe/London","moddate":"2017-05-22T00:00:00.000Z"},{"geonameid":2634553,"name":"Welwyn","asciiname":"Welwyn","alternatenames":"Welwyn","latitude":"51.8331000","longitude":"-0.2135900","fclass":"P","fcode":"PPL","country":"GB","cc2":"","admin1":"ENG","admin2":"F8","admin3":"26UL","admin4":"26UL007","population":3254,"elevation":0,"gtopo30":82,"timezone":"Europe/London","moddate":"2018-07-03T00:00:00.000Z"},{"geonameid":2634552,"name":"Welwyn Garden City","asciiname":"Welwyn Garden City","alternatenames":"Garden City,Uehlin-Garden-Siti,Welvyn Garden City,Welwyn Garden,Welwyn Garden City,wei lin hua yuan shi,wellingadeunsiti,wlwyn gardn syty,Уэлин-Гарден-Сити,ولوین گاردن سیتی,ウェリン・ガーデン・シティ,韋林花園市,웰린가든시티","latitude":"51.8017400","longitude":"-0.2069100","fclass":"P","fcode":"PPL","country":"GB","cc2":"","admin1":"ENG","admin2":"F8","admin3":"26UL","admin4":"","population":59910,"elevation":0,"gtopo30":92,"timezone":"Europe/London","moddate":"2017-06-12T00:00:00.000Z"},{"geonameid":9884078,"name":"West Hyde","asciiname":"West Hyde","alternatenames":"","latitude":"51.6102600","longitude":"-0.5118100","fclass":"P","fcode":"PPL","country":"GB","cc2":"","admin1":"ENG","admin2":"F8","admin3":"26UJ","admin4":"","population":0,"elevation":0,"gtopo30":46,"timezone":"Europe/London","moddate":"2015-01-01T00:00:00.000Z"},{"geonameid":2634342,"name":"Westmill","asciiname":"Westmill","alternatenames":"","latitude":"51.9257400","longitude":"-0.0115900","fclass":"P","fcode":"PPL","country":"GB","cc2":"","admin1":"ENG","admin2":"F8","admin3":"26UD","admin4":"26UD048","population":0,"elevation":0,"gtopo30":85,"timezone":"Europe/London","moddate":"2018-07-03T00:00:00.000Z"},{"geonameid":2634327,"name":"Weston","asciiname":"Weston","alternatenames":"Weston","latitude":"51.9547100","longitude":"-0.1703500","fclass":"P","fcode":"PPL","country":"GB","cc2":"","admin1":"ENG","admin2":"F8","admin3":"26UF","admin4":"26UF033","population":0,"elevation":0,"gtopo30":150,"timezone":"Europe/London","moddate":"2018-07-03T00:00:00.000Z"},{"geonameid":2634172,"name":"Wheathampstead","asciiname":"Wheathampstead","alternatenames":"","latitude":"51.8114800","longitude":"-0.2937100","fclass":"P","fcode":"PPL","country":"GB","cc2":"","admin1":"ENG","admin2":"F8","admin3":"6615330","admin4":"26UG009","population":4326,"elevation":0,"gtopo30":91,"timezone":"Europe/London","moddate":"2018-07-03T00:00:00.000Z"},{"geonameid":2634163,"name":"Whempstead","asciiname":"Whempstead","alternatenames":"","latitude":"51.8711900","longitude":"-0.0846300","fclass":"P","fcode":"PPL","country":"GB","cc2":"","admin1":"ENG","admin2":"F8","admin3":"26UD","admin4":"26UD047","population":0,"elevation":0,"gtopo30":104,"timezone":"Europe/London","moddate":"2018-07-03T00:00:00.000Z"},{"geonameid":2634001,"name":"Whitwell","asciiname":"Whitwell","alternatenames":"","latitude":"51.8764400","longitude":"-0.2831600","fclass":"P","fcode":"PPL","country":"GB","cc2":"","admin1":"ENG","admin2":"F8","admin3":"26UF","admin4":"26UF029","population":0,"elevation":0,"gtopo30":94,"timezone":"Europe/London","moddate":"2018-07-03T00:00:00.000Z"},{"geonameid":2633956,"name":"Widford","asciiname":"Widford","alternatenames":"","latitude":"51.8232100","longitude":"0.0589700","fclass":"P","fcode":"PPL","country":"GB","cc2":"","admin1":"ENG","admin2":"F8","admin3":"26UD","admin4":"26UD049","population":534,"elevation":0,"gtopo30":79,"timezone":"Europe/London","moddate":"2018-07-03T00:00:00.000Z"},{"geonameid":2633945,"name":"Wigginton","asciiname":"Wigginton","alternatenames":"","latitude":"51.7832900","longitude":"-0.6387500","fclass":"P","fcode":"PPL","country":"GB","cc2":"","admin1":"ENG","admin2":"F8","admin3":"26UC","admin4":"26UC016","population":804,"elevation":0,"gtopo30":212,"timezone":"Europe/London","moddate":"2018-07-03T00:00:00.000Z"},{"geonameid":6696168,"name":"Woolmer Green","asciiname":"Woolmer Green","alternatenames":"","latitude":"51.8526500","longitude":"-0.1814400","fclass":"P","fcode":"PPL","country":"GB","cc2":"","admin1":"ENG","admin2":"F8","admin3":"26UL","admin4":"26UL008","population":0,"elevation":0,"gtopo30":94,"timezone":"Europe/London","moddate":"2018-07-03T00:00:00.000Z"},{"geonameid":2633535,"name":"Wormley","asciiname":"Wormley","alternatenames":"","latitude":"51.7324000","longitude":"-0.0242000","fclass":"P","fcode":"PPL","country":"GB","cc2":"","admin1":"ENG","admin2":"F8","admin3":"26UB","admin4":"","population":0,"elevation":0,"gtopo30":33,"timezone":"Europe/London","moddate":"2010-08-25T00:00:00.000Z"},{"geonameid":2633461,"name":"Wyddial","asciiname":"Wyddial","alternatenames":"","latitude":"51.9645200","longitude":"-0.0036900","fclass":"P","fcode":"PPL","country":"GB","cc2":"","admin1":"ENG","admin2":"F8","admin3":"26UD","admin4":"26UD050","population":0,"elevation":0,"gtopo30":125,"timezone":"Europe/London","moddate":"2018-07-03T00:00:00.000Z"},{"geonameid":6947745,"name":"Zouches Farm","asciiname":"Zouches Farm","alternatenames":"","latitude":"51.8763000","longitude":"-0.3374000","fclass":"P","fcode":"PPLX","country":"GB","cc2":"","admin1":"ENG","admin2":"F8","admin3":"26UF","admin4":"26UF016","population":0,"elevation":0,"gtopo30":125,"timezone":"Europe/London","moddate":"2018-07-03T00:00:00.000Z"}],"admin3":[{"geonameid":7290563,"name":"Broxbourne District","admin3":"26UB"},{"geonameid":6615330,"name":"City and District of St. Albans","admin3":"6615330"},{"geonameid":7290564,"name":"Dacorum District","admin3":"26UC"},{"geonameid":7290565,"name":"East Hertfordshire District","admin3":"26UD"},{"geonameid":7290566,"name":"Hertsmere District","admin3":"26UE"},{"geonameid":7290567,"name":"North Hertfordshire District","admin3":"26UF"},{"geonameid":7290568,"name":"Stevenage District","admin3":"26UH"},{"geonameid":2635925,"name":"Three Rivers","admin3":"26UJ"},{"geonameid":7290569,"name":"Watford District","admin3":"26UK"},{"geonameid":2634551,"name":"Welwyn Hatfield","admin3":"26UL"}],"alternateNames":[{"alternatenameId":1645592,"geonameid":2638867,"isoLanguage":"en","alternateName":"St Albans","isPreferredName":true,"isShortName":true,"isColloquial":false,"isHistoric":false},{"alternatenameId":2254270,"geonameid":2647043,"isoLanguage":"en","alternateName":"Hertfordshire","isPreferredName":true,"isShortName":true,"isColloquial":false,"isHistoric":false},{"alternatenameId":3241466,"geonameid":2649334,"isoLanguage":"en","alternateName":"Flamstead","isPreferredName":true,"isShortName":true,"isColloquial":false,"isHistoric":false},{"alternatenameId":1626647,"geonameid":6269131,"isoLanguage":"en","alternateName":"England","isPreferredName":true,"isShortName":true,"isColloquial":false,"isHistoric":false},{"alternatenameId":8666622,"geonameid":6690815,"isoLanguage":"en","alternateName":"South Oxney","isPreferredName":true,"isShortName":true,"isColloquial":false,"isHistoric":false},{"alternatenameId":8145462,"geonameid":8520850,"isoLanguage":"en","alternateName":"Letty Green","isPreferredName":true,"isShortName":true,"isColloquial":false,"isHistoric":false},{"alternatenameId":8434924,"geonameid":8604598,"isoLanguage":"en","alternateName":"Trowley Bottom","isPreferredName":true,"isShortName":true,"isColloquial":false,"isHistoric":false}]},"__N_SSG":true}