{"pageProps":{"locale":"ro","admin2":{"geonameid":686625,"name":"Comuna Agigea","country":"RO","admin1":"14","admin2":"60570","admin3":"","latitude":"44.0965400","longitude":"28.6268400"},"admin1":{"geonameid":680962,"name":"Constanța","admin1":"14","localeAltName":"Constanța"},"locations":[{"geonameid":686626,"name":"Agigea","asciiname":"Agigea","alternatenames":"Agigea","latitude":"44.0925800","longitude":"28.6107900","fclass":"P","fcode":"PPLA2","country":"RO","cc2":"","admin1":"14","admin2":"60570","admin3":"","admin4":"","population":5405,"elevation":0,"gtopo30":2,"timezone":"Europe/Bucharest","moddate":"2019-07-10T00:00:00.000Z"},{"geonameid":674960,"name":"Lazu","asciiname":"Lazu","alternatenames":"Lasmahale,Laz Mahale,Laz Mahate,Lazu,Lazul","latitude":"44.1153000","longitude":"28.6071700","fclass":"P","fcode":"PPL","country":"RO","cc2":"RO","admin1":"14","admin2":"60570","admin3":"","admin4":"","population":542,"elevation":0,"gtopo30":15,"timezone":"Europe/Bucharest","moddate":"2013-04-21T00:00:00.000Z"},{"geonameid":668112,"name":"Sanatoriul Agigea","asciiname":"Sanatoriul Agigea","alternatenames":"","latitude":"44.0927900","longitude":"28.6417400","fclass":"P","fcode":"PPLX","country":"RO","cc2":"","admin1":"14","admin2":"60570","admin3":"","admin4":"","population":618,"elevation":0,"gtopo30":11,"timezone":"Europe/Bucharest","moddate":"2013-04-21T00:00:00.000Z"},{"geonameid":666265,"name":"Stațiunea Zoologică Marină Agigea","asciiname":"Statiunea Zoologica Marina Agigea","alternatenames":"","latitude":"44.0891600","longitude":"28.6420100","fclass":"P","fcode":"PPL","country":"RO","cc2":"","admin1":"14","admin2":"60570","admin3":"","admin4":"","population":84,"elevation":0,"gtopo30":12,"timezone":"Europe/Bucharest","moddate":"2015-11-24T00:00:00.000Z"}],"admin3":[],"alternateNames":[{"alternatenameId":402149,"geonameid":680962,"isoLanguage":"ro","alternateName":"Constanța","isPreferredName":true,"isShortName":true,"isColloquial":false,"isHistoric":false}]},"__N_SSG":true}