{"pageProps":{"locale":"ro","admin2":{"geonameid":668925,"name":"Comuna Râca","country":"RO","admin1":"03","admin2":"20048","admin3":"","latitude":"44.4421600","longitude":"25.0367100"},"admin1":{"geonameid":686192,"name":"Argeş","admin1":"03"},"locations":[{"geonameid":686660,"name":"Adunați","asciiname":"Adunati","alternatenames":"","latitude":"44.4519700","longitude":"25.0293300","fclass":"P","fcode":"PPL","country":"RO","cc2":"","admin1":"03","admin2":"20048","admin3":"","admin4":"","population":290,"elevation":0,"gtopo30":172,"timezone":"Europe/Bucharest","moddate":"2013-04-21T00:00:00.000Z"},{"geonameid":683548,"name":"Bucov","asciiname":"Bucov","alternatenames":"Bucov,Bucov-Adunati,Bucov-Adunaţi,Bucovu-Adunati,Bucovu-Adunaţi,Bucovul","latitude":"44.4402400","longitude":"25.0374700","fclass":"P","fcode":"PPL","country":"RO","cc2":"RO","admin1":"03","admin2":"20048","admin3":"","admin4":"","population":379,"elevation":0,"gtopo30":167,"timezone":"Europe/Bucharest","moddate":"2013-04-21T00:00:00.000Z"},{"geonameid":681477,"name":"Ciuculeşti","asciiname":"Ciuculesti","alternatenames":"","latitude":"44.4500000","longitude":"25.0333300","fclass":"P","fcode":"PPLX","country":"RO","cc2":"","admin1":"03","admin2":"20048","admin3":"","admin4":"","population":0,"elevation":0,"gtopo30":161,"timezone":"Europe/Bucharest","moddate":"2016-02-07T00:00:00.000Z"},{"geonameid":668926,"name":"Râca","asciiname":"Raca","alternatenames":"Raca,Raca-Veche,Rica,Rica Veche,Râca,Râca-Veche,Rîca,Rîca Veche","latitude":"44.4342600","longitude":"25.0433300","fclass":"P","fcode":"PPLA2","country":"RO","cc2":"RO","admin1":"03","admin2":"20048","admin3":"","admin4":"","population":866,"elevation":0,"gtopo30":166,"timezone":"Europe/Bucharest","moddate":"2013-04-21T00:00:00.000Z"},{"geonameid":668924,"name":"Râca Nouă","asciiname":"Raca Noua","alternatenames":"Raca Noua,Rica Noua,Râca Nouă,Rîca Nouă","latitude":"44.4166700","longitude":"25.0500000","fclass":"P","fcode":"PPL","country":"RO","cc2":"RO","admin1":"03","admin2":"20048","admin3":"","admin4":"","population":0,"elevation":0,"gtopo30":161,"timezone":"Europe/Bucharest","moddate":"2020-03-08T00:00:00.000Z"}],"admin3":[],"alternateNames":[]},"__N_SSG":true}