{"pageProps":{"locale":"ro","admin2":{"geonameid":666285,"name":"Comuna Stănileşti","country":"RO","admin1":"38","admin2":"165979","admin3":"","latitude":"46.6503000","longitude":"28.1615100"},"admin1":{"geonameid":663116,"name":"Vaslui","admin1":"38"},"locations":[{"geonameid":684407,"name":"Bogdana-Voloseni","asciiname":"Bogdana-Voloseni","alternatenames":"Bogdan-Voloseni,Bogdan-Voloşeni,Bogdana Voloseni,Voloseni Bogdana","latitude":"46.6375700","longitude":"28.1208300","fclass":"P","fcode":"PPL","country":"RO","cc2":"RO","admin1":"38","admin2":"165979","admin3":"","admin4":"","population":189,"elevation":0,"gtopo30":83,"timezone":"Europe/Bucharest","moddate":"2013-04-21T00:00:00.000Z"},{"geonameid":683412,"name":"Budu Cantemir","asciiname":"Budu Cantemir","alternatenames":"Budu-Cantemir,Cantemir","latitude":"46.6146900","longitude":"28.1297700","fclass":"P","fcode":"PPL","country":"RO","cc2":"RO","admin1":"38","admin2":"165979","admin3":"","admin4":"","population":376,"elevation":0,"gtopo30":89,"timezone":"Europe/Bucharest","moddate":"2013-04-21T00:00:00.000Z"},{"geonameid":682182,"name":"Chersăcosu","asciiname":"Chersacosu","alternatenames":"","latitude":"46.7179600","longitude":"28.1385900","fclass":"P","fcode":"PPL","country":"RO","cc2":"","admin1":"38","admin2":"165979","admin3":"","admin4":"","population":489,"elevation":0,"gtopo30":38,"timezone":"Europe/Bucharest","moddate":"2013-04-21T00:00:00.000Z"},{"geonameid":676461,"name":"Gura Văii","asciiname":"Gura Vaii","alternatenames":"Gura Vaei,Gura Vaii,Gura Văei,Gura Văii","latitude":"46.6442300","longitude":"28.1600800","fclass":"P","fcode":"PPL","country":"RO","cc2":"RO","admin1":"38","admin2":"165979","admin3":"","admin4":"","population":459,"elevation":0,"gtopo30":28,"timezone":"Europe/Bucharest","moddate":"2013-04-21T00:00:00.000Z"},{"geonameid":670174,"name":"Pogănești","asciiname":"Poganesti","alternatenames":"","latitude":"46.6923700","longitude":"28.1677900","fclass":"P","fcode":"PPL","country":"RO","cc2":"","admin1":"38","admin2":"165979","admin3":"","admin4":"","population":1129,"elevation":0,"gtopo30":20,"timezone":"Europe/Bucharest","moddate":"2013-04-21T00:00:00.000Z"},{"geonameid":668019,"name":"Săratu","asciiname":"Saratu","alternatenames":"Saratu,Saratul,Săratu,Săratul","latitude":"46.6244200","longitude":"28.2399100","fclass":"P","fcode":"PPL","country":"RO","cc2":"RO","admin1":"38","admin2":"165979","admin3":"","admin4":"","population":49,"elevation":0,"gtopo30":19,"timezone":"Europe/Bucharest","moddate":"2013-04-21T00:00:00.000Z"},{"geonameid":666287,"name":"Stănileşti","asciiname":"Stanilesti","alternatenames":"Slanilesti,Slănileşti,Stalinesti,Stalinestii,Stanilesti,Stălineşti,Stălineştii,Stănileşti","latitude":"46.6183300","longitude":"28.1713900","fclass":"P","fcode":"PPLA2","country":"RO","cc2":"","admin1":"38","admin2":"165979","admin3":"","admin4":"","population":5874,"elevation":0,"gtopo30":47,"timezone":"Europe/Bucharest","moddate":"2012-06-12T00:00:00.000Z"}],"admin3":[],"alternateNames":[]},"__N_SSG":true}