{"pageProps":{"locale":"ro","admin2":{"geonameid":668295,"name":"Oraş Sãcueni","country":"RO","admin1":"05","admin2":"30915","admin3":"","latitude":"47.3299600","longitude":"22.1180200"},"admin1":{"geonameid":684878,"name":"Bihor","admin1":"05"},"locations":[{"geonameid":683058,"name":"Cadea","asciiname":"Cadea","alternatenames":"Cadea,Cadea-Mare","latitude":"47.3118500","longitude":"22.0622500","fclass":"P","fcode":"PPL","country":"RO","cc2":"RO","admin1":"05","admin2":"30915","admin3":"","admin4":"","population":1170,"elevation":0,"gtopo30":112,"timezone":"Europe/Bucharest","moddate":"2013-04-21T00:00:00.000Z"},{"geonameid":681755,"name":"Ciocaia","asciiname":"Ciocaia","alternatenames":"Ciocaia,Ciocara","latitude":"47.3389000","longitude":"22.0457500","fclass":"P","fcode":"PPL","country":"RO","cc2":"RO","admin1":"05","admin2":"30915","admin3":"","admin4":"","population":905,"elevation":0,"gtopo30":104,"timezone":"Europe/Bucharest","moddate":"2013-04-21T00:00:00.000Z"},{"geonameid":680057,"name":"Cubulcut","asciiname":"Cubulcut","alternatenames":"","latitude":"47.3227000","longitude":"22.1864800","fclass":"P","fcode":"PPL","country":"RO","cc2":"","admin1":"05","admin2":"30915","admin3":"","admin4":"","population":1062,"elevation":0,"gtopo30":179,"timezone":"Europe/Bucharest","moddate":"2013-04-21T00:00:00.000Z"},{"geonameid":671859,"name":"Olosig","asciiname":"Olosig","alternatenames":"","latitude":"47.3518900","longitude":"22.1787900","fclass":"P","fcode":"PPL","country":"RO","cc2":"","admin1":"05","admin2":"30915","admin3":"","admin4":"","population":574,"elevation":0,"gtopo30":144,"timezone":"Europe/Bucharest","moddate":"2013-04-21T00:00:00.000Z"},{"geonameid":668297,"name":"Săcueni","asciiname":"Sacueni","alternatenames":"Sacuieni,Secueni,Szekelyhid,Székelyhíd","latitude":"47.3500000","longitude":"22.1000000","fclass":"P","fcode":"PPLA2","country":"RO","cc2":"","admin1":"05","admin2":"30915","admin3":"","admin4":"","population":7075,"elevation":126,"gtopo30":116,"timezone":"Europe/Bucharest","moddate":"2020-02-12T00:00:00.000Z"},{"geonameid":666975,"name":"Sânnicolau de Munte","asciiname":"Sannicolau de Munte","alternatenames":"Hegykoeszentmiklos,Hegyköszentmiklós,Sannicolaul-de-Munte,Sinnicolau de Munte,Sânnicolaul-de-Munte,Sînnicolau de Munte","latitude":"47.3036200","longitude":"22.1367100","fclass":"P","fcode":"PPL","country":"RO","cc2":"RO","admin1":"05","admin2":"30915","admin3":"","admin4":"","population":979,"elevation":0,"gtopo30":118,"timezone":"Europe/Bucharest","moddate":"2014-06-04T00:00:00.000Z"}],"admin3":[],"alternateNames":[]},"__N_SSG":true}