{"pageProps":{"locale":"ro","admin2":{"geonameid":669585,"name":"Comuna Probota","country":"RO","admin1":"23","admin2":"98649","admin3":"","latitude":"47.3879200","longitude":"27.4944600"},"admin1":{"geonameid":675809,"name":"Iaşi","admin1":"23"},"locations":[{"geonameid":685526,"name":"Bălteni","asciiname":"Balteni","alternatenames":"","latitude":"47.4044000","longitude":"27.5017500","fclass":"P","fcode":"PPL","country":"RO","cc2":"","admin1":"23","admin2":"98649","admin3":"","admin4":"","population":622,"elevation":0,"gtopo30":42,"timezone":"Europe/Bucharest","moddate":"2013-04-21T00:00:00.000Z"},{"geonameid":681446,"name":"Ciulineşti","asciiname":"Ciulinesti","alternatenames":"","latitude":"47.3666700","longitude":"27.5166700","fclass":"P","fcode":"PPL","country":"RO","cc2":"","admin1":"23","admin2":"98649","admin3":"","admin4":"","population":0,"elevation":0,"gtopo30":41,"timezone":"Europe/Bucharest","moddate":"2016-02-07T00:00:00.000Z"},{"geonameid":671131,"name":"Perieni","asciiname":"Perieni","alternatenames":"","latitude":"47.3846900","longitude":"27.4745300","fclass":"P","fcode":"PPL","country":"RO","cc2":"","admin1":"23","admin2":"98649","admin3":"","admin4":"","population":1650,"elevation":0,"gtopo30":95,"timezone":"Europe/Bucharest","moddate":"2013-04-21T00:00:00.000Z"},{"geonameid":669587,"name":"Probota","asciiname":"Probota","alternatenames":"Probota,Probota-Ciulnesti,Probota-Ciulneşti","latitude":"47.3833300","longitude":"27.5000000","fclass":"P","fcode":"PPLA2","country":"RO","cc2":"","admin1":"23","admin2":"98649","admin3":"","admin4":"","population":3685,"elevation":0,"gtopo30":77,"timezone":"Europe/Bucharest","moddate":"2012-06-12T00:00:00.000Z"}],"admin3":[],"alternateNames":[]},"__N_SSG":true}