{"pageProps":{"locale":"ro","admin2":{"geonameid":8334935,"name":"Oraş Mãrãşeşti","country":"RO","admin1":"40","admin2":"174922","admin3":"","latitude":"45.9044600","longitude":"27.2230500"},"admin1":{"geonameid":662447,"name":"Vrancea","admin1":"40","localeAltName":"Vrancea"},"locations":[{"geonameid":682971,"name":"Călimănești","asciiname":"Calimanesti","alternatenames":"Calimanesti,Calimanestii,Călimăneşti,Călimăneştii","latitude":"45.9620700","longitude":"27.2180800","fclass":"P","fcode":"PPL","country":"RO","cc2":"RO","admin1":"40","admin2":"174922","admin3":"","admin4":"","population":743,"elevation":0,"gtopo30":70,"timezone":"Europe/Bucharest","moddate":"2013-04-21T00:00:00.000Z"},{"geonameid":676311,"name":"Haret","asciiname":"Haret","alternatenames":"Haret,Haret Modruzeni","latitude":"45.9192300","longitude":"27.2098600","fclass":"P","fcode":"PPL","country":"RO","cc2":"RO","admin1":"40","admin2":"174922","admin3":"","admin4":"","population":596,"elevation":0,"gtopo30":75,"timezone":"Europe/Bucharest","moddate":"2013-04-21T00:00:00.000Z"},{"geonameid":673881,"name":"Mărășești","asciiname":"Marasesti","alternatenames":"Marasheshty","latitude":"45.8833300","longitude":"27.2333300","fclass":"P","fcode":"PPLA2","country":"RO","cc2":"","admin1":"40","admin2":"174922","admin3":"","admin4":"","population":8844,"elevation":0,"gtopo30":58,"timezone":"Europe/Bucharest","moddate":"2018-04-29T00:00:00.000Z"},{"geonameid":672970,"name":"Modruzeni","asciiname":"Modruzeni","alternatenames":"Modruzeni,Modruzenii","latitude":"45.9056800","longitude":"27.2331900","fclass":"P","fcode":"PPL","country":"RO","cc2":"RO","admin1":"40","admin2":"174922","admin3":"","admin4":"","population":62,"elevation":0,"gtopo30":62,"timezone":"Europe/Bucharest","moddate":"2013-04-21T00:00:00.000Z"},{"geonameid":671532,"name":"Pădureni","asciiname":"Padureni","alternatenames":"Padureni,Padurenii,Pădureni,Pădurenii","latitude":"45.9372900","longitude":"27.2315200","fclass":"P","fcode":"PPL","country":"RO","cc2":"RO","admin1":"40","admin2":"174922","admin3":"","admin4":"","population":535,"elevation":0,"gtopo30":65,"timezone":"Europe/Bucharest","moddate":"2013-04-21T00:00:00.000Z"},{"geonameid":666826,"name":"Siretu","asciiname":"Siretu","alternatenames":"Lingurari,Siretu","latitude":"45.8853000","longitude":"27.2375300","fclass":"P","fcode":"PPL","country":"RO","cc2":"RO","admin1":"40","admin2":"174922","admin3":"","admin4":"","population":0,"elevation":0,"gtopo30":56,"timezone":"Europe/Bucharest","moddate":"2013-04-21T00:00:00.000Z"},{"geonameid":664913,"name":"Tișița","asciiname":"Tisita","alternatenames":"","latitude":"45.8456600","longitude":"27.2122900","fclass":"P","fcode":"PPLX","country":"RO","cc2":"","admin1":"40","admin2":"174922","admin3":"","admin4":"","population":0,"elevation":0,"gtopo30":77,"timezone":"Europe/Bucharest","moddate":"2013-04-21T00:00:00.000Z"}],"admin3":[],"alternateNames":[{"alternatenameId":391637,"geonameid":662447,"isoLanguage":"ro","alternateName":"Vrancea","isPreferredName":true,"isShortName":true,"isColloquial":false,"isHistoric":false}]},"__N_SSG":true}