{"pageProps":{"locale":"ro","admin2":{"geonameid":685244,"name":"Comuna Băuţar","country":"RO","admin1":"12","admin2":"51332","admin3":"","latitude":"45.5301600","longitude":"22.5784800"},"admin1":{"geonameid":682714,"name":"Caraş-Severin","admin1":"12"},"locations":[{"geonameid":685245,"name":"Băuţar","asciiname":"Bautar","alternatenames":"Bautar,Bautaru Superior,Bautarul-Superior,Băuţar,Băuţaru Superior,Băuţarul-Superior","latitude":"45.5166700","longitude":"22.5666700","fclass":"P","fcode":"PPLA2","country":"RO","cc2":"","admin1":"12","admin2":"51332","admin3":"","admin4":"","population":2731,"elevation":0,"gtopo30":531,"timezone":"Europe/Bucharest","moddate":"2012-06-12T00:00:00.000Z"},{"geonameid":685243,"name":"Băuţaru Inferior","asciiname":"Bautaru Inferior","alternatenames":"Bautaru Inferior,Bautarul-Inferior,Băuţaru Inferior,Băuţarul-Inferior","latitude":"45.5166700","longitude":"22.5333300","fclass":"P","fcode":"PPL","country":"RO","cc2":"","admin1":"12","admin2":"51332","admin3":"","admin4":"","population":0,"elevation":0,"gtopo30":406,"timezone":"Europe/Bucharest","moddate":"2016-02-07T00:00:00.000Z"},{"geonameid":683545,"name":"Bucova","asciiname":"Bucova","alternatenames":"","latitude":"45.5090600","longitude":"22.6373100","fclass":"P","fcode":"PPL","country":"RO","cc2":"","admin1":"12","admin2":"51332","admin3":"","admin4":"","population":1100,"elevation":0,"gtopo30":579,"timezone":"Europe/Bucharest","moddate":"2013-04-21T00:00:00.000Z"},{"geonameid":680732,"name":"Cornișoru","asciiname":"Cornisoru","alternatenames":"Cornisoru,Cornişoru,Strimba,Strîmba","latitude":"45.5205900","longitude":"22.5623800","fclass":"P","fcode":"PPL","country":"RO","cc2":"RO","admin1":"12","admin2":"51332","admin3":"","admin4":"","population":323,"elevation":0,"gtopo30":443,"timezone":"Europe/Bucharest","moddate":"2013-04-21T00:00:00.000Z"},{"geonameid":671140,"name":"Preveciori","asciiname":"Preveciori","alternatenames":"","latitude":"45.5759400","longitude":"22.5581800","fclass":"P","fcode":"PPL","country":"RO","cc2":"","admin1":"12","admin2":"51332","admin3":"","admin4":"","population":19,"elevation":0,"gtopo30":989,"timezone":"Europe/Bucharest","moddate":"2013-04-21T00:00:00.000Z"}],"admin3":[],"alternateNames":[]},"__N_SSG":true}