{"pageProps":{"locale":"ro","admin2":{"geonameid":686340,"name":"Comuna Andrieşeni","country":"RO","admin1":"23","admin2":"95667","admin3":"","latitude":"47.5111200","longitude":"27.2950200"},"admin1":{"geonameid":675809,"name":"Iaşi","admin1":"23"},"locations":[{"geonameid":686341,"name":"Andrieşeni","asciiname":"Andrieseni","alternatenames":"Andrieseni,Andrieşeni","latitude":"47.5333300","longitude":"27.2833300","fclass":"P","fcode":"PPLA2","country":"RO","cc2":"","admin1":"23","admin2":"95667","admin3":"","admin4":"","population":4501,"elevation":0,"gtopo30":60,"timezone":"Europe/Bucharest","moddate":"2012-06-12T00:00:00.000Z"},{"geonameid":683376,"name":"Buhăeni","asciiname":"Buhaeni","alternatenames":"","latitude":"47.5067700","longitude":"27.2790900","fclass":"P","fcode":"PPL","country":"RO","cc2":"","admin1":"23","admin2":"95667","admin3":"","admin4":"","population":469,"elevation":0,"gtopo30":54,"timezone":"Europe/Bucharest","moddate":"2013-04-21T00:00:00.000Z"},{"geonameid":678995,"name":"Drăgănești","asciiname":"Draganesti","alternatenames":"Draganesti,Dragaseni,Drăgăneşti,Drăgăşeni","latitude":"47.5209000","longitude":"27.2618200","fclass":"P","fcode":"PPL","country":"RO","cc2":"RO","admin1":"23","admin2":"95667","admin3":"","admin4":"","population":144,"elevation":0,"gtopo30":53,"timezone":"Europe/Bucharest","moddate":"2013-04-21T00:00:00.000Z"},{"geonameid":678456,"name":"Fandola","asciiname":"Fandola","alternatenames":"","latitude":"47.4833300","longitude":"27.3166700","fclass":"P","fcode":"PPLX","country":"RO","cc2":"","admin1":"23","admin2":"95667","admin3":"","admin4":"","population":0,"elevation":0,"gtopo30":46,"timezone":"Europe/Bucharest","moddate":"2016-02-07T00:00:00.000Z"},{"geonameid":10946710,"name":"Fântânele","asciiname":"Fantanele","alternatenames":"","latitude":"47.5093500","longitude":"27.3167800","fclass":"P","fcode":"PPL","country":"RO","cc2":"","admin1":"23","admin2":"95667","admin3":"","admin4":"","population":377,"elevation":0,"gtopo30":53,"timezone":"Europe/Bucharest","moddate":"2015-12-07T00:00:00.000Z"},{"geonameid":677084,"name":"Glăvănești","asciiname":"Glavanesti","alternatenames":"Glavanesti,Glavanesti-Noi,Glavanesti-Noui,Glavanesti-Vechi,Glavanestii,Glavanestii Noi,Glavanestii-Noui,Glavanestii-Vechi,Glăvăneşti,Glăvăneşti-Noi,Glăvăneşti-Noui,Glăvăneşti-Vechi,Glăvăneştii,Glăvăneştii Noi,Glăvăneştii-Noui,Glăvăneştii-Vechi","latitude":"47.5526200","longitude":"27.2703400","fclass":"P","fcode":"PPL","country":"RO","cc2":"RO","admin1":"23","admin2":"95667","admin3":"","admin4":"","population":797,"elevation":0,"gtopo30":67,"timezone":"Europe/Bucharest","moddate":"2013-04-21T00:00:00.000Z"},{"geonameid":678560,"name":"Iepureni","asciiname":"Iepureni","alternatenames":"","latitude":"47.4704000","longitude":"27.3276800","fclass":"P","fcode":"PPL","country":"RO","cc2":"","admin1":"23","admin2":"95667","admin3":"","admin4":"","population":88,"elevation":0,"gtopo30":60,"timezone":"Europe/Bucharest","moddate":"2013-04-21T00:00:00.000Z"},{"geonameid":666507,"name":"Şoldana","asciiname":"Soldana","alternatenames":"","latitude":"47.4833300","longitude":"27.2833300","fclass":"P","fcode":"PPL","country":"RO","cc2":"","admin1":"23","admin2":"95667","admin3":"","admin4":"","population":0,"elevation":0,"gtopo30":101,"timezone":"Europe/Bucharest","moddate":"2016-02-07T00:00:00.000Z"},{"geonameid":666359,"name":"Spineni","asciiname":"Spineni","alternatenames":"","latitude":"47.4893300","longitude":"27.3192400","fclass":"P","fcode":"PPL","country":"RO","cc2":"","admin1":"23","admin2":"95667","admin3":"","admin4":"","population":603,"elevation":0,"gtopo30":56,"timezone":"Europe/Bucharest","moddate":"2013-04-21T00:00:00.000Z"}],"admin3":[],"alternateNames":[]},"__N_SSG":true}