{"pageProps":{"locale":"ro","admin2":{"geonameid":666797,"name":"Comuna Siseşti","country":"RO","admin1":"26","admin2":"113625","admin3":"","latitude":"44.7714600","longitude":"22.8375400"},"admin1":{"geonameid":673612,"name":"Mehedinţi","admin1":"26"},"locations":[{"geonameid":862886,"name":"Călniceni","asciiname":"Calniceni","alternatenames":"","latitude":"44.8080600","longitude":"22.8600000","fclass":"P","fcode":"PPL","country":"RO","cc2":"","admin1":"26","admin2":"113625","admin3":"","admin4":"","population":0,"elevation":0,"gtopo30":245,"timezone":"Europe/Bucharest","moddate":"2016-02-07T00:00:00.000Z"},{"geonameid":682737,"name":"Cărămidaru","asciiname":"Caramidaru","alternatenames":"Caramidari,Caramidaru,Cărămidari,Cărămidaru","latitude":"44.7859800","longitude":"22.8641600","fclass":"P","fcode":"PPL","country":"RO","cc2":"RO","admin1":"26","admin2":"113625","admin3":"","admin4":"","population":140,"elevation":0,"gtopo30":312,"timezone":"Europe/Bucharest","moddate":"2013-04-21T00:00:00.000Z"},{"geonameid":681627,"name":"Ciovârnășani","asciiname":"Ciovarnasani","alternatenames":"Ciovarnasani,Ciovirnasani,Ciovârnăşani,Ciovîrnăşani","latitude":"44.7575000","longitude":"22.8710500","fclass":"P","fcode":"PPL","country":"RO","cc2":"RO","admin1":"26","admin2":"113625","admin3":"","admin4":"","population":494,"elevation":0,"gtopo30":215,"timezone":"Europe/Bucharest","moddate":"2013-04-21T00:00:00.000Z"},{"geonameid":681194,"name":"Cocorova","asciiname":"Cocorova","alternatenames":"","latitude":"44.7477200","longitude":"22.8069300","fclass":"P","fcode":"PPL","country":"RO","cc2":"","admin1":"26","admin2":"113625","admin3":"","admin4":"","population":435,"elevation":0,"gtopo30":222,"timezone":"Europe/Bucharest","moddate":"2013-04-21T00:00:00.000Z"},{"geonameid":680345,"name":"Crăguești","asciiname":"Craguesti","alternatenames":"","latitude":"44.7599500","longitude":"22.7731600","fclass":"P","fcode":"PPL","country":"RO","cc2":"","admin1":"26","admin2":"113625","admin3":"","admin4":"","population":566,"elevation":0,"gtopo30":266,"timezone":"Europe/Bucharest","moddate":"2013-04-21T00:00:00.000Z"},{"geonameid":672177,"name":"Noapteșa","asciiname":"Noaptesa","alternatenames":"","latitude":"44.8011000","longitude":"22.8678400","fclass":"P","fcode":"PPL","country":"RO","cc2":"","admin1":"26","admin2":"113625","admin3":"","admin4":"","population":807,"elevation":0,"gtopo30":234,"timezone":"Europe/Bucharest","moddate":"2013-04-21T00:00:00.000Z"},{"geonameid":666801,"name":"Şişeşti","asciiname":"Sisesti","alternatenames":"Sisesti,Sisestii de Jos,Siseştii de Jos,Şişeşti","latitude":"44.7775000","longitude":"22.8394400","fclass":"P","fcode":"PPLA2","country":"RO","cc2":"","admin1":"26","admin2":"113625","admin3":"","admin4":"","population":0,"elevation":0,"gtopo30":217,"timezone":"Europe/Bucharest","moddate":"2012-06-12T00:00:00.000Z"},{"geonameid":666796,"name":"Siseştii de Sus","asciiname":"Sisestii de Sus","alternatenames":"","latitude":"44.7833300","longitude":"22.8333300","fclass":"P","fcode":"PPL","country":"RO","cc2":"","admin1":"26","admin2":"113625","admin3":"","admin4":"","population":0,"elevation":0,"gtopo30":299,"timezone":"Europe/Bucharest","moddate":"2016-02-07T00:00:00.000Z"},{"geonameid":666081,"name":"Ştiucani","asciiname":"Stiucani","alternatenames":"","latitude":"44.7500000","longitude":"22.8500000","fclass":"P","fcode":"PPLX","country":"RO","cc2":"","admin1":"26","admin2":"113625","admin3":"","admin4":"","population":0,"elevation":0,"gtopo30":201,"timezone":"Europe/Bucharest","moddate":"2016-02-07T00:00:00.000Z"}],"admin3":[],"alternateNames":[]},"__N_SSG":true}