{"pageProps":{"locale":"ro","admin2":{"geonameid":683225,"name":"Comuna Burila Mare","country":"RO","admin1":"26","admin2":"110946","admin3":"","latitude":"44.4783500","longitude":"22.5491500"},"admin1":{"geonameid":673612,"name":"Mehedinţi","admin1":"26"},"locations":[{"geonameid":683226,"name":"Burila Mare","asciiname":"Burila Mare","alternatenames":"Burila Mare","latitude":"44.4527800","longitude":"22.5736100","fclass":"P","fcode":"PPLA2","country":"RO","cc2":"","admin1":"26","admin2":"110946","admin3":"","admin4":"","population":2656,"elevation":0,"gtopo30":102,"timezone":"Europe/Bucharest","moddate":"2012-06-12T00:00:00.000Z"},{"geonameid":680124,"name":"Crivina","asciiname":"Crivina","alternatenames":"Crivina,Krivina","latitude":"44.5058200","longitude":"22.5721400","fclass":"P","fcode":"PPL","country":"RO","cc2":"RO","admin1":"26","admin2":"110946","admin3":"","admin4":"","population":880,"elevation":0,"gtopo30":47,"timezone":"Europe/Bucharest","moddate":"2013-04-21T00:00:00.000Z"},{"geonameid":675319,"name":"Izvoru Frumos","asciiname":"Izvoru Frumos","alternatenames":"Isvoru-Frumos,Isvorul Frumos,Izvoru Frumos","latitude":"44.4546500","longitude":"22.4941600","fclass":"P","fcode":"PPL","country":"RO","cc2":"","admin1":"26","admin2":"110946","admin3":"","admin4":"","population":0,"elevation":0,"gtopo30":98,"timezone":"Europe/Bucharest","moddate":"2016-02-07T00:00:00.000Z"},{"geonameid":665146,"name":"Țigănași","asciiname":"Tiganasi","alternatenames":"Tiganasi,Tiganasu,Tiganasul,Ţigănaşi,Ţigănaşu,Ţigănaşul","latitude":"44.4330000","longitude":"22.5035200","fclass":"P","fcode":"PPL","country":"RO","cc2":"RO","admin1":"26","admin2":"110946","admin3":"","admin4":"","population":471,"elevation":0,"gtopo30":88,"timezone":"Europe/Bucharest","moddate":"2013-04-21T00:00:00.000Z"},{"geonameid":662448,"name":"Vrancea","asciiname":"Vrancea","alternatenames":"Vranca,Vrancea","latitude":"44.5453100","longitude":"22.5994200","fclass":"P","fcode":"PPL","country":"RO","cc2":"RO","admin1":"26","admin2":"110946","admin3":"","admin4":"","population":320,"elevation":0,"gtopo30":49,"timezone":"Europe/Bucharest","moddate":"2013-04-20T00:00:00.000Z"}],"admin3":[],"alternateNames":[]},"__N_SSG":true}