{"pageProps":{"locale":"ro","admin2":{"geonameid":680889,"name":"Comuna Corbeanca","country":"RO","admin1":"43","admin2":"102160","admin3":"","latitude":"44.5967100","longitude":"26.0324100"},"admin1":{"geonameid":865518,"name":"Ilfov","admin1":"43"},"locations":[{"geonameid":680890,"name":"Corbeanca","asciiname":"Corbeanca","alternatenames":"Corbeanca","latitude":"44.6000000","longitude":"26.0500000","fclass":"P","fcode":"PPLA2","country":"RO","cc2":"","admin1":"43","admin2":"102160","admin3":"","admin4":"","population":3786,"elevation":0,"gtopo30":97,"timezone":"Europe/Bucharest","moddate":"2012-06-12T00:00:00.000Z"},{"geonameid":673639,"name":"Mecheaua","asciiname":"Mecheaua","alternatenames":"","latitude":"44.6000000","longitude":"26.0333300","fclass":"P","fcode":"PPL","country":"RO","cc2":"","admin1":"43","admin2":"102160","admin3":"","admin4":"","population":0,"elevation":0,"gtopo30":96,"timezone":"Europe/Bucharest","moddate":"2016-02-07T00:00:00.000Z"},{"geonameid":671769,"name":"Oracu","asciiname":"Oracu","alternatenames":"Oracu,Oracul","latitude":"44.6166700","longitude":"26.0166700","fclass":"P","fcode":"PPL","country":"RO","cc2":"","admin1":"43","admin2":"102160","admin3":"","admin4":"","population":0,"elevation":0,"gtopo30":102,"timezone":"Europe/Bucharest","moddate":"2016-02-07T00:00:00.000Z"},{"geonameid":671638,"name":"Ostratu","asciiname":"Ostratu","alternatenames":"Ostratu,Ostratul","latitude":"44.6060900","longitude":"26.0149900","fclass":"P","fcode":"PPL","country":"RO","cc2":"RO","admin1":"43","admin2":"102160","admin3":"","admin4":"","population":321,"elevation":0,"gtopo30":101,"timezone":"Europe/Bucharest","moddate":"2013-04-21T00:00:00.000Z"},{"geonameid":671004,"name":"Petrești","asciiname":"Petresti","alternatenames":"","latitude":"44.6019400","longitude":"26.0679400","fclass":"P","fcode":"PPL","country":"RO","cc2":"","admin1":"43","admin2":"102160","admin3":"","admin4":"","population":408,"elevation":0,"gtopo30":99,"timezone":"Europe/Bucharest","moddate":"2013-04-21T00:00:00.000Z"},{"geonameid":665557,"name":"Tamași","asciiname":"Tamasi","alternatenames":"","latitude":"44.5843800","longitude":"26.0072400","fclass":"P","fcode":"PPL","country":"RO","cc2":"","admin1":"43","admin2":"102160","admin3":"","admin4":"","population":1390,"elevation":0,"gtopo30":100,"timezone":"Europe/Bucharest","moddate":"2013-04-21T00:00:00.000Z"},{"geonameid":665555,"name":"Tamaşii-Orăscu","asciiname":"Tamasii-Orascu","alternatenames":"","latitude":"44.5833300","longitude":"26.0000000","fclass":"P","fcode":"PPLX","country":"RO","cc2":"","admin1":"43","admin2":"102160","admin3":"","admin4":"","population":0,"elevation":0,"gtopo30":102,"timezone":"Europe/Bucharest","moddate":"2016-02-07T00:00:00.000Z"}],"admin3":[],"alternateNames":[{"alternatenameId":8321538,"geonameid":865518,"isoLanguage":"en","alternateName":"Ilfov","isPreferredName":true,"isShortName":true,"isColloquial":false,"isHistoric":false}]},"__N_SSG":true}