{"pageProps":{"locale":"ro","admin2":{"geonameid":8334840,"name":"Oraş Strehaia","country":"RO","admin1":"26","admin2":"110116","admin3":"","latitude":"44.6236000","longitude":"23.1879200"},"admin1":{"geonameid":673612,"name":"Mehedinţi","admin1":"26"},"locations":[{"geonameid":681726,"name":"Ciochiuța","asciiname":"Ciochiuta","alternatenames":"Ciochiut,Ciochiuta,Ciochiutu,Ciochiuţ,Ciochiuţa","latitude":"44.6030600","longitude":"23.1169800","fclass":"P","fcode":"PPLX","country":"RO","cc2":"RO","admin1":"26","admin2":"110116","admin3":"","admin4":"","population":1228,"elevation":0,"gtopo30":166,"timezone":"Europe/Bucharest","moddate":"2013-04-21T00:00:00.000Z"},{"geonameid":681026,"name":"Comanda","asciiname":"Comanda","alternatenames":"","latitude":"44.6486300","longitude":"23.1641300","fclass":"P","fcode":"PPLX","country":"RO","cc2":"","admin1":"26","admin2":"110116","admin3":"","admin4":"","population":1384,"elevation":0,"gtopo30":175,"timezone":"Europe/Bucharest","moddate":"2013-04-21T00:00:00.000Z"},{"geonameid":675913,"name":"Hurducești","asciiname":"Hurducesti","alternatenames":"Hurducesti,Hurduceşti,Urducesti,Urduceşti","latitude":"44.6016300","longitude":"23.1433800","fclass":"P","fcode":"PPLX","country":"RO","cc2":"RO","admin1":"26","admin2":"110116","admin3":"","admin4":"","population":278,"elevation":0,"gtopo30":158,"timezone":"Europe/Bucharest","moddate":"2013-04-21T00:00:00.000Z"},{"geonameid":674438,"name":"Lunca Banului","asciiname":"Lunca Banului","alternatenames":"","latitude":"44.6141600","longitude":"23.2451800","fclass":"P","fcode":"PPLX","country":"RO","cc2":"","admin1":"26","admin2":"110116","admin3":"","admin4":"","population":550,"elevation":0,"gtopo30":130,"timezone":"Europe/Bucharest","moddate":"2013-04-21T00:00:00.000Z"},{"geonameid":673595,"name":"Menți","asciiname":"Menti","alternatenames":"","latitude":"44.6666700","longitude":"23.1666700","fclass":"P","fcode":"PPL","country":"RO","cc2":"","admin1":"26","admin2":"110116","admin3":"","admin4":"","population":67,"elevation":0,"gtopo30":137,"timezone":"Europe/Bucharest","moddate":"2015-12-11T00:00:00.000Z"},{"geonameid":672755,"name":"Motruleni","asciiname":"Motruleni","alternatenames":"Motruleni,Robesti,Robeşti","latitude":"44.6649600","longitude":"23.1877100","fclass":"P","fcode":"PPL","country":"RO","cc2":"RO","admin1":"26","admin2":"110116","admin3":"","admin4":"","population":235,"elevation":0,"gtopo30":228,"timezone":"Europe/Bucharest","moddate":"2013-04-21T00:00:00.000Z"},{"geonameid":666756,"name":"Slătinicu Mare","asciiname":"Slatinicu Mare","alternatenames":"Slatinicu Mare,Slătinicu Mare,Stanicu Mare,Stănicu Mare","latitude":"44.5993700","longitude":"23.2056700","fclass":"P","fcode":"PPLX","country":"RO","cc2":"RO","admin1":"26","admin2":"110116","admin3":"","admin4":"","population":397,"elevation":0,"gtopo30":155,"timezone":"Europe/Bucharest","moddate":"2013-04-21T00:00:00.000Z"},{"geonameid":666755,"name":"Slătinicu Mic","asciiname":"Slatinicu Mic","alternatenames":"","latitude":"44.5903100","longitude":"23.1908600","fclass":"P","fcode":"PPLX","country":"RO","cc2":"","admin1":"26","admin2":"110116","admin3":"","admin4":"","population":146,"elevation":0,"gtopo30":161,"timezone":"Europe/Bucharest","moddate":"2013-04-21T00:00:00.000Z"},{"geonameid":666120,"name":"Stăncești","asciiname":"Stancesti","alternatenames":"","latitude":"44.6166700","longitude":"23.2500000","fclass":"P","fcode":"PPL","country":"RO","cc2":"","admin1":"26","admin2":"110116","admin3":"","admin4":"","population":199,"elevation":0,"gtopo30":127,"timezone":"Europe/Bucharest","moddate":"2015-12-11T00:00:00.000Z"},{"geonameid":665997,"name":"Strehaia","asciiname":"Strehaia","alternatenames":"Strehaia","latitude":"44.6166700","longitude":"23.2000000","fclass":"P","fcode":"PPLA2","country":"RO","cc2":"","admin1":"26","admin2":"110116","admin3":"","admin4":"","population":11607,"elevation":0,"gtopo30":136,"timezone":"Europe/Bucharest","moddate":"2012-06-12T00:00:00.000Z"}],"admin3":[],"alternateNames":[]},"__N_SSG":true}