{"pageProps":{"locale":"en","admin2":{"geonameid":3333128,"name":"Borough of Bolton","country":"GB","admin1":"ENG","admin2":"B1","admin3":"","latitude":"53.5833300","longitude":"-2.5000000","localeAltName":"Bolton"},"admin1":{"geonameid":6269131,"name":"England","admin1":"ENG","localeAltName":"England"},"locations":[{"geonameid":2655454,"name":"Blackrod","asciiname":"Blackrod","alternatenames":"blkrwd,بلکرود","latitude":"53.5922900","longitude":"-2.5802600","fclass":"P","fcode":"PPL","country":"GB","cc2":"","admin1":"ENG","admin2":"B1","admin3":"00BL001","admin4":"","population":5086,"elevation":0,"gtopo30":155,"timezone":"Europe/London","moddate":"2011-03-03T00:00:00.000Z"},{"geonameid":2655237,"name":"Bolton","asciiname":"Bolton","alternatenames":"Bolton,Boltonas,Boltonium,Boltun,bao dun,bo er dun,bol tan,bolteon,boruton,bwltn,bwltwn,Болтон,Болтън,Բոլթոն,بولتن,بولتون,โบลตัน,ბოლტონი,ボルトン,保頓,博尔顿,볼턴","latitude":"53.5833300","longitude":"-2.4333300","fclass":"P","fcode":"PPLA2","country":"GB","cc2":"","admin1":"ENG","admin2":"B1","admin3":"","admin4":"","population":141331,"elevation":0,"gtopo30":105,"timezone":"Europe/London","moddate":"2010-10-16T00:00:00.000Z"},{"geonameid":2654977,"name":"Bradshaw","asciiname":"Bradshaw","alternatenames":"Bradshaw","latitude":"53.6000000","longitude":"-2.4000000","fclass":"P","fcode":"PPL","country":"GB","cc2":"","admin1":"ENG","admin2":"B1","admin3":"","admin4":"","population":0,"elevation":0,"gtopo30":118,"timezone":"Europe/London","moddate":"2019-02-21T00:00:00.000Z"},{"geonameid":2654587,"name":"Bromley Cross","asciiname":"Bromley Cross","alternatenames":"","latitude":"53.6138500","longitude":"-2.4110300","fclass":"P","fcode":"PPL","country":"GB","cc2":"","admin1":"ENG","admin2":"B1","admin3":"00EX003","admin4":"","population":0,"elevation":0,"gtopo30":145,"timezone":"Europe/London","moddate":"2011-03-03T00:00:00.000Z"},{"geonameid":2653255,"name":"Chequerbent","asciiname":"Chequerbent","alternatenames":"","latitude":"53.5514900","longitude":"-2.5013800","fclass":"P","fcode":"PPL","country":"GB","cc2":"","admin1":"ENG","admin2":"B1","admin3":"00BL003","admin4":"","population":0,"elevation":0,"gtopo30":128,"timezone":"Europe/London","moddate":"2011-03-03T00:00:00.000Z"},{"geonameid":2651524,"name":"Darcy Lever","asciiname":"Darcy Lever","alternatenames":"","latitude":"53.5687800","longitude":"-2.4015100","fclass":"P","fcode":"PPL","country":"GB","cc2":"","admin1":"ENG","admin2":"B1","admin3":"00EX003","admin4":"","population":0,"elevation":0,"gtopo30":75,"timezone":"Europe/London","moddate":"2011-03-03T00:00:00.000Z"},{"geonameid":2649650,"name":"Farnworth","asciiname":"Farnworth","alternatenames":"Farnworth","latitude":"53.5500000","longitude":"-2.4000000","fclass":"P","fcode":"PPL","country":"GB","cc2":"","admin1":"ENG","admin2":"B1","admin3":"","admin4":"","population":25680,"elevation":0,"gtopo30":102,"timezone":"Europe/London","moddate":"2013-07-11T00:00:00.000Z"},{"geonameid":2647380,"name":"Harwood","asciiname":"Harwood","alternatenames":"","latitude":"53.5833300","longitude":"-2.3833300","fclass":"P","fcode":"PPL","country":"GB","cc2":"","admin1":"ENG","admin2":"B1","admin3":"","admin4":"","population":0,"elevation":0,"gtopo30":123,"timezone":"Europe/London","moddate":"2013-07-11T00:00:00.000Z"},{"geonameid":2646542,"name":"Horwich","asciiname":"Horwich","alternatenames":"hwrwych,هورویچ","latitude":"53.6012600","longitude":"-2.5497500","fclass":"P","fcode":"PPL","country":"GB","cc2":"","admin1":"ENG","admin2":"B1","admin3":"00BL002","admin4":"","population":18696,"elevation":0,"gtopo30":135,"timezone":"Europe/London","moddate":"2011-03-03T00:00:00.000Z"},{"geonameid":2645911,"name":"Kearsley","asciiname":"Kearsley","alternatenames":"Kearsley","latitude":"53.5333300","longitude":"-2.3833300","fclass":"P","fcode":"PPL","country":"GB","cc2":"","admin1":"ENG","admin2":"B1","admin3":"","admin4":"","population":10127,"elevation":0,"gtopo30":100,"timezone":"Europe/London","moddate":"2013-08-05T00:00:00.000Z"},{"geonameid":2644299,"name":"Little Lever","asciiname":"Little Lever","alternatenames":"","latitude":"53.5634600","longitude":"-2.3780300","fclass":"P","fcode":"PPL","country":"GB","cc2":"","admin1":"ENG","admin2":"B1","admin3":"","admin4":"","population":11329,"elevation":0,"gtopo30":85,"timezone":"Europe/London","moddate":"2012-04-30T00:00:00.000Z"},{"geonameid":6693027,"name":"Lostock","asciiname":"Lostock","alternatenames":"","latitude":"53.5788500","longitude":"-2.5026500","fclass":"P","fcode":"PPL","country":"GB","cc2":"","admin1":"ENG","admin2":"B1","admin3":"","admin4":"","population":891,"elevation":0,"gtopo30":122,"timezone":"Europe/London","moddate":"2019-10-02T00:00:00.000Z"},{"geonameid":2639344,"name":"Ringley","asciiname":"Ringley","alternatenames":"","latitude":"53.5423900","longitude":"-2.3571500","fclass":"P","fcode":"PPL","country":"GB","cc2":"","admin1":"ENG","admin2":"B1","admin3":"00EX003","admin4":"","population":0,"elevation":0,"gtopo30":51,"timezone":"Europe/London","moddate":"2011-03-03T00:00:00.000Z"},{"geonameid":2634387,"name":"Westhoughton","asciiname":"Westhoughton","alternatenames":"Westhoughton,wsthwtwn,وستهوتون","latitude":"53.5489900","longitude":"-2.5246400","fclass":"P","fcode":"PPL","country":"GB","cc2":"","admin1":"ENG","admin2":"B1","admin3":"00BL003","admin4":"","population":26260,"elevation":0,"gtopo30":107,"timezone":"Europe/London","moddate":"2017-06-12T00:00:00.000Z"}],"admin3":[{"geonameid":7292854,"name":"Blackrod","admin3":"00BL001"},{"geonameid":7299757,"name":"Horwich","admin3":"00BL002"},{"geonameid":7300546,"name":"Westhoughton","admin3":"00BL003"}],"alternateNames":[{"alternatenameId":8666546,"geonameid":3333128,"isoLanguage":"en","alternateName":"Bolton","isPreferredName":true,"isShortName":true,"isColloquial":false,"isHistoric":false},{"alternatenameId":1626647,"geonameid":6269131,"isoLanguage":"en","alternateName":"England","isPreferredName":true,"isShortName":true,"isColloquial":false,"isHistoric":false}]},"__N_SSG":true}