{"pageProps":{"locale":"ro","admin2":{"geonameid":675148,"name":"Comuna Jugureni","country":"RO","admin1":"30","admin2":"133866","admin3":"","latitude":"45.1015600","longitude":"26.4223100"},"admin1":{"geonameid":669737,"name":"Prahova","admin1":"30"},"locations":[{"geonameid":684524,"name":"Boboci","asciiname":"Boboci","alternatenames":"","latitude":"45.0849900","longitude":"26.4122400","fclass":"P","fcode":"PPL","country":"RO","cc2":"","admin1":"30","admin2":"133866","admin3":"","admin4":"","population":146,"elevation":0,"gtopo30":288,"timezone":"Europe/Bucharest","moddate":"2013-04-21T00:00:00.000Z"},{"geonameid":675150,"name":"Jugureni","asciiname":"Jugureni","alternatenames":"Jugure,Jugureni","latitude":"45.1000000","longitude":"26.4500000","fclass":"P","fcode":"PPLA2","country":"RO","cc2":"","admin1":"30","admin2":"133866","admin3":"","admin4":"","population":730,"elevation":0,"gtopo30":451,"timezone":"Europe/Bucharest","moddate":"2012-06-12T00:00:00.000Z"},{"geonameid":673800,"name":"Marginea Pădurii","asciiname":"Marginea Padurii","alternatenames":"Marginea Padurei,Marginea Padurii,Marginea Pădurii","latitude":"45.1023400","longitude":"26.4170400","fclass":"P","fcode":"PPL","country":"RO","cc2":"RO","admin1":"30","admin2":"133866","admin3":"","admin4":"","population":225,"elevation":0,"gtopo30":526,"timezone":"Europe/Bucharest","moddate":"2013-04-21T00:00:00.000Z"},{"geonameid":663345,"name":"Valea Unghiului","asciiname":"Valea Unghiului","alternatenames":"","latitude":"45.1227800","longitude":"26.4222700","fclass":"P","fcode":"PPL","country":"RO","cc2":"","admin1":"30","admin2":"133866","admin3":"","admin4":"","population":210,"elevation":0,"gtopo30":300,"timezone":"Europe/Bucharest","moddate":"2013-04-20T00:00:00.000Z"}],"admin3":[],"alternateNames":[{"alternatenameId":8326236,"geonameid":669737,"isoLanguage":"en","alternateName":"Prahova","isPreferredName":true,"isShortName":true,"isColloquial":false,"isHistoric":false}]},"__N_SSG":true}