{"pageProps":{"locale":"ro","admin2":{"geonameid":674129,"name":"Comuna Măgura","country":"RO","admin1":"04","admin2":"20411","admin3":"","latitude":"46.5606500","longitude":"26.8390000"},"admin1":{"geonameid":685947,"name":"Bacău","admin1":"04"},"locations":[{"geonameid":680827,"name":"Corhana","asciiname":"Corhana","alternatenames":"","latitude":"46.5500000","longitude":"26.8500000","fclass":"P","fcode":"PPL","country":"RO","cc2":"","admin1":"04","admin2":"20411","admin3":"","admin4":"","population":0,"elevation":0,"gtopo30":247,"timezone":"Europe/Bucharest","moddate":"2016-02-07T00:00:00.000Z"},{"geonameid":680237,"name":"Crihan","asciiname":"Crihan","alternatenames":"","latitude":"46.5707800","longitude":"26.8286000","fclass":"P","fcode":"PPL","country":"RO","cc2":"","admin1":"04","admin2":"20411","admin3":"","admin4":"","population":451,"elevation":0,"gtopo30":262,"timezone":"Europe/Bucharest","moddate":"2013-04-21T00:00:00.000Z"},{"geonameid":679980,"name":"Cujbic","asciiname":"Cujbic","alternatenames":"","latitude":"46.5500000","longitude":"26.8333300","fclass":"P","fcode":"PPLX","country":"RO","cc2":"","admin1":"04","admin2":"20411","admin3":"","admin4":"","population":0,"elevation":0,"gtopo30":322,"timezone":"Europe/Bucharest","moddate":"2016-02-07T00:00:00.000Z"},{"geonameid":679615,"name":"Dealu-Mare","asciiname":"Dealu-Mare","alternatenames":"Dealu Mare,Tiganim,Tiganimea,Tigănim,Ţigănimea","latitude":"46.5486000","longitude":"26.8430400","fclass":"P","fcode":"PPL","country":"RO","cc2":"RO","admin1":"04","admin2":"20411","admin3":"","admin4":"","population":221,"elevation":0,"gtopo30":270,"timezone":"Europe/Bucharest","moddate":"2013-04-21T00:00:00.000Z"},{"geonameid":674146,"name":"Măgura","asciiname":"Magura","alternatenames":"","latitude":"46.5666700","longitude":"26.8500000","fclass":"P","fcode":"PPL","country":"RO","cc2":"","admin1":"04","admin2":"20411","admin3":"","admin4":"","population":3936,"elevation":0,"gtopo30":248,"timezone":"Europe/Bucharest","moddate":"2016-02-07T00:00:00.000Z"},{"geonameid":671662,"name":"Osebiţi","asciiname":"Osebiti","alternatenames":"Osebiti,Osebiti-Marginei,Osebiţi,Osebiţi-Mărginei","latitude":"46.5666700","longitude":"26.8500000","fclass":"P","fcode":"PPLX","country":"RO","cc2":"","admin1":"04","admin2":"20411","admin3":"","admin4":"","population":0,"elevation":0,"gtopo30":248,"timezone":"Europe/Bucharest","moddate":"2016-02-07T00:00:00.000Z"},{"geonameid":666555,"name":"Sohodol","asciiname":"Sohodol","alternatenames":"Crihan-Sohodol,Sohodol,Sohodolul","latitude":"46.5612400","longitude":"26.8250200","fclass":"P","fcode":"PPL","country":"RO","cc2":"RO","admin1":"04","admin2":"20411","admin3":"","admin4":"","population":443,"elevation":0,"gtopo30":321,"timezone":"Europe/Bucharest","moddate":"2013-04-21T00:00:00.000Z"},{"geonameid":666547,"name":"Sohodol-Crihan","asciiname":"Sohodol-Crihan","alternatenames":"","latitude":"46.5666700","longitude":"26.8166700","fclass":"P","fcode":"PPL","country":"RO","cc2":"","admin1":"04","admin2":"20411","admin3":"","admin4":"","population":0,"elevation":0,"gtopo30":361,"timezone":"Europe/Bucharest","moddate":"2016-02-07T00:00:00.000Z"}],"admin3":[],"alternateNames":[]},"__N_SSG":true}