{"pageProps":{"locale":"ro","admin2":{"geonameid":686711,"name":"Oraş abrud","country":"RO","admin1":"01","admin2":"1151","admin3":"","latitude":"46.2740900","longitude":"23.0612900"},"admin1":{"geonameid":686581,"name":"Alba","admin1":"01"},"locations":[{"geonameid":686712,"name":"Abrud","asciiname":"Abrud","alternatenames":"Abrud,Abrudbanya,Abrudbánya,Aktenburg,Opstina Abrud,Opština Abrud,a bu lu de,abrw,Абруд,ابرو,阿布鲁德","latitude":"46.2740600","longitude":"23.0633900","fclass":"P","fcode":"PPLA2","country":"RO","cc2":"","admin1":"01","admin2":"1151","admin3":"","admin4":"","population":6122,"elevation":0,"gtopo30":598,"timezone":"Europe/Bucharest","moddate":"2016-02-07T00:00:00.000Z"},{"geonameid":686710,"name":"Abrud-Sat","asciiname":"Abrud-Sat","alternatenames":"","latitude":"46.2816600","longitude":"23.0609800","fclass":"P","fcode":"PPLX","country":"RO","cc2":"","admin1":"01","admin2":"1151","admin3":"","admin4":"","population":1355,"elevation":0,"gtopo30":617,"timezone":"Europe/Bucharest","moddate":"2013-04-21T00:00:00.000Z"},{"geonameid":680187,"name":"Cristea","asciiname":"Cristea","alternatenames":"Abrudsat-Cristea,Cristea","latitude":"46.3000000","longitude":"23.0333300","fclass":"P","fcode":"PPLX","country":"RO","cc2":"","admin1":"01","admin2":"1151","admin3":"","admin4":"","population":0,"elevation":0,"gtopo30":848,"timezone":"Europe/Bucharest","moddate":"2016-02-07T00:00:00.000Z"},{"geonameid":676548,"name":"Gura Cornei","asciiname":"Gura Cornei","alternatenames":"","latitude":"46.2644200","longitude":"23.0946300","fclass":"P","fcode":"PPL","country":"RO","cc2":"","admin1":"01","admin2":"1151","admin3":"","admin4":"","population":92,"elevation":0,"gtopo30":628,"timezone":"Europe/Bucharest","moddate":"2015-11-07T00:00:00.000Z"},{"geonameid":673642,"name":"Mecea","asciiname":"Mecea","alternatenames":"","latitude":"46.2666700","longitude":"23.0666700","fclass":"P","fcode":"PPLX","country":"RO","cc2":"","admin1":"01","admin2":"1151","admin3":"","admin4":"","population":0,"elevation":0,"gtopo30":676,"timezone":"Europe/Bucharest","moddate":"2016-02-07T00:00:00.000Z"},{"geonameid":667416,"name":"Selişte","asciiname":"Seliste","alternatenames":"Abrud-Seliste,Abrud-Selişte,Abrudsat-Seliste,Abrudsat-Selişte,Seliste,Selişte,Siliste,Silişte","latitude":"46.2833300","longitude":"23.0833300","fclass":"P","fcode":"PPLX","country":"RO","cc2":"","admin1":"01","admin2":"1151","admin3":"","admin4":"","population":0,"elevation":0,"gtopo30":847,"timezone":"Europe/Bucharest","moddate":"2016-02-07T00:00:00.000Z"},{"geonameid":666562,"name":"Soharu","asciiname":"Soharu","alternatenames":"Abrud-Sat-Soharu,Sohariu,Soharu,Sturzoldal,Sōhariu","latitude":"46.2783800","longitude":"23.0281800","fclass":"P","fcode":"PPLX","country":"RO","cc2":"RO","admin1":"01","admin2":"1151","admin3":"","admin4":"","population":263,"elevation":0,"gtopo30":676,"timezone":"Europe/Bucharest","moddate":"2013-04-21T00:00:00.000Z"}],"admin3":[],"alternateNames":[]},"__N_SSG":true}