{"pageProps":{"locale":"ro","admin2":{"geonameid":662692,"name":"Comuna Vişina","country":"RO","admin1":"16","admin2":"69330","admin3":"","latitude":"44.6019400","longitude":"25.3521800"},"admin1":{"geonameid":679385,"name":"Dâmboviţa","admin1":"16"},"locations":[{"geonameid":683651,"name":"Broșteni","asciiname":"Brosteni","alternatenames":"Brosteni,Brosteni Vale,Brosteni din Vale,Brostenii de Jos,Brostenii-Vale,Brostenii-din Vale,Broşteni,Broşteni Vale,Broştenii de Jos,Broştenii-Vale,Broştenii-din Vale","latitude":"44.6061500","longitude":"25.3486700","fclass":"P","fcode":"PPL","country":"RO","cc2":"RO","admin1":"16","admin2":"69330","admin3":"","admin4":"","population":619,"elevation":0,"gtopo30":169,"timezone":"Europe/Bucharest","moddate":"2013-04-21T00:00:00.000Z"},{"geonameid":683626,"name":"Broşteni Deal","asciiname":"Brosteni Deal","alternatenames":"Brosteni Deal,Brosteni din Deal,Brostenii de Sus,Broşteni Deal,Broştenii de Sus","latitude":"44.6000000","longitude":"25.3500000","fclass":"P","fcode":"PPL","country":"RO","cc2":"","admin1":"16","admin2":"69330","admin3":"","admin4":"","population":0,"elevation":0,"gtopo30":167,"timezone":"Europe/Bucharest","moddate":"2020-06-10T00:00:00.000Z"},{"geonameid":675350,"name":"Izvoru","asciiname":"Izvoru","alternatenames":"Isvoru,Isvorul,Izvoru","latitude":"44.6088800","longitude":"25.3743000","fclass":"P","fcode":"PPL","country":"RO","cc2":"RO","admin1":"16","admin2":"69330","admin3":"","admin4":"","population":654,"elevation":0,"gtopo30":157,"timezone":"Europe/Bucharest","moddate":"2013-04-21T00:00:00.000Z"},{"geonameid":662695,"name":"Vişina","asciiname":"Visina","alternatenames":"Visina,Vişina","latitude":"44.5833300","longitude":"25.3333300","fclass":"P","fcode":"PPLA2","country":"RO","cc2":"","admin1":"16","admin2":"69330","admin3":"","admin4":"","population":6604,"elevation":0,"gtopo30":165,"timezone":"Europe/Bucharest","moddate":"2012-06-12T00:00:00.000Z"}],"admin3":[],"alternateNames":[]},"__N_SSG":true}