{"pageProps":{"locale":"ro","admin2":{"geonameid":677046,"name":"Comuna Glodeanu-Siliştea","country":"RO","admin1":"11","admin2":"46910","admin3":"","latitude":"44.8395600","longitude":"26.7675700"},"admin1":{"geonameid":683121,"name":"Buzău","admin1":"11"},"locations":[{"geonameid":681552,"name":"Cârligu Mare","asciiname":"Carligu Mare","alternatenames":"Carligu-Mare,Carligul Mare,Cirligu Mare,Cârligu-Mare,Cîrligu Mare,Glodeanu,Glodeanu-Carlig-Mare,Glodeanu-Cârlig-Mare","latitude":"44.8481800","longitude":"26.7521000","fclass":"P","fcode":"PPL","country":"RO","cc2":"RO","admin1":"11","admin2":"46910","admin3":"","admin4":"","population":436,"elevation":0,"gtopo30":74,"timezone":"Europe/Bucharest","moddate":"2013-04-21T00:00:00.000Z"},{"geonameid":681550,"name":"Cârligu Mic","asciiname":"Carligu Mic","alternatenames":"Carligu-Mic,Carligul-Mic,Cirligu Mic,Cârligu-Mic,Cârligul-Mic,Cîrligu Mic,Glodeanu Carlig Mic,Glodeanu Cârlig Mic","latitude":"44.8406400","longitude":"26.7665600","fclass":"P","fcode":"PPL","country":"RO","cc2":"RO","admin1":"11","admin2":"46910","admin3":"","admin4":"","population":172,"elevation":0,"gtopo30":75,"timezone":"Europe/Bucharest","moddate":"2013-04-21T00:00:00.000Z"},{"geonameid":682592,"name":"Casota","asciiname":"Casota","alternatenames":"Casota,Cazota","latitude":"44.8518300","longitude":"26.7147800","fclass":"P","fcode":"PPL","country":"RO","cc2":"RO","admin1":"11","admin2":"46910","admin3":"","admin4":"","population":358,"elevation":0,"gtopo30":74,"timezone":"Europe/Bucharest","moddate":"2013-04-21T00:00:00.000Z"},{"geonameid":680867,"name":"Corbu","asciiname":"Corbu","alternatenames":"","latitude":"44.8565800","longitude":"26.7079000","fclass":"P","fcode":"PPL","country":"RO","cc2":"","admin1":"11","admin2":"46910","admin3":"","admin4":"","population":103,"elevation":0,"gtopo30":75,"timezone":"Europe/Bucharest","moddate":"2013-04-21T00:00:00.000Z"},{"geonameid":680473,"name":"Cotorca","asciiname":"Cotorca","alternatenames":"","latitude":"44.8226200","longitude":"26.8258500","fclass":"P","fcode":"PPL","country":"RO","cc2":"","admin1":"11","admin2":"46910","admin3":"","admin4":"","population":891,"elevation":0,"gtopo30":72,"timezone":"Europe/Bucharest","moddate":"2013-04-21T00:00:00.000Z"},{"geonameid":677047,"name":"Glodeanu-Siliştea","asciiname":"Glodeanu-Silistea","alternatenames":"Glodeanu-Silistea,Glodeanu-Siliştea,Glodeanul Silistea,Glodeanul Siliştea","latitude":"44.8333300","longitude":"26.8000000","fclass":"P","fcode":"PPLA2","country":"RO","cc2":"","admin1":"11","admin2":"46910","admin3":"","admin4":"","population":4585,"elevation":0,"gtopo30":74,"timezone":"Europe/Bucharest","moddate":"2012-06-12T00:00:00.000Z"},{"geonameid":667846,"name":"Satu Nou","asciiname":"Satu Nou","alternatenames":"","latitude":"44.8194000","longitude":"26.8391600","fclass":"P","fcode":"PPL","country":"RO","cc2":"","admin1":"11","admin2":"46910","admin3":"","admin4":"","population":244,"elevation":0,"gtopo30":73,"timezone":"Europe/Bucharest","moddate":"2013-04-21T00:00:00.000Z"},{"geonameid":664045,"name":"Văcăreasca","asciiname":"Vacareasca","alternatenames":"","latitude":"44.8469500","longitude":"26.7302800","fclass":"P","fcode":"PPL","country":"RO","cc2":"","admin1":"11","admin2":"46910","admin3":"","admin4":"","population":750,"elevation":0,"gtopo30":73,"timezone":"Europe/Bucharest","moddate":"2013-04-20T00:00:00.000Z"}],"admin3":[],"alternateNames":[]},"__N_SSG":true}