{"pageProps":{"locale":"ro","admin2":{"geonameid":664027,"name":"Comuna Vad","country":"RO","admin1":"13","admin2":"59942","admin3":"","latitude":"47.2063400","longitude":"23.7140300"},"admin1":{"geonameid":681291,"name":"Cluj","admin1":"13"},"locations":[{"geonameid":684429,"name":"Bogata de Jos","asciiname":"Bogata de Jos","alternatenames":"","latitude":"47.2042300","longitude":"23.7062000","fclass":"P","fcode":"PPL","country":"RO","cc2":"","admin1":"13","admin2":"59942","admin3":"","admin4":"","population":367,"elevation":0,"gtopo30":274,"timezone":"Europe/Bucharest","moddate":"2013-04-21T00:00:00.000Z"},{"geonameid":684428,"name":"Bogata de Sus","asciiname":"Bogata de Sus","alternatenames":"","latitude":"47.1936800","longitude":"23.6680900","fclass":"P","fcode":"PPL","country":"RO","cc2":"","admin1":"13","admin2":"59942","admin3":"","admin4":"","population":306,"elevation":0,"gtopo30":287,"timezone":"Europe/Bucharest","moddate":"2013-04-21T00:00:00.000Z"},{"geonameid":682928,"name":"Calna","asciiname":"Calna","alternatenames":"","latitude":"47.1767600","longitude":"23.6460500","fclass":"P","fcode":"PPL","country":"RO","cc2":"","admin1":"13","admin2":"59942","admin3":"","admin4":"","population":178,"elevation":0,"gtopo30":326,"timezone":"Europe/Bucharest","moddate":"2013-04-21T00:00:00.000Z"},{"geonameid":682271,"name":"Cetan","asciiname":"Cetan","alternatenames":"Cetal,Cetan","latitude":"47.1929900","longitude":"23.8028200","fclass":"P","fcode":"PPL","country":"RO","cc2":"RO","admin1":"13","admin2":"59942","admin3":"","admin4":"","population":555,"elevation":0,"gtopo30":227,"timezone":"Europe/Bucharest","moddate":"2013-04-21T00:00:00.000Z"},{"geonameid":679891,"name":"Curtuiușu Dejului","asciiname":"Curtuiusu Dejului","alternatenames":"Curtuiusu-Dejului,Curtuiusul Dejului,Curtuiuşu-Dejului,Curtuiuşul Dejului","latitude":"47.2167100","longitude":"23.6817400","fclass":"P","fcode":"PPL","country":"RO","cc2":"RO","admin1":"13","admin2":"59942","admin3":"","admin4":"","population":196,"elevation":0,"gtopo30":363,"timezone":"Europe/Bucharest","moddate":"2013-04-21T00:00:00.000Z"},{"geonameid":664029,"name":"Vad","asciiname":"Vad","alternatenames":"Vad","latitude":"47.2000000","longitude":"23.7500000","fclass":"P","fcode":"PPLA2","country":"RO","cc2":"","admin1":"13","admin2":"59942","admin3":"","admin4":"","population":2118,"elevation":0,"gtopo30":428,"timezone":"Europe/Bucharest","moddate":"2012-06-12T00:00:00.000Z"},{"geonameid":663747,"name":"Valea Groșilor","asciiname":"Valea Grosilor","alternatenames":"","latitude":"47.2397200","longitude":"23.7451000","fclass":"P","fcode":"PPL","country":"RO","cc2":"","admin1":"13","admin2":"59942","admin3":"","admin4":"","population":291,"elevation":0,"gtopo30":233,"timezone":"Europe/Bucharest","moddate":"2013-04-20T00:00:00.000Z"}],"admin3":[],"alternateNames":[]},"__N_SSG":true}