{"pageProps":{"locale":"ro","admin2":{"geonameid":663077,"name":"Comuna Vela","country":"RO","admin1":"17","admin2":"74616","admin3":"","latitude":"44.2852600","longitude":"23.3788700"},"admin1":{"geonameid":679134,"name":"jud. Dolj","admin1":"17"},"locations":[{"geonameid":683536,"name":"Bucovicior","asciiname":"Bucovicior","alternatenames":"Bucovicioara,Bucovicior,Bucovicioru,Bucoviciorul","latitude":"44.2990300","longitude":"23.3532100","fclass":"P","fcode":"PPL","country":"RO","cc2":"RO","admin1":"17","admin2":"74616","admin3":"","admin4":"","population":577,"elevation":0,"gtopo30":220,"timezone":"Europe/Bucharest","moddate":"2013-04-21T00:00:00.000Z"},{"geonameid":682246,"name":"Cetățuia","asciiname":"Cetatuia","alternatenames":"","latitude":"44.2949800","longitude":"23.3860700","fclass":"P","fcode":"PPL","country":"RO","cc2":"","admin1":"17","admin2":"74616","admin3":"","admin4":"","population":2,"elevation":0,"gtopo30":193,"timezone":"Europe/Bucharest","moddate":"2013-04-21T00:00:00.000Z"},{"geonameid":679458,"name":"Desnățui","asciiname":"Desnatui","alternatenames":"","latitude":"44.2697900","longitude":"23.3725700","fclass":"P","fcode":"PPL","country":"RO","cc2":"","admin1":"17","admin2":"74616","admin3":"","admin4":"","population":32,"elevation":0,"gtopo30":154,"timezone":"Europe/Bucharest","moddate":"2013-04-21T00:00:00.000Z"},{"geonameid":676593,"name":"Gubaucea","asciiname":"Gubaucea","alternatenames":"","latitude":"44.2807700","longitude":"23.3438300","fclass":"P","fcode":"PPL","country":"RO","cc2":"","admin1":"17","admin2":"74616","admin3":"","admin4":"","population":754,"elevation":0,"gtopo30":156,"timezone":"Europe/Bucharest","moddate":"2013-04-21T00:00:00.000Z"},{"geonameid":667446,"name":"Segleț","asciiname":"Seglet","alternatenames":"","latitude":"44.2671900","longitude":"23.4075000","fclass":"P","fcode":"PPL","country":"RO","cc2":"","admin1":"17","admin2":"74616","admin3":"","admin4":"","population":36,"elevation":0,"gtopo30":132,"timezone":"Europe/Bucharest","moddate":"2013-04-21T00:00:00.000Z"},{"geonameid":666091,"name":"Știubei","asciiname":"Stiubei","alternatenames":"Stiubei,Stubeiu,Ştiubei","latitude":"44.3245500","longitude":"23.3586200","fclass":"P","fcode":"PPL","country":"RO","cc2":"RO","admin1":"17","admin2":"74616","admin3":"","admin4":"","population":194,"elevation":0,"gtopo30":207,"timezone":"Europe/Bucharest","moddate":"2013-04-21T00:00:00.000Z"},{"geonameid":665807,"name":"Suharu","asciiname":"Suharu","alternatenames":"","latitude":"44.2680200","longitude":"23.3882500","fclass":"P","fcode":"PPL","country":"RO","cc2":"","admin1":"17","admin2":"74616","admin3":"","admin4":"","population":267,"elevation":0,"gtopo30":142,"timezone":"Europe/Bucharest","moddate":"2013-04-21T00:00:00.000Z"},{"geonameid":663078,"name":"Vela","asciiname":"Vela","alternatenames":"Vela,Vella","latitude":"44.2833300","longitude":"23.4166700","fclass":"P","fcode":"PPLA2","country":"RO","cc2":"","admin1":"17","admin2":"74616","admin3":"","admin4":"","population":2211,"elevation":0,"gtopo30":191,"timezone":"Europe/Bucharest","moddate":"2012-06-12T00:00:00.000Z"}],"admin3":[],"alternateNames":[]},"__N_SSG":true}