{"pageProps":{"locale":"ro","admin2":{"geonameid":682536,"name":"Comuna Cătunele","country":"RO","admin1":"19","admin2":"79585","admin3":"","latitude":"44.8390200","longitude":"22.9246500"},"admin1":{"geonameid":676898,"name":"Gorj","admin1":"19"},"locations":[{"geonameid":682538,"name":"Cătunele","asciiname":"Catunele","alternatenames":"Catunele,Catunele-de-Sus,Cătunele,Cătunele-de-Sus","latitude":"44.8644200","longitude":"22.9070700","fclass":"P","fcode":"PPLA2","country":"RO","cc2":"RO","admin1":"19","admin2":"79585","admin3":"","admin4":"","population":375,"elevation":0,"gtopo30":205,"timezone":"Europe/Bucharest","moddate":"2013-04-21T00:00:00.000Z"},{"geonameid":679571,"name":"Dealu Viilor","asciiname":"Dealu Viilor","alternatenames":"Capu Dealului,Capul Dealului,Dealu Viilor","latitude":"44.8498300","longitude":"22.9030100","fclass":"P","fcode":"PPL","country":"RO","cc2":"RO","admin1":"19","admin2":"79585","admin3":"","admin4":"","population":203,"elevation":0,"gtopo30":206,"timezone":"Europe/Bucharest","moddate":"2013-04-21T00:00:00.000Z"},{"geonameid":674286,"name":"Lupoaia","asciiname":"Lupoaia","alternatenames":"","latitude":"44.8144900","longitude":"22.9612600","fclass":"P","fcode":"PPL","country":"RO","cc2":"","admin1":"19","admin2":"79585","admin3":"","admin4":"","population":947,"elevation":0,"gtopo30":192,"timezone":"Europe/Bucharest","moddate":"2013-04-21T00:00:00.000Z"},{"geonameid":666205,"name":"Steic","asciiname":"Steic","alternatenames":"Steic,Steicu","latitude":"44.8346400","longitude":"22.9193400","fclass":"P","fcode":"PPL","country":"RO","cc2":"RO","admin1":"19","admin2":"79585","admin3":"","admin4":"","population":238,"elevation":0,"gtopo30":213,"timezone":"Europe/Bucharest","moddate":"2013-04-21T00:00:00.000Z"},{"geonameid":663640,"name":"Valea Mânăstirii","asciiname":"Valea Manastirii","alternatenames":"","latitude":"44.8234500","longitude":"22.9357700","fclass":"P","fcode":"PPL","country":"RO","cc2":"","admin1":"19","admin2":"79585","admin3":"","admin4":"","population":439,"elevation":0,"gtopo30":197,"timezone":"Europe/Bucharest","moddate":"2013-04-20T00:00:00.000Z"},{"geonameid":663528,"name":"Valea Perilor","asciiname":"Valea Perilor","alternatenames":"Barzuica,Bărzuica,Valea Perilor,Vatra Perilor","latitude":"44.8473100","longitude":"22.9214800","fclass":"P","fcode":"PPL","country":"RO","cc2":"RO","admin1":"19","admin2":"79585","admin3":"","admin4":"","population":453,"elevation":0,"gtopo30":221,"timezone":"Europe/Bucharest","moddate":"2013-04-20T00:00:00.000Z"}],"admin3":[],"alternateNames":[]},"__N_SSG":true}