{"pageProps":{"locale":"ro","admin2":{"geonameid":664279,"name":"Comuna Umbrăreşti","country":"RO","admin1":"18","admin2":"77402","admin3":"","latitude":"45.7138600","longitude":"27.4589300"},"admin1":{"geonameid":677692,"name":"Galaţi","admin1":"18"},"locations":[{"geonameid":680971,"name":"Condrea","asciiname":"Condrea","alternatenames":"","latitude":"45.7092700","longitude":"27.4314500","fclass":"P","fcode":"PPL","country":"RO","cc2":"","admin1":"18","admin2":"77402","admin3":"","admin4":"","population":658,"elevation":0,"gtopo30":31,"timezone":"Europe/Bucharest","moddate":"2013-04-21T00:00:00.000Z"},{"geonameid":668208,"name":"Salcia","asciiname":"Salcia","alternatenames":"","latitude":"45.6966300","longitude":"27.4417700","fclass":"P","fcode":"PPL","country":"RO","cc2":"","admin1":"18","admin2":"77402","admin3":"","admin4":"","population":926,"elevation":0,"gtopo30":23,"timezone":"Europe/Bucharest","moddate":"2013-04-21T00:00:00.000Z"},{"geonameid":667187,"name":"Siliștea","asciiname":"Silistea","alternatenames":"","latitude":"45.7337200","longitude":"27.4381700","fclass":"P","fcode":"PPL","country":"RO","cc2":"","admin1":"18","admin2":"77402","admin3":"","admin4":"","population":352,"elevation":0,"gtopo30":24,"timezone":"Europe/Bucharest","moddate":"2013-04-21T00:00:00.000Z"},{"geonameid":666710,"name":"Slobozia","asciiname":"Slobozia","alternatenames":"Slobozia,Slobozia-Umbraresti,Slobozia-Umbrăreşti,Slobozija,Слобозия","latitude":"45.7000000","longitude":"27.5000000","fclass":"P","fcode":"PPL","country":"RO","cc2":"","admin1":"18","admin2":"77402","admin3":"","admin4":"","population":0,"elevation":0,"gtopo30":20,"timezone":"Europe/Bucharest","moddate":"2016-02-07T00:00:00.000Z"},{"geonameid":665570,"name":"Tămăşeni","asciiname":"Tamaseni","alternatenames":"Tamaseni,Tămăşeni,Umbraresti-Tamaseni,Umbrăreşti-Tămăşeni","latitude":"45.7166700","longitude":"27.4500000","fclass":"P","fcode":"PPL","country":"RO","cc2":"","admin1":"18","admin2":"77402","admin3":"","admin4":"","population":0,"elevation":0,"gtopo30":21,"timezone":"Europe/Bucharest","moddate":"2016-02-07T00:00:00.000Z"},{"geonameid":664718,"name":"Torcești","asciiname":"Torcesti","alternatenames":"","latitude":"45.6970800","longitude":"27.4859900","fclass":"P","fcode":"PPL","country":"RO","cc2":"","admin1":"18","admin2":"77402","admin3":"","admin4":"","population":661,"elevation":0,"gtopo30":20,"timezone":"Europe/Bucharest","moddate":"2013-04-21T00:00:00.000Z"},{"geonameid":664281,"name":"Umbrăreşti","asciiname":"Umbraresti","alternatenames":"Umbraresti,Umbraresti-Slobozia,Umbrăreşti,Umbrăreşti-Slobozia","latitude":"45.7166700","longitude":"27.4666700","fclass":"P","fcode":"PPLA2","country":"RO","cc2":"","admin1":"18","admin2":"77402","admin3":"","admin4":"","population":7116,"elevation":0,"gtopo30":21,"timezone":"Europe/Bucharest","moddate":"2012-06-12T00:00:00.000Z"},{"geonameid":663121,"name":"Umbrărești-Deal","asciiname":"Umbraresti-Deal","alternatenames":"Carmen-Sylva,General Eremia Grigorescu,Vasile Roaita,Vasile Roaită","latitude":"45.7000000","longitude":"27.4666700","fclass":"P","fcode":"PPL","country":"RO","cc2":"","admin1":"18","admin2":"77402","admin3":"","admin4":"","population":2367,"elevation":0,"gtopo30":19,"timezone":"Europe/Bucharest","moddate":"2015-11-27T00:00:00.000Z"}],"admin3":[],"alternateNames":[]},"__N_SSG":true}