{"pageProps":{"locale":"ro","admin2":{"geonameid":667394,"name":"Comuna Şendriceni","country":"RO","admin1":"07","admin2":"39122","admin3":"","latitude":"47.9465700","longitude":"26.3295700"},"admin1":{"geonameid":684038,"name":"Botoşani","admin1":"07"},"locations":[{"geonameid":684109,"name":"Bosia","asciiname":"Bosia","alternatenames":"","latitude":"47.9333300","longitude":"26.3666700","fclass":"P","fcode":"PPLX","country":"RO","cc2":"","admin1":"07","admin2":"39122","admin3":"","admin4":"","population":0,"elevation":0,"gtopo30":177,"timezone":"Europe/Bucharest","moddate":"2016-02-07T00:00:00.000Z"},{"geonameid":681249,"name":"Cobâla","asciiname":"Cobala","alternatenames":"Cobala,Cobila,Cobâla,Cobîla","latitude":"47.9333300","longitude":"26.3666700","fclass":"P","fcode":"PPL","country":"RO","cc2":"RO","admin1":"07","admin2":"39122","admin3":"","admin4":"","population":0,"elevation":0,"gtopo30":177,"timezone":"Europe/Bucharest","moddate":"2020-03-08T00:00:00.000Z"},{"geonameid":676000,"name":"Horlăceni","asciiname":"Horlaceni","alternatenames":"Horlaceni,Horlăceni,Hortaceni,Hortăceni","latitude":"47.9121500","longitude":"26.3421000","fclass":"P","fcode":"PPL","country":"RO","cc2":"RO","admin1":"07","admin2":"39122","admin3":"","admin4":"","population":407,"elevation":0,"gtopo30":197,"timezone":"Europe/Bucharest","moddate":"2013-04-21T00:00:00.000Z"},{"geonameid":671514,"name":"Pădureni","asciiname":"Padureni","alternatenames":"Buhai,Padureni,Pădureni","latitude":"47.9743400","longitude":"26.3167200","fclass":"P","fcode":"PPL","country":"RO","cc2":"RO","admin1":"07","admin2":"39122","admin3":"","admin4":"","population":1125,"elevation":0,"gtopo30":180,"timezone":"Europe/Bucharest","moddate":"2013-04-21T00:00:00.000Z"},{"geonameid":667395,"name":"Şendriceni","asciiname":"Sendriceni","alternatenames":"Ghilia,Sendriceni,Şendriceni","latitude":"47.9517100","longitude":"26.3281700","fclass":"P","fcode":"PPLA2","country":"RO","cc2":"","admin1":"07","admin2":"39122","admin3":"","admin4":"","population":4200,"elevation":0,"gtopo30":217,"timezone":"Europe/Bucharest","moddate":"2019-05-13T00:00:00.000Z"},{"geonameid":666026,"name":"Strachina","asciiname":"Strachina","alternatenames":"","latitude":"47.9500000","longitude":"26.3333300","fclass":"P","fcode":"PPL","country":"RO","cc2":"","admin1":"07","admin2":"39122","admin3":"","admin4":"","population":0,"elevation":0,"gtopo30":205,"timezone":"Europe/Bucharest","moddate":"2016-02-07T00:00:00.000Z"}],"admin3":[],"alternateNames":[]},"__N_SSG":true}