{"pageProps":{"locale":"ro","admin2":{"geonameid":681662,"name":"Comuna Ciorăşti","country":"RO","admin1":"40","admin2":"175590","admin3":"","latitude":"45.4386900","longitude":"27.3095200"},"admin1":{"geonameid":662447,"name":"Vrancea","admin1":"40","localeAltName":"Vrancea"},"locations":[{"geonameid":681664,"name":"Ciorăşti","asciiname":"Ciorasti","alternatenames":"","latitude":"45.4333300","longitude":"27.3000000","fclass":"P","fcode":"PPLA2","country":"RO","cc2":"","admin1":"40","admin2":"175590","admin3":"","admin4":"","population":3861,"elevation":0,"gtopo30":38,"timezone":"Europe/Bucharest","moddate":"2012-06-12T00:00:00.000Z"},{"geonameid":681172,"name":"Codrești","asciiname":"Codresti","alternatenames":"","latitude":"45.4218000","longitude":"27.2724800","fclass":"P","fcode":"PPL","country":"RO","cc2":"","admin1":"40","admin2":"175590","admin3":"","admin4":"","population":337,"elevation":0,"gtopo30":47,"timezone":"Europe/Bucharest","moddate":"2013-04-21T00:00:00.000Z"},{"geonameid":673357,"name":"Mihălceni","asciiname":"Mihalceni","alternatenames":"Mihaileni,Mihalceni,Mihăileni,Mihălceni","latitude":"45.4449300","longitude":"27.3046600","fclass":"P","fcode":"PPL","country":"RO","cc2":"RO","admin1":"40","admin2":"175590","admin3":"","admin4":"","population":1016,"elevation":0,"gtopo30":42,"timezone":"Europe/Bucharest","moddate":"2013-04-21T00:00:00.000Z"},{"geonameid":668199,"name":"Salcia Nouă","asciiname":"Salcia Noua","alternatenames":"Salcia,Salcia Noua,Salcia Nouă","latitude":"45.4568400","longitude":"27.3407500","fclass":"P","fcode":"PPL","country":"RO","cc2":"RO","admin1":"40","admin2":"175590","admin3":"","admin4":"","population":607,"elevation":0,"gtopo30":33,"timezone":"Europe/Bucharest","moddate":"2013-04-21T00:00:00.000Z"},{"geonameid":668196,"name":"Salcia Veche","asciiname":"Salcia Veche","alternatenames":"","latitude":"45.4573400","longitude":"27.3077300","fclass":"P","fcode":"PPL","country":"RO","cc2":"","admin1":"40","admin2":"175590","admin3":"","admin4":"","population":338,"elevation":0,"gtopo30":38,"timezone":"Europe/Bucharest","moddate":"2013-04-21T00:00:00.000Z"},{"geonameid":667835,"name":"Satu Nou","asciiname":"Satu Nou","alternatenames":"","latitude":"45.4294300","longitude":"27.3295400","fclass":"P","fcode":"PPL","country":"RO","cc2":"","admin1":"40","admin2":"175590","admin3":"","admin4":"","population":328,"elevation":0,"gtopo30":39,"timezone":"Europe/Bucharest","moddate":"2013-04-21T00:00:00.000Z"},{"geonameid":666381,"name":"Spătăreasa","asciiname":"Spatareasa","alternatenames":"Spatareasa,Spataresa,Spătăreasa,Spătăresa","latitude":"45.4267900","longitude":"27.2962200","fclass":"P","fcode":"PPL","country":"RO","cc2":"RO","admin1":"40","admin2":"175590","admin3":"","admin4":"","population":303,"elevation":0,"gtopo30":42,"timezone":"Europe/Bucharest","moddate":"2013-04-21T00:00:00.000Z"}],"admin3":[],"alternateNames":[{"alternatenameId":391637,"geonameid":662447,"isoLanguage":"ro","alternateName":"Vrancea","isPreferredName":true,"isShortName":true,"isColloquial":false,"isHistoric":false}]},"__N_SSG":true}