{"pageProps":{"locale":"ro","admin2":{"geonameid":664908,"name":"Oraş Tismana","country":"RO","admin1":"19","admin2":"82430","admin3":"","latitude":"45.0446400","longitude":"22.9380300"},"admin1":{"geonameid":676898,"name":"Gorj","admin1":"19"},"locations":[{"geonameid":682434,"name":"Celei","asciiname":"Celei","alternatenames":"Celei,Celeiu,Celeiul","latitude":"45.0113900","longitude":"22.9266400","fclass":"P","fcode":"PPL","country":"RO","cc2":"RO","admin1":"19","admin2":"82430","admin3":"","admin4":"","population":703,"elevation":0,"gtopo30":212,"timezone":"Europe/Bucharest","moddate":"2013-04-21T00:00:00.000Z"},{"geonameid":680585,"name":"Costeni","asciiname":"Costeni","alternatenames":"","latitude":"45.0175600","longitude":"22.8954300","fclass":"P","fcode":"PPL","country":"RO","cc2":"","admin1":"19","admin2":"82430","admin3":"","admin4":"","population":857,"elevation":0,"gtopo30":229,"timezone":"Europe/Bucharest","moddate":"2013-04-21T00:00:00.000Z"},{"geonameid":676884,"name":"Gornovița","asciiname":"Gornovita","alternatenames":"","latitude":"45.0728600","longitude":"22.9678800","fclass":"P","fcode":"PPL","country":"RO","cc2":"","admin1":"19","admin2":"82430","admin3":"","admin4":"","population":516,"elevation":0,"gtopo30":278,"timezone":"Europe/Bucharest","moddate":"2013-04-21T00:00:00.000Z"},{"geonameid":676402,"name":"Hăeşti","asciiname":"Haesti","alternatenames":"","latitude":"45.0000000","longitude":"22.9166700","fclass":"P","fcode":"PPL","country":"RO","cc2":"","admin1":"19","admin2":"82430","admin3":"","admin4":"","population":0,"elevation":0,"gtopo30":257,"timezone":"Europe/Bucharest","moddate":"2016-02-07T00:00:00.000Z"},{"geonameid":675463,"name":"Isvarna","asciiname":"Isvarna","alternatenames":"","latitude":"45.0327200","longitude":"22.9083300","fclass":"P","fcode":"PPL","country":"RO","cc2":"","admin1":"19","admin2":"82430","admin3":"","admin4":"","population":419,"elevation":0,"gtopo30":209,"timezone":"Europe/Bucharest","moddate":"2013-04-21T00:00:00.000Z"},{"geonameid":670355,"name":"Pocruia","asciiname":"Pocruia","alternatenames":"","latitude":"45.0447000","longitude":"22.9249500","fclass":"P","fcode":"PPL","country":"RO","cc2":"","admin1":"19","admin2":"82430","admin3":"","admin4":"","population":1107,"elevation":0,"gtopo30":227,"timezone":"Europe/Bucharest","moddate":"2013-04-21T00:00:00.000Z"},{"geonameid":669342,"name":"Racoți","asciiname":"Racoti","alternatenames":"","latitude":"44.9895100","longitude":"22.9353900","fclass":"P","fcode":"PPL","country":"RO","cc2":"","admin1":"19","admin2":"82430","admin3":"","admin4":"","population":439,"elevation":0,"gtopo30":212,"timezone":"Europe/Bucharest","moddate":"2013-04-21T00:00:00.000Z"},{"geonameid":666543,"name":"Sohodol","asciiname":"Sohodol","alternatenames":"","latitude":"45.0553100","longitude":"22.8819400","fclass":"P","fcode":"PPL","country":"RO","cc2":"","admin1":"19","admin2":"82430","admin3":"","admin4":"","population":1301,"elevation":0,"gtopo30":401,"timezone":"Europe/Bucharest","moddate":"2013-04-21T00:00:00.000Z"},{"geonameid":664910,"name":"Tismana","asciiname":"Tismana","alternatenames":"Tismana","latitude":"45.0500000","longitude":"22.9666700","fclass":"P","fcode":"PPLA2","country":"RO","cc2":"","admin1":"19","admin2":"82430","admin3":"","admin4":"","population":7751,"elevation":0,"gtopo30":212,"timezone":"Europe/Bucharest","moddate":"2012-06-12T00:00:00.000Z"},{"geonameid":664769,"name":"Topești","asciiname":"Topesti","alternatenames":"Topesti,Topestii,Topeşti,Topeştii","latitude":"45.0801800","longitude":"22.9706800","fclass":"P","fcode":"PPL","country":"RO","cc2":"RO","admin1":"19","admin2":"82430","admin3":"","admin4":"","population":429,"elevation":0,"gtopo30":278,"timezone":"Europe/Bucharest","moddate":"2013-04-21T00:00:00.000Z"},{"geonameid":664235,"name":"Ungureni","asciiname":"Ungureni","alternatenames":"","latitude":"45.0500000","longitude":"22.9500000","fclass":"P","fcode":"PPL","country":"RO","cc2":"","admin1":"19","admin2":"82430","admin3":"","admin4":"","population":0,"elevation":0,"gtopo30":216,"timezone":"Europe/Bucharest","moddate":"2016-02-07T00:00:00.000Z"},{"geonameid":662888,"name":"Vâlcele","asciiname":"Valcele","alternatenames":"Valcele,Vilcele,Vâlcele,Vîlcele","latitude":"45.0888600","longitude":"22.9847500","fclass":"P","fcode":"PPL","country":"RO","cc2":"RO","admin1":"19","admin2":"82430","admin3":"","admin4":"","population":393,"elevation":0,"gtopo30":317,"timezone":"Europe/Bucharest","moddate":"2013-04-20T00:00:00.000Z"},{"geonameid":662848,"name":"Vânăta","asciiname":"Vanata","alternatenames":"Vanata,Vinata,Vânăta,Vînăta","latitude":"45.0500000","longitude":"22.9833300","fclass":"P","fcode":"PPL","country":"RO","cc2":"RO","admin1":"19","admin2":"82430","admin3":"","admin4":"","population":0,"elevation":0,"gtopo30":236,"timezone":"Europe/Bucharest","moddate":"2020-03-08T00:00:00.000Z"}],"admin3":[],"alternateNames":[]},"__N_SSG":true}