{"pageProps":{"locale":"ro","admin2":{"geonameid":679291,"name":"Comuna Doba","country":"RO","admin1":"32","admin2":"137611","admin3":"","latitude":"47.7458800","longitude":"22.6838300"},"admin1":{"geonameid":667869,"name":"Satu Mare","admin1":"32"},"locations":[{"geonameid":684366,"name":"Boghiș","asciiname":"Boghis","alternatenames":"Boghis,Boghiş,Csengerbagos","latitude":"47.7595900","longitude":"22.6737100","fclass":"P","fcode":"PPL","country":"RO","cc2":"RO","admin1":"32","admin2":"137611","admin3":"","admin4":"","population":788,"elevation":0,"gtopo30":115,"timezone":"Europe/Bucharest","moddate":"2013-04-21T00:00:00.000Z"},{"geonameid":679838,"name":"Dacia","asciiname":"Dacia","alternatenames":"","latitude":"47.7333700","longitude":"22.6567000","fclass":"P","fcode":"PPL","country":"RO","cc2":"","admin1":"32","admin2":"137611","admin3":"","admin4":"","population":250,"elevation":0,"gtopo30":114,"timezone":"Europe/Bucharest","moddate":"2013-04-21T00:00:00.000Z"},{"geonameid":679294,"name":"Doba","asciiname":"Doba","alternatenames":"Doba","latitude":"47.7333300","longitude":"22.7166700","fclass":"P","fcode":"PPLA2","country":"RO","cc2":"","admin1":"32","admin2":"137611","admin3":"","admin4":"","population":2727,"elevation":0,"gtopo30":114,"timezone":"Europe/Bucharest","moddate":"2012-06-12T00:00:00.000Z"},{"geonameid":671220,"name":"Paulian","asciiname":"Paulian","alternatenames":"Colonel Paulian,Paulian,Porumbeni","latitude":"47.7257400","longitude":"22.6787700","fclass":"P","fcode":"PPL","country":"RO","cc2":"RO","admin1":"32","admin2":"137611","admin3":"","admin4":"","population":484,"elevation":0,"gtopo30":115,"timezone":"Europe/Bucharest","moddate":"2013-04-21T00:00:00.000Z"},{"geonameid":664674,"name":"Traian","asciiname":"Traian","alternatenames":"","latitude":"47.7683500","longitude":"22.6962400","fclass":"P","fcode":"PPL","country":"RO","cc2":"","admin1":"32","admin2":"137611","admin3":"","admin4":"","population":161,"elevation":0,"gtopo30":116,"timezone":"Europe/Bucharest","moddate":"2013-04-21T00:00:00.000Z"}],"admin3":[],"alternateNames":[]},"__N_SSG":true}