{"pageProps":{"locale":"en","admin2":{"geonameid":2652355,"name":"Cornwall","country":"GB","admin1":"ENG","admin2":"C6","admin3":"","latitude":"50.4166700","longitude":"-4.7500000"},"admin1":{"geonameid":6269131,"name":"England","admin1":"ENG","localeAltName":"England"},"locations":[{"geonameid":2657420,"name":"Altarnun","asciiname":"Altarnun","alternatenames":"Altarnun,Alternonn,altrnwn,الترنون","latitude":"50.6046400","longitude":"-4.5122400","fclass":"P","fcode":"PPL","country":"GB","cc2":"","admin1":"ENG","admin2":"C6","admin3":"00HE002","admin4":"","population":0,"elevation":0,"gtopo30":185,"timezone":"Europe/London","moddate":"2011-03-03T00:00:00.000Z"},{"geonameid":10104001,"name":"Angarrick","asciiname":"Angarrick","alternatenames":"","latitude":"50.1987700","longitude":"-5.0881700","fclass":"P","fcode":"PPL","country":"GB","cc2":"","admin1":"ENG","admin2":"C6","admin3":"00HE096","admin4":"","population":0,"elevation":0,"gtopo30":55,"timezone":"Europe/London","moddate":"2015-02-16T00:00:00.000Z"},{"geonameid":2657258,"name":"Antony","asciiname":"Antony","alternatenames":"Anthony,Antony","latitude":"50.3701300","longitude":"-4.2523100","fclass":"P","fcode":"PPL","country":"GB","cc2":"","admin1":"ENG","admin2":"C6","admin3":"00HE003","admin4":"","population":0,"elevation":0,"gtopo30":46,"timezone":"Europe/London","moddate":"2011-03-03T00:00:00.000Z"},{"geonameid":2655342,"name":"Blisland","asciiname":"Blisland","alternatenames":"Blisland","latitude":"50.5276000","longitude":"-4.6823700","fclass":"P","fcode":"PPL","country":"GB","cc2":"","admin1":"ENG","admin2":"C6","admin3":"00HE004","admin4":"","population":0,"elevation":0,"gtopo30":128,"timezone":"Europe/London","moddate":"2011-03-03T00:00:00.000Z"},{"geonameid":2655273,"name":"Bodmin","asciiname":"Bodmin","alternatenames":"Bodamina,Bodmin,Bosvenegh,bo de ming,bwdmyn,Бодмин,بودمین,博德明","latitude":"50.4715100","longitude":"-4.7243000","fclass":"P","fcode":"PPL","country":"GB","cc2":"","admin1":"ENG","admin2":"C6","admin3":"00HE006","admin4":"","population":14614,"elevation":0,"gtopo30":98,"timezone":"Europe/London","moddate":"2017-06-12T00:00:00.000Z"},{"geonameid":6621657,"name":"Boleigh","asciiname":"Boleigh","alternatenames":"","latitude":"50.0687400","longitude":"-5.5842300","fclass":"P","fcode":"PPL","country":"GB","cc2":"","admin1":"ENG","admin2":"C6","admin3":"00HE136","admin4":"","population":0,"elevation":0,"gtopo30":90,"timezone":"Europe/London","moddate":"2016-06-22T00:00:00.000Z"},{"geonameid":2655148,"name":"Boscastle","asciiname":"Boscastle","alternatenames":"Boscastle,Kastell Boterel,bskstl,بسكستل","latitude":"50.6840900","longitude":"-4.6930100","fclass":"P","fcode":"PPL","country":"GB","cc2":"","admin1":"ENG","admin2":"C6","admin3":"00HE037","admin4":"","population":641,"elevation":0,"gtopo30":88,"timezone":"Europe/London","moddate":"2017-06-12T00:00:00.000Z"},{"geonameid":11496867,"name":"Boswinger","asciiname":"Boswinger","alternatenames":"","latitude":"50.2349400","longitude":"-4.8193100","fclass":"P","fcode":"PPL","country":"GB","cc2":"","admin1":"ENG","admin2":"C6","admin3":"00HE154","admin4":"","population":0,"elevation":0,"gtopo30":88,"timezone":"Europe/London","moddate":"2017-03-27T00:00:00.000Z"},{"geonameid":2655135,"name":"Botallack","asciiname":"Botallack","alternatenames":"Botallack","latitude":"50.1377100","longitude":"-5.6823800","fclass":"P","fcode":"PPL","country":"GB","cc2":"","admin1":"ENG","admin2":"C6","admin3":"00HE161","admin4":"","population":0,"elevation":0,"gtopo30":111,"timezone":"Europe/London","moddate":"2011-03-03T00:00:00.000Z"},{"geonameid":2655028,"name":"Boyton","asciiname":"Boyton","alternatenames":"","latitude":"50.7000000","longitude":"-4.3833300","fclass":"P","fcode":"PPLA3","country":"GB","cc2":"","admin1":"ENG","admin2":"C6","admin3":"00HE008","admin4":"","population":0,"elevation":0,"gtopo30":133,"timezone":"Europe/London","moddate":"2011-07-31T00:00:00.000Z"},{"geonameid":2655000,"name":"Braddock","asciiname":"Braddock","alternatenames":"Braddock","latitude":"50.4302900","longitude":"-4.5890800","fclass":"P","fcode":"PPL","country":"GB","cc2":"","admin1":"ENG","admin2":"C6","admin3":"00HE010","admin4":"","population":0,"elevation":0,"gtopo30":163,"timezone":"Europe/London","moddate":"2011-03-03T00:00:00.000Z"},{"geonameid":6621655,"name":"Brane","asciiname":"Brane","alternatenames":"","latitude":"50.0984500","longitude":"-5.6323000","fclass":"P","fcode":"PPL","country":"GB","cc2":"","admin1":"ENG","admin2":"C6","admin3":"00HE122","admin4":"","population":0,"elevation":0,"gtopo30":146,"timezone":"Europe/London","moddate":"2016-06-22T00:00:00.000Z"},{"geonameid":2654835,"name":"Breage","asciiname":"Breage","alternatenames":"Breage","latitude":"50.1089300","longitude":"-5.3326000","fclass":"P","fcode":"PPL","country":"GB","cc2":"","admin1":"ENG","admin2":"C6","admin3":"00HE009","admin4":"","population":471,"elevation":0,"gtopo30":99,"timezone":"Europe/London","moddate":"2017-06-12T00:00:00.000Z"},{"geonameid":9538921,"name":"Bridge","asciiname":"Bridge","alternatenames":"","latitude":"50.2572500","longitude":"-5.2661000","fclass":"P","fcode":"PPL","country":"GB","cc2":"","admin1":"ENG","admin2":"C6","admin3":"00HE114","admin4":"","population":0,"elevation":0,"gtopo30":28,"timezone":"Europe/London","moddate":"2014-09-13T00:00:00.000Z"},{"geonameid":2654380,"name":"Bude","asciiname":"Bude","alternatenames":"B'jud,Bud,Porth Bud,Porthbud,Бьюд","latitude":"50.8243500","longitude":"-4.5413000","fclass":"P","fcode":"PPL","country":"GB","cc2":"","admin1":"ENG","admin2":"C6","admin3":"00HE011","admin4":"","population":7011,"elevation":0,"gtopo30":10,"timezone":"Europe/London","moddate":"2017-06-12T00:00:00.000Z"},{"geonameid":2654375,"name":"Budock Water","asciiname":"Budock Water","alternatenames":"Budock,Budock Water","latitude":"50.1453300","longitude":"-5.1035100","fclass":"P","fcode":"PPL","country":"GB","cc2":"","admin1":"ENG","admin2":"C6","admin3":"00HE012","admin4":"","population":0,"elevation":0,"gtopo30":54,"timezone":"Europe/London","moddate":"2011-03-03T00:00:00.000Z"},{"geonameid":2654371,"name":"Bugle","asciiname":"Bugle","alternatenames":"","latitude":"50.3957700","longitude":"-4.7933400","fclass":"P","fcode":"PPL","country":"GB","cc2":"","admin1":"ENG","admin2":"C6","admin3":"00HE200","admin4":"","population":2873,"elevation":0,"gtopo30":148,"timezone":"Europe/London","moddate":"2017-06-12T00:00:00.000Z"},{"geonameid":2654110,"name":"Cadgwith","asciiname":"Cadgwith","alternatenames":"","latitude":"49.9878500","longitude":"-5.1800800","fclass":"P","fcode":"PPL","country":"GB","cc2":"","admin1":"ENG","admin2":"C6","admin3":"00HE041","admin4":"","population":0,"elevation":0,"gtopo30":12,"timezone":"Europe/London","moddate":"2011-03-03T00:00:00.000Z"},{"geonameid":2653981,"name":"Callington","asciiname":"Callington","alternatenames":"","latitude":"50.5014700","longitude":"-4.3131400","fclass":"P","fcode":"PPL","country":"GB","cc2":"","admin1":"ENG","admin2":"C6","admin3":"00HE013","admin4":"","population":5786,"elevation":0,"gtopo30":161,"timezone":"Europe/London","moddate":"2017-06-12T00:00:00.000Z"},{"geonameid":2653971,"name":"Calstock","asciiname":"Calstock","alternatenames":"Calstock,Kalstok,klstk,كلستك","latitude":"50.4962300","longitude":"-4.2063900","fclass":"P","fcode":"PPL","country":"GB","cc2":"","admin1":"ENG","admin2":"C6","admin3":"00HE014","admin4":"","population":790,"elevation":0,"gtopo30":6,"timezone":"Europe/London","moddate":"2017-06-12T00:00:00.000Z"},{"geonameid":2653945,"name":"Camborne","asciiname":"Camborne","alternatenames":"Cambron,Kamborn,Kamm-Bron,Kammbronn,kambwrn,Камборн,کامبورن","latitude":"50.2130600","longitude":"-5.2973100","fclass":"P","fcode":"PPL","country":"GB","cc2":"","admin1":"ENG","admin2":"C6","admin3":"00HE015","admin4":"","population":22500,"elevation":0,"gtopo30":101,"timezone":"Europe/London","moddate":"2012-03-29T00:00:00.000Z"},{"geonameid":9538915,"name":"Cambrose","asciiname":"Cambrose","alternatenames":"","latitude":"50.2632000","longitude":"-5.2485000","fclass":"P","fcode":"PPL","country":"GB","cc2":"","admin1":"ENG","admin2":"C6","admin3":"00HE114","admin4":"","population":0,"elevation":0,"gtopo30":46,"timezone":"Europe/London","moddate":"2014-09-13T00:00:00.000Z"},{"geonameid":2653927,"name":"Camelford","asciiname":"Camelford","alternatenames":"Camelford,Gafolford,Ryskammel,kmlfwrd,کملفورد","latitude":"50.6218500","longitude":"-4.6796300","fclass":"P","fcode":"PPL","country":"GB","cc2":"","admin1":"ENG","admin2":"C6","admin3":"00HE016","admin4":"","population":2335,"elevation":0,"gtopo30":199,"timezone":"Europe/London","moddate":"2017-06-12T00:00:00.000Z"},{"geonameid":2653833,"name":"Carbis Bay","asciiname":"Carbis Bay","alternatenames":"Carbis Bay","latitude":"50.1959500","longitude":"-5.4662800","fclass":"P","fcode":"PPL","country":"GB","cc2":"","admin1":"ENG","admin2":"C6","admin3":"00HE158","admin4":"","population":0,"elevation":0,"gtopo30":69,"timezone":"Europe/London","moddate":"2011-03-03T00:00:00.000Z"},{"geonameid":10104000,"name":"Carclew","asciiname":"Carclew","alternatenames":"","latitude":"50.1989400","longitude":"-5.1004000","fclass":"P","fcode":"PPL","country":"GB","cc2":"","admin1":"ENG","admin2":"C6","admin3":"00HE096","admin4":"","population":0,"elevation":0,"gtopo30":57,"timezone":"Europe/London","moddate":"2015-02-16T00:00:00.000Z"},{"geonameid":2653811,"name":"Cardinham","asciiname":"Cardinham","alternatenames":"Cardingham,Cardinham","latitude":"50.4899200","longitude":"-4.6480300","fclass":"P","fcode":"PPL","country":"GB","cc2":"","admin1":"ENG","admin2":"C6","admin3":"00HE017","admin4":"","population":0,"elevation":0,"gtopo30":112,"timezone":"Europe/London","moddate":"2011-03-03T00:00:00.000Z"},{"geonameid":10376369,"name":"Carines","asciiname":"Carines","alternatenames":"","latitude":"50.3897500","longitude":"-5.1110500","fclass":"P","fcode":"PPL","country":"GB","cc2":"","admin1":"ENG","admin2":"C6","admin3":"00HE026","admin4":"","population":0,"elevation":0,"gtopo30":39,"timezone":"Europe/London","moddate":"2015-07-13T00:00:00.000Z"},{"geonameid":8129295,"name":"Carland Cross","asciiname":"Carland Cross","alternatenames":"","latitude":"50.3472200","longitude":"-5.0275800","fclass":"P","fcode":"PPL","country":"GB","cc2":"","admin1":"ENG","admin2":"C6","admin3":"00HE179","admin4":"","population":0,"elevation":0,"gtopo30":139,"timezone":"Europe/London","moddate":"2012-01-05T00:00:00.000Z"},{"geonameid":2653782,"name":"Carleen","asciiname":"Carleen","alternatenames":"Carleen","latitude":"50.1229400","longitude":"-5.3370800","fclass":"P","fcode":"PPL","country":"GB","cc2":"","admin1":"ENG","admin2":"C6","admin3":"00HE009","admin4":"","population":0,"elevation":0,"gtopo30":96,"timezone":"Europe/London","moddate":"2011-03-03T00:00:00.000Z"},{"geonameid":6950970,"name":"Carlyon Bay","asciiname":"Carlyon Bay","alternatenames":"","latitude":"50.3378700","longitude":"-4.7386100","fclass":"P","fcode":"PPL","country":"GB","cc2":"","admin1":"ENG","admin2":"C6","admin3":"00HE019","admin4":"","population":0,"elevation":0,"gtopo30":44,"timezone":"Europe/London","moddate":"2011-03-03T00:00:00.000Z"},{"geonameid":2653725,"name":"Carnbrea","asciiname":"Carnbrea","alternatenames":"","latitude":"50.2166700","longitude":"-5.2333300","fclass":"P","fcode":"PPL","country":"GB","cc2":"","admin1":"ENG","admin2":"C6","admin3":"00HE118","admin4":"","population":0,"elevation":0,"gtopo30":164,"timezone":"Europe/London","moddate":"2016-06-22T00:00:00.000Z"},{"geonameid":9538939,"name":"Carne","asciiname":"Carne","alternatenames":"","latitude":"50.2105500","longitude":"-4.9275400","fclass":"P","fcode":"PPL","country":"GB","cc2":"","admin1":"ENG","admin2":"C6","admin3":"00HE204","admin4":"","population":0,"elevation":0,"gtopo30":93,"timezone":"Europe/London","moddate":"2014-09-14T00:00:00.000Z"},{"geonameid":11593127,"name":"Carnon Downs","asciiname":"Carnon Downs","alternatenames":"","latitude":"50.2217900","longitude":"-5.0872300","fclass":"P","fcode":"PPL","country":"GB","cc2":"","admin1":"ENG","admin2":"C6","admin3":"00HE036","admin4":"","population":0,"elevation":0,"gtopo30":81,"timezone":"Europe/London","moddate":"2017-06-21T00:00:00.000Z"},{"geonameid":11072620,"name":"Carthew","asciiname":"Carthew","alternatenames":"","latitude":"50.3709200","longitude":"-4.8060900","fclass":"P","fcode":"PPL","country":"GB","cc2":"","admin1":"ENG","admin2":"C6","admin3":"00HE200","admin4":"","population":0,"elevation":0,"gtopo30":188,"timezone":"Europe/London","moddate":"2016-03-01T00:00:00.000Z"},{"geonameid":6621660,"name":"Castallack","asciiname":"Castallack","alternatenames":"","latitude":"50.0727600","longitude":"-5.5634200","fclass":"P","fcode":"PPL","country":"GB","cc2":"","admin1":"ENG","admin2":"C6","admin3":"00HE103","admin4":"","population":0,"elevation":0,"gtopo30":100,"timezone":"Europe/London","moddate":"2016-06-22T00:00:00.000Z"},{"geonameid":2653467,"name":"Cawsand","asciiname":"Cawsand","alternatenames":"Causand,Cawsand","latitude":"50.3316600","longitude":"-4.2025100","fclass":"P","fcode":"PPL","country":"GB","cc2":"","admin1":"ENG","admin2":"C6","admin3":"00HE081","admin4":"","population":0,"elevation":0,"gtopo30":20,"timezone":"Europe/London","moddate":"2011-03-03T00:00:00.000Z"},{"geonameid":10103993,"name":"Central Treviscoe","asciiname":"Central Treviscoe","alternatenames":"","latitude":"50.3729200","longitude":"-4.9003700","fclass":"P","fcode":"PPL","country":"GB","cc2":"","admin1":"ENG","admin2":"C6","admin3":"00HE182","admin4":"","population":0,"elevation":0,"gtopo30":164,"timezone":"Europe/London","moddate":"2015-02-16T00:00:00.000Z"},{"geonameid":2653417,"name":"Chacewater","asciiname":"Chacewater","alternatenames":"Chacewater","latitude":"50.2567500","longitude":"-5.1575700","fclass":"P","fcode":"PPLA3","country":"GB","cc2":"","admin1":"ENG","admin2":"C6","admin3":"00HE021","admin4":"","population":1226,"elevation":0,"gtopo30":61,"timezone":"Europe/London","moddate":"2017-06-12T00:00:00.000Z"},{"geonameid":2653335,"name":"Charlestown","asciiname":"Charlestown","alternatenames":"Charlestown","latitude":"50.3328600","longitude":"-4.7581100","fclass":"P","fcode":"PPL","country":"GB","cc2":"","admin1":"ENG","admin2":"C6","admin3":"00HE132","admin4":"","population":0,"elevation":0,"gtopo30":16,"timezone":"Europe/London","moddate":"2016-05-16T00:00:00.000Z"},{"geonameid":2652434,"name":"Constantine","asciiname":"Constantine","alternatenames":"Constantine,Constatine","latitude":"50.1189000","longitude":"-5.1759500","fclass":"P","fcode":"PPL","country":"GB","cc2":"","admin1":"ENG","admin2":"C6","admin3":"00HE023","admin4":"","population":819,"elevation":0,"gtopo30":92,"timezone":"Europe/London","moddate":"2017-06-12T00:00:00.000Z"},{"geonameid":10103972,"name":"Coombe","asciiname":"Coombe","alternatenames":"","latitude":"50.2288100","longitude":"-5.0317400","fclass":"P","fcode":"PPL","country":"GB","cc2":"","admin1":"ENG","admin2":"C6","admin3":"00HE052","admin4":"","population":0,"elevation":0,"gtopo30":20,"timezone":"Europe/London","moddate":"2015-02-16T00:00:00.000Z"},{"geonameid":10103987,"name":"Coombe","asciiname":"Coombe","alternatenames":"","latitude":"50.3320900","longitude":"-4.8809800","fclass":"P","fcode":"PPL","country":"GB","cc2":"","admin1":"ENG","admin2":"C6","admin3":"00HE182","admin4":"","population":0,"elevation":0,"gtopo30":76,"timezone":"Europe/London","moddate":"2015-02-16T00:00:00.000Z"},{"geonameid":2652218,"name":"Coverack","asciiname":"Coverack","alternatenames":"Coverack","latitude":"50.0247700","longitude":"-5.0975400","fclass":"P","fcode":"PPL","country":"GB","cc2":"","admin1":"ENG","admin2":"C6","admin3":"00HE163","admin4":"","population":255,"elevation":0,"gtopo30":9,"timezone":"Europe/London","moddate":"2017-06-12T00:00:00.000Z"},{"geonameid":7909853,"name":"Crackington Haven","asciiname":"Crackington Haven","alternatenames":"","latitude":"50.7415900","longitude":"-4.6338500","fclass":"P","fcode":"PPLL","country":"GB","cc2":"","admin1":"ENG","admin2":"C6","admin3":"00HE151","admin4":"","population":0,"elevation":0,"gtopo30":8,"timezone":"Europe/London","moddate":"2011-07-14T00:00:00.000Z"},{"geonameid":10794242,"name":"Crafthole","asciiname":"Crafthole","alternatenames":"","latitude":"50.3649600","longitude":"-4.3002000","fclass":"P","fcode":"PPL","country":"GB","cc2":"","admin1":"ENG","admin2":"C6","admin3":"00HE124","admin4":"","population":0,"elevation":0,"gtopo30":92,"timezone":"Europe/London","moddate":"2015-10-06T00:00:00.000Z"},{"geonameid":2652076,"name":"Crantock","asciiname":"Crantock","alternatenames":"Crantock","latitude":"50.4027200","longitude":"-5.1120800","fclass":"P","fcode":"PPL","country":"GB","cc2":"","admin1":"ENG","admin2":"C6","admin3":"00HE024","admin4":"","population":801,"elevation":0,"gtopo30":37,"timezone":"Europe/London","moddate":"2017-06-12T00:00:00.000Z"},{"geonameid":2652029,"name":"Creed","asciiname":"Creed","alternatenames":"Creed","latitude":"50.2887400","longitude":"-4.8997500","fclass":"P","fcode":"PPL","country":"GB","cc2":"","admin1":"ENG","admin2":"C6","admin3":"00HE042","admin4":"","population":0,"elevation":0,"gtopo30":37,"timezone":"Europe/London","moddate":"2011-03-03T00:00:00.000Z"},{"geonameid":2651853,"name":"Crowan","asciiname":"Crowan","alternatenames":"Crowan","latitude":"50.1635500","longitude":"-5.2970700","fclass":"P","fcode":"PPL","country":"GB","cc2":"","admin1":"ENG","admin2":"C6","admin3":"00HE025","admin4":"","population":0,"elevation":0,"gtopo30":130,"timezone":"Europe/London","moddate":"2011-03-03T00:00:00.000Z"},{"geonameid":11593164,"name":"Crowlas","asciiname":"Crowlas","alternatenames":"","latitude":"50.1458300","longitude":"-5.4761700","fclass":"P","fcode":"PPL","country":"GB","cc2":"","admin1":"ENG","admin2":"C6","admin3":"00HE077","admin4":"","population":0,"elevation":0,"gtopo30":16,"timezone":"Europe/London","moddate":"2017-06-21T00:00:00.000Z"},{"geonameid":6621654,"name":"Crows-an-Wra","asciiname":"Crows-an-Wra","alternatenames":"","latitude":"50.0914800","longitude":"-5.6430000","fclass":"P","fcode":"PPL","country":"GB","cc2":"","admin1":"ENG","admin2":"C6","admin3":"00HE136","admin4":"","population":0,"elevation":0,"gtopo30":126,"timezone":"Europe/London","moddate":"2016-06-22T00:00:00.000Z"},{"geonameid":2651791,"name":"Cubert","asciiname":"Cubert","alternatenames":"Cubert","latitude":"50.3794900","longitude":"-5.1176100","fclass":"P","fcode":"PPL","country":"GB","cc2":"","admin1":"ENG","admin2":"C6","admin3":"00HE026","admin4":"","population":771,"elevation":0,"gtopo30":84,"timezone":"Europe/London","moddate":"2017-06-12T00:00:00.000Z"},{"geonameid":2651678,"name":"Cury","asciiname":"Cury","alternatenames":"Cury","latitude":"50.0468200","longitude":"-5.2442100","fclass":"P","fcode":"PPL","country":"GB","cc2":"","admin1":"ENG","admin2":"C6","admin3":"00HE028","admin4":"","population":0,"elevation":0,"gtopo30":60,"timezone":"Europe/London","moddate":"2011-03-03T00:00:00.000Z"},{"geonameid":2651483,"name":"Davidstow","asciiname":"Davidstow","alternatenames":"Davidstow","latitude":"50.6557100","longitude":"-4.6159900","fclass":"P","fcode":"PPL","country":"GB","cc2":"","admin1":"ENG","admin2":"C6","admin3":"00HE029","admin4":"","population":0,"elevation":0,"gtopo30":257,"timezone":"Europe/London","moddate":"2011-03-03T00:00:00.000Z"},{"geonameid":2651404,"name":"Delabole","asciiname":"Delabole","alternatenames":"","latitude":"50.6234700","longitude":"-4.7319000","fclass":"P","fcode":"PPL","country":"GB","cc2":"","admin1":"ENG","admin2":"C6","admin3":"00HE184","admin4":"","population":1647,"elevation":0,"gtopo30":220,"timezone":"Europe/London","moddate":"2017-06-12T00:00:00.000Z"},{"geonameid":6697688,"name":"Devoran","asciiname":"Devoran","alternatenames":"Deveryon","latitude":"50.2117100","longitude":"-5.0938800","fclass":"P","fcode":"PPL","country":"GB","cc2":"","admin1":"ENG","admin2":"C6","admin3":"00HE036","admin4":"","population":400,"elevation":0,"gtopo30":16,"timezone":"Europe/London","moddate":"2014-07-13T00:00:00.000Z"},{"geonameid":2651196,"name":"Dobwalls","asciiname":"Dobwalls","alternatenames":"","latitude":"50.4576800","longitude":"-4.5173500","fclass":"P","fcode":"PPL","country":"GB","cc2":"","admin1":"ENG","admin2":"C6","admin3":"00HE031","admin4":"","population":1418,"elevation":0,"gtopo30":137,"timezone":"Europe/London","moddate":"2017-06-12T00:00:00.000Z"},{"geonameid":2651075,"name":"Doublebois","asciiname":"Doublebois","alternatenames":"","latitude":"50.4563400","longitude":"-4.5380900","fclass":"P","fcode":"PPL","country":"GB","cc2":"","admin1":"ENG","admin2":"C6","admin3":"00HE031","admin4":"","population":0,"elevation":0,"gtopo30":137,"timezone":"Europe/London","moddate":"2011-03-03T00:00:00.000Z"},{"geonameid":11593054,"name":"Downderry","asciiname":"Downderry","alternatenames":"","latitude":"50.3621600","longitude":"-4.3691300","fclass":"P","fcode":"PPL","country":"GB","cc2":"","admin1":"ENG","admin2":"C6","admin3":"00HE030","admin4":"","population":0,"elevation":0,"gtopo30":44,"timezone":"Europe/London","moddate":"2017-06-20T00:00:00.000Z"},{"geonameid":11593171,"name":"Downgate","asciiname":"Downgate","alternatenames":"","latitude":"50.5328000","longitude":"-4.3051000","fclass":"P","fcode":"PPL","country":"GB","cc2":"","admin1":"ENG","admin2":"C6","admin3":"00HE191","admin4":"","population":0,"elevation":0,"gtopo30":131,"timezone":"Europe/London","moddate":"2017-06-21T00:00:00.000Z"},{"geonameid":7289302,"name":"Drakewalls","asciiname":"Drakewalls","alternatenames":"","latitude":"50.5157100","longitude":"-4.2214100","fclass":"P","fcode":"PPL","country":"GB","cc2":"","admin1":"ENG","admin2":"C6","admin3":"00HE014","admin4":"","population":0,"elevation":0,"gtopo30":164,"timezone":"Europe/London","moddate":"2016-06-22T00:00:00.000Z"},{"geonameid":2650806,"name":"Duloe","asciiname":"Duloe","alternatenames":"","latitude":"50.3833300","longitude":"-4.4833300","fclass":"P","fcode":"PPLA3","country":"GB","cc2":"","admin1":"ENG","admin2":"C6","admin3":"00HE032","admin4":"","population":0,"elevation":0,"gtopo30":116,"timezone":"Europe/London","moddate":"2011-07-31T00:00:00.000Z"},{"geonameid":9538914,"name":"East Cliff","asciiname":"East Cliff","alternatenames":"","latitude":"50.2890400","longitude":"-5.2401400","fclass":"P","fcode":"PPL","country":"GB","cc2":"","admin1":"ENG","admin2":"C6","admin3":"00HE128","admin4":"","population":0,"elevation":0,"gtopo30":58,"timezone":"Europe/London","moddate":"2014-09-13T00:00:00.000Z"},{"geonameid":2650387,"name":"East Looe","asciiname":"East Looe","alternatenames":"","latitude":"50.4000000","longitude":"-4.4333300","fclass":"P","fcode":"PPL","country":"GB","cc2":"","admin1":"ENG","admin2":"C6","admin3":"00HE093","admin4":"","population":0,"elevation":0,"gtopo30":134,"timezone":"Europe/London","moddate":"2016-06-22T00:00:00.000Z"},{"geonameid":9166524,"name":"Edgcumbe","asciiname":"Edgcumbe","alternatenames":"","latitude":"50.1505900","longitude":"-5.1986400","fclass":"P","fcode":"PPL","country":"GB","cc2":"","admin1":"ENG","admin2":"C6","admin3":"00HE209","admin4":"","population":0,"elevation":0,"gtopo30":179,"timezone":"Europe/London","moddate":"2014-06-20T00:00:00.000Z"},{"geonameid":2650181,"name":"Egloshayle","asciiname":"Egloshayle","alternatenames":"Egloshayle","latitude":"50.5139600","longitude":"-4.8247300","fclass":"P","fcode":"PPL","country":"GB","cc2":"","admin1":"ENG","admin2":"C6","admin3":"00HE205","admin4":"","population":0,"elevation":0,"gtopo30":8,"timezone":"Europe/London","moddate":"2011-03-03T00:00:00.000Z"},{"geonameid":2650180,"name":"Egloskerry","asciiname":"Egloskerry","alternatenames":"Egloskerry","latitude":"50.6529700","longitude":"-4.4480300","fclass":"P","fcode":"PPL","country":"GB","cc2":"","admin1":"ENG","admin2":"C6","admin3":"00HE034","admin4":"","population":0,"elevation":0,"gtopo30":125,"timezone":"Europe/London","moddate":"2011-03-03T00:00:00.000Z"},{"geonameid":2649715,"name":"Falmouth","asciiname":"Falmouth","alternatenames":"Aberfal,Aberfala,Falmouth,Falmut,Falmuthum,Folmut,UFM,fa er mao si,falmwth  kwrnwal,farumasu,paelmeoseu,Фалмут,Фолмът,فالموث، کورنوال,ファルマス,法尔茅斯,팰머스","latitude":"50.1544100","longitude":"-5.0711300","fclass":"P","fcode":"PPLA3","country":"GB","cc2":"","admin1":"ENG","admin2":"C6","admin3":"00HE035","admin4":"","population":31988,"elevation":0,"gtopo30":34,"timezone":"Europe/London","moddate":"2017-06-12T00:00:00.000Z"},{"geonameid":2649537,"name":"Feock","asciiname":"Feock","alternatenames":"Feock,Saint Feoch,Saint Feock","latitude":"50.2045400","longitude":"-5.0517800","fclass":"P","fcode":"PPL","country":"GB","cc2":"","admin1":"ENG","admin2":"C6","admin3":"00HE036","admin4":"","population":0,"elevation":0,"gtopo30":37,"timezone":"Europe/London","moddate":"2015-02-16T00:00:00.000Z"},{"geonameid":3345096,"name":"Flexbury","asciiname":"Flexbury","alternatenames":"","latitude":"50.8350900","longitude":"-4.5449900","fclass":"P","fcode":"PPL","country":"GB","cc2":"","admin1":"ENG","admin2":"C6","admin3":"00HE011","admin4":"","population":2211,"elevation":0,"gtopo30":13,"timezone":"Europe/London","moddate":"2017-06-12T00:00:00.000Z"},{"geonameid":2649271,"name":"Flushing","asciiname":"Flushing","alternatenames":"","latitude":"50.1648600","longitude":"-5.0697600","fclass":"P","fcode":"PPL","country":"GB","cc2":"","admin1":"ENG","admin2":"C6","admin3":"00HE096","admin4":"","population":722,"elevation":0,"gtopo30":10,"timezone":"Europe/London","moddate":"2017-06-12T00:00:00.000Z"},{"geonameid":2649193,"name":"Forrabury","asciiname":"Forrabury","alternatenames":"","latitude":"50.6856200","longitude":"-4.6929100","fclass":"P","fcode":"PPL","country":"GB","cc2":"","admin1":"ENG","admin2":"C6","admin3":"00HE037","admin4":"","population":0,"elevation":0,"gtopo30":62,"timezone":"Europe/London","moddate":"2011-03-03T00:00:00.000Z"},{"geonameid":8714312,"name":"Four Lanes","asciiname":"Four Lanes","alternatenames":"","latitude":"50.2016300","longitude":"-5.2401400","fclass":"P","fcode":"PPL","country":"GB","cc2":"","admin1":"ENG","admin2":"C6","admin3":"00HE020","admin4":"","population":1416,"elevation":0,"gtopo30":216,"timezone":"Europe/London","moddate":"2017-06-12T00:00:00.000Z"},{"geonameid":2649126,"name":"Fowey","asciiname":"Fowey","alternatenames":"Fowey,Fowy,Fowydh,fwy  kwrnwal,فوی، کورنوال","latitude":"50.3363400","longitude":"-4.6386000","fclass":"P","fcode":"PPL","country":"GB","cc2":"","admin1":"ENG","admin2":"C6","admin3":"00HE038","admin4":"","population":2131,"elevation":0,"gtopo30":46,"timezone":"Europe/London","moddate":"2017-06-12T00:00:00.000Z"},{"geonameid":11704110,"name":"Foxhole","asciiname":"Foxhole","alternatenames":"","latitude":"50.3581700","longitude":"-4.8627600","fclass":"P","fcode":"PPL","country":"GB","cc2":"","admin1":"ENG","admin2":"C6","admin3":"00HE182","admin4":"","population":0,"elevation":0,"gtopo30":195,"timezone":"Europe/London","moddate":"2017-10-02T00:00:00.000Z"},{"geonameid":9409473,"name":"Frogpool","asciiname":"Frogpool","alternatenames":"Frogpool","latitude":"50.2171700","longitude":"-5.1428500","fclass":"P","fcode":"PPL","country":"GB","cc2":"","admin1":"ENG","admin2":"C6","admin3":"00HE045","admin4":"","population":0,"elevation":0,"gtopo30":64,"timezone":"Europe/London","moddate":"2015-06-01T00:00:00.000Z"},{"geonameid":8714347,"name":"Garras","asciiname":"Garras","alternatenames":"","latitude":"50.0720700","longitude":"-5.2121500","fclass":"P","fcode":"PPL","country":"GB","cc2":"","admin1":"ENG","admin2":"C6","admin3":"00HE085","admin4":"","population":0,"elevation":0,"gtopo30":60,"timezone":"Europe/London","moddate":"2014-02-20T00:00:00.000Z"},{"geonameid":2648715,"name":"Germoe","asciiname":"Germoe","alternatenames":"Germoe,Germol","latitude":"50.1153900","longitude":"-5.3788100","fclass":"P","fcode":"PPLA3","country":"GB","cc2":"","admin1":"ENG","admin2":"C6","admin3":"00HE039","admin4":"","population":175,"elevation":0,"gtopo30":76,"timezone":"Europe/London","moddate":"2017-06-12T00:00:00.000Z"},{"geonameid":2648714,"name":"Gerrans","asciiname":"Gerrans","alternatenames":"Gerrans","latitude":"50.1786300","longitude":"-4.9816600","fclass":"P","fcode":"PPL","country":"GB","cc2":"","admin1":"ENG","admin2":"C6","admin3":"00HE040","admin4":"","population":535,"elevation":0,"gtopo30":52,"timezone":"Europe/London","moddate":"2017-06-12T00:00:00.000Z"},{"geonameid":2638699,"name":"Golant","asciiname":"Golant","alternatenames":"Golant,Saint Sampson,Saint Sampsons","latitude":"50.3634100","longitude":"-4.6426300","fclass":"P","fcode":"PPL","country":"GB","cc2":"","admin1":"ENG","admin2":"C6","admin3":"00HE181","admin4":"","population":0,"elevation":0,"gtopo30":21,"timezone":"Europe/London","moddate":"2011-03-03T00:00:00.000Z"},{"geonameid":9538913,"name":"Goonbell","asciiname":"Goonbell","alternatenames":"","latitude":"50.3039500","longitude":"-5.1951600","fclass":"P","fcode":"PPL","country":"GB","cc2":"","admin1":"ENG","admin2":"C6","admin3":"00HE128","admin4":"","population":0,"elevation":0,"gtopo30":112,"timezone":"Europe/London","moddate":"2014-09-13T00:00:00.000Z"},{"geonameid":9166460,"name":"Gorran Haven","asciiname":"Gorran Haven","alternatenames":"","latitude":"50.2414100","longitude":"-4.7902500","fclass":"P","fcode":"PPL","country":"GB","cc2":"","admin1":"ENG","admin2":"C6","admin3":"00HE154","admin4":"","population":893,"elevation":0,"gtopo30":30,"timezone":"Europe/London","moddate":"2017-06-12T00:00:00.000Z"},{"geonameid":10103997,"name":"Goss Moor","asciiname":"Goss Moor","alternatenames":"","latitude":"50.4042000","longitude":"-4.9149700","fclass":"P","fcode":"PPL","country":"GB","cc2":"","admin1":"ENG","admin2":"C6","admin3":"00HE145","admin4":"","population":0,"elevation":0,"gtopo30":125,"timezone":"Europe/London","moddate":"2016-10-26T00:00:00.000Z"},{"geonameid":2648245,"name":"Grade","asciiname":"Grade","alternatenames":"","latitude":"49.9824800","longitude":"-5.1912800","fclass":"P","fcode":"PPL","country":"GB","cc2":"","admin1":"ENG","admin2":"C6","admin3":"00HE041","admin4":"","population":0,"elevation":0,"gtopo30":74,"timezone":"Europe/London","moddate":"2011-03-03T00:00:00.000Z"},{"geonameid":2648227,"name":"Grampound","asciiname":"Grampound","alternatenames":"Grampound","latitude":"50.2993500","longitude":"-4.9005500","fclass":"P","fcode":"PPL","country":"GB","cc2":"","admin1":"ENG","admin2":"C6","admin3":"00HE042","admin4":"","population":537,"elevation":0,"gtopo30":28,"timezone":"Europe/London","moddate":"2017-06-12T00:00:00.000Z"},{"geonameid":10630386,"name":"Greenbottom","asciiname":"Greenbottom","alternatenames":"","latitude":"50.2630100","longitude":"-5.1355500","fclass":"P","fcode":"PPL","country":"GB","cc2":"","admin1":"ENG","admin2":"C6","admin3":"00HE053","admin4":"","population":0,"elevation":0,"gtopo30":109,"timezone":"Europe/London","moddate":"2015-09-03T00:00:00.000Z"},{"geonameid":2647768,"name":"Gulval","asciiname":"Gulval","alternatenames":"","latitude":"50.1328200","longitude":"-5.5211800","fclass":"P","fcode":"PPL","country":"GB","cc2":"","admin1":"ENG","admin2":"C6","admin3":"00HE107","admin4":"","population":0,"elevation":0,"gtopo30":29,"timezone":"Europe/London","moddate":"2011-03-03T00:00:00.000Z"},{"geonameid":2647759,"name":"Gunnislake","asciiname":"Gunnislake","alternatenames":"Gunnislake","latitude":"50.5244100","longitude":"-4.2133300","fclass":"P","fcode":"PPL","country":"GB","cc2":"","admin1":"ENG","admin2":"C6","admin3":"00HE014","admin4":"","population":4044,"elevation":0,"gtopo30":53,"timezone":"Europe/London","moddate":"2017-06-12T00:00:00.000Z"},{"geonameid":2647753,"name":"Gunwalloe","asciiname":"Gunwalloe","alternatenames":"Gunwalloe","latitude":"50.0589400","longitude":"-5.2762400","fclass":"P","fcode":"PPL","country":"GB","cc2":"","admin1":"ENG","admin2":"C6","admin3":"00HE043","admin4":"","population":0,"elevation":0,"gtopo30":46,"timezone":"Europe/London","moddate":"2011-03-03T00:00:00.000Z"},{"geonameid":2647736,"name":"Gweek","asciiname":"Gweek","alternatenames":"Gweek","latitude":"50.0959700","longitude":"-5.2074900","fclass":"P","fcode":"PPL","country":"GB","cc2":"","admin1":"ENG","admin2":"C6","admin3":"00HE044","admin4":"","population":667,"elevation":0,"gtopo30":4,"timezone":"Europe/London","moddate":"2017-06-12T00:00:00.000Z"},{"geonameid":2647731,"name":"Gwennap","asciiname":"Gwennap","alternatenames":"Gwennap,ghwnb,غونب","latitude":"50.2179800","longitude":"-5.1704000","fclass":"P","fcode":"PPL","country":"GB","cc2":"","admin1":"ENG","admin2":"C6","admin3":"00HE045","admin4":"","population":0,"elevation":0,"gtopo30":60,"timezone":"Europe/London","moddate":"2011-03-03T00:00:00.000Z"},{"geonameid":2647728,"name":"Gwinear","asciiname":"Gwinear","alternatenames":"","latitude":"50.1874900","longitude":"-5.3665600","fclass":"P","fcode":"PPL","country":"GB","cc2":"","admin1":"ENG","admin2":"C6","admin3":"00HE046","admin4":"","population":0,"elevation":0,"gtopo30":83,"timezone":"Europe/London","moddate":"2011-03-03T00:00:00.000Z"},{"geonameid":2647725,"name":"Gwithian","asciiname":"Gwithian","alternatenames":"Gwithian","latitude":"50.2215000","longitude":"-5.3855300","fclass":"P","fcode":"PPL","country":"GB","cc2":"","admin1":"ENG","admin2":"C6","admin3":"00HE046","admin4":"","population":0,"elevation":0,"gtopo30":23,"timezone":"Europe/London","moddate":"2011-03-03T00:00:00.000Z"},{"geonameid":2647258,"name":"Hayle","asciiname":"Hayle","alternatenames":"Hayle,Heyl,Khejl,hayl,Хейл,هایل","latitude":"50.1839200","longitude":"-5.4213700","fclass":"P","fcode":"PPL","country":"GB","cc2":"","admin1":"ENG","admin2":"C6","admin3":"00HE047","admin4":"","population":8210,"elevation":0,"gtopo30":6,"timezone":"Europe/London","moddate":"2017-06-12T00:00:00.000Z"},{"geonameid":2647176,"name":"Helford","asciiname":"Helford","alternatenames":"","latitude":"50.0922000","longitude":"-5.1343300","fclass":"P","fcode":"PPL","country":"GB","cc2":"","admin1":"ENG","admin2":"C6","admin3":"00HE082","admin4":"","population":0,"elevation":0,"gtopo30":12,"timezone":"Europe/London","moddate":"2011-03-03T00:00:00.000Z"},{"geonameid":2647171,"name":"Helland","asciiname":"Helland","alternatenames":"","latitude":"50.5000000","longitude":"-4.7166700","fclass":"P","fcode":"PPLA3","country":"GB","cc2":"","admin1":"ENG","admin2":"C6","admin3":"00HE048","admin4":"","population":0,"elevation":0,"gtopo30":168,"timezone":"Europe/London","moddate":"2011-07-31T00:00:00.000Z"},{"geonameid":2647143,"name":"Helston","asciiname":"Helston","alternatenames":"Hellys,Helston,Henlys,hlstwn,هلستون","latitude":"50.1031900","longitude":"-5.2704500","fclass":"P","fcode":"PPL","country":"GB","cc2":"","admin1":"ENG","admin2":"C6","admin3":"00HE049","admin4":"","population":12184,"elevation":0,"gtopo30":60,"timezone":"Europe/London","moddate":"2017-06-12T00:00:00.000Z"},{"geonameid":2647085,"name":"Henwood","asciiname":"Henwood","alternatenames":"Henwood","latitude":"50.5333300","longitude":"-4.4500000","fclass":"P","fcode":"PPL","country":"GB","cc2":"","admin1":"ENG","admin2":"C6","admin3":"00HE073","admin4":"","population":0,"elevation":0,"gtopo30":207,"timezone":"Europe/London","moddate":"2018-07-04T00:00:00.000Z"},{"geonameid":8199142,"name":"Herodsfoot","asciiname":"Herodsfoot","alternatenames":"","latitude":"50.4130200","longitude":"-4.5548600","fclass":"P","fcode":"PPL","country":"GB","cc2":"","admin1":"ENG","admin2":"C6","admin3":"00HE064","admin4":"","population":0,"elevation":0,"gtopo30":143,"timezone":"Europe/London","moddate":"2012-02-14T00:00:00.000Z"},{"geonameid":10103988,"name":"High Street","asciiname":"High Street","alternatenames":"","latitude":"50.3445600","longitude":"-4.8605100","fclass":"P","fcode":"PPL","country":"GB","cc2":"","admin1":"ENG","admin2":"C6","admin3":"00HE182","admin4":"","population":0,"elevation":0,"gtopo30":151,"timezone":"Europe/London","moddate":"2015-02-16T00:00:00.000Z"},{"geonameid":10103995,"name":"Higher Fraddon","asciiname":"Higher Fraddon","alternatenames":"","latitude":"50.3846300","longitude":"-4.9314500","fclass":"P","fcode":"PPL","country":"GB","cc2":"","admin1":"ENG","admin2":"C6","admin3":"00HE145","admin4":"","population":0,"elevation":0,"gtopo30":179,"timezone":"Europe/London","moddate":"2015-02-16T00:00:00.000Z"},{"geonameid":10376367,"name":"Holywell Bay","asciiname":"Holywell Bay","alternatenames":"","latitude":"50.3870400","longitude":"-5.1420700","fclass":"P","fcode":"PPL","country":"GB","cc2":"","admin1":"ENG","admin2":"C6","admin3":"00HE026","admin4":"","population":0,"elevation":0,"gtopo30":10,"timezone":"Europe/London","moddate":"2016-10-26T00:00:00.000Z"},{"geonameid":2646268,"name":"Illogan","asciiname":"Illogan","alternatenames":"Illogan","latitude":"50.2483000","longitude":"-5.2675200","fclass":"P","fcode":"PPL","country":"GB","cc2":"","admin1":"ENG","admin2":"C6","admin3":"00HE050","admin4":"","population":0,"elevation":0,"gtopo30":81,"timezone":"Europe/London","moddate":"2014-09-13T00:00:00.000Z"},{"geonameid":2645979,"name":"Jacobstow","asciiname":"Jacobstow","alternatenames":"Jacobstow","latitude":"50.7333300","longitude":"-4.5500000","fclass":"P","fcode":"PPLA3","country":"GB","cc2":"","admin1":"ENG","admin2":"C6","admin3":"00HE051","admin4":"","population":0,"elevation":0,"gtopo30":99,"timezone":"Europe/London","moddate":"2011-07-31T00:00:00.000Z"},{"geonameid":2645919,"name":"Kea","asciiname":"Kea","alternatenames":"Kea","latitude":"50.2433700","longitude":"-5.0723800","fclass":"P","fcode":"PPL","country":"GB","cc2":"","admin1":"ENG","admin2":"C6","admin3":"00HE052","admin4":"","population":0,"elevation":0,"gtopo30":55,"timezone":"Europe/London","moddate":"2011-03-03T00:00:00.000Z"},{"geonameid":2645783,"name":"Kenwyn","asciiname":"Kenwyn","alternatenames":"Kenwyn","latitude":"50.2695900","longitude":"-5.0591300","fclass":"P","fcode":"PPL","country":"GB","cc2":"","admin1":"ENG","admin2":"C6","admin3":"00HE202","admin4":"","population":0,"elevation":0,"gtopo30":34,"timezone":"Europe/London","moddate":"2011-03-03T00:00:00.000Z"},{"geonameid":2645655,"name":"Kilkhampton","asciiname":"Kilkhampton","alternatenames":"Kilkhampton","latitude":"50.8756600","longitude":"-4.4839200","fclass":"P","fcode":"PPL","country":"GB","cc2":"","admin1":"ENG","admin2":"C6","admin3":"00HE054","admin4":"","population":853,"elevation":0,"gtopo30":168,"timezone":"Europe/London","moddate":"2017-06-12T00:00:00.000Z"},{"geonameid":10377870,"name":"Killigarth","asciiname":"Killigarth","alternatenames":"","latitude":"50.3399000","longitude":"-4.5127600","fclass":"P","fcode":"PPL","country":"GB","cc2":"","admin1":"ENG","admin2":"C6","admin3":"00HE065","admin4":"","population":0,"elevation":0,"gtopo30":112,"timezone":"Europe/London","moddate":"2015-07-20T00:00:00.000Z"},{"geonameid":11593316,"name":"Kingsand","asciiname":"Kingsand","alternatenames":"","latitude":"50.3344200","longitude":"-4.2016300","fclass":"P","fcode":"PPL","country":"GB","cc2":"","admin1":"ENG","admin2":"C6","admin3":"00HE081","admin4":"","population":0,"elevation":0,"gtopo30":14,"timezone":"Europe/London","moddate":"2017-06-22T00:00:00.000Z"},{"geonameid":2645066,"name":"Ladock","asciiname":"Ladock","alternatenames":"Ladock","latitude":"50.3202600","longitude":"-4.9614200","fclass":"P","fcode":"PPL","country":"GB","cc2":"","admin1":"ENG","admin2":"C6","admin3":"00HE055","admin4":"","population":0,"elevation":0,"gtopo30":33,"timezone":"Europe/London","moddate":"2011-03-03T00:00:00.000Z"},{"geonameid":10377871,"name":"Lamellion","asciiname":"Lamellion","alternatenames":"","latitude":"50.4465500","longitude":"-4.4727700","fclass":"P","fcode":"PPLX","country":"GB","cc2":"","admin1":"ENG","admin2":"C6","admin3":"00HE074","admin4":"","population":0,"elevation":0,"gtopo30":110,"timezone":"Europe/London","moddate":"2015-07-20T00:00:00.000Z"},{"geonameid":6621658,"name":"Lamorna","asciiname":"Lamorna","alternatenames":"","latitude":"50.0656100","longitude":"-5.5691400","fclass":"P","fcode":"PPL","country":"GB","cc2":"","admin1":"ENG","admin2":"C6","admin3":"00HE136","admin4":"","population":0,"elevation":0,"gtopo30":49,"timezone":"Europe/London","moddate":"2011-03-03T00:00:00.000Z"},{"geonameid":10103971,"name":"Lamorran","asciiname":"Lamorran","alternatenames":"","latitude":"50.2388100","longitude":"-4.9785700","fclass":"P","fcode":"PPL","country":"GB","cc2":"","admin1":"ENG","admin2":"C6","admin3":"00HE174","admin4":"","population":0,"elevation":0,"gtopo30":34,"timezone":"Europe/London","moddate":"2015-02-16T00:00:00.000Z"},{"geonameid":2644967,"name":"Landewednack","asciiname":"Landewednack","alternatenames":"Landewednack","latitude":"49.9696900","longitude":"-5.1971800","fclass":"P","fcode":"PPLA3","country":"GB","cc2":"","admin1":"ENG","admin2":"C6","admin3":"00HE056","admin4":"","population":0,"elevation":0,"gtopo30":74,"timezone":"Europe/London","moddate":"2015-02-18T00:00:00.000Z"},{"geonameid":2644962,"name":"Landrake","asciiname":"Landrake","alternatenames":"","latitude":"50.4226500","longitude":"-4.2902300","fclass":"P","fcode":"PPL","country":"GB","cc2":"","admin1":"ENG","admin2":"C6","admin3":"00HE057","admin4":"","population":1115,"elevation":0,"gtopo30":91,"timezone":"Europe/London","moddate":"2017-06-12T00:00:00.000Z"},{"geonameid":10376345,"name":"Lanescot","asciiname":"Lanescot","alternatenames":"","latitude":"50.3656100","longitude":"-4.7010300","fclass":"P","fcode":"PPL","country":"GB","cc2":"","admin1":"ENG","admin2":"C6","admin3":"00HE203","admin4":"","population":0,"elevation":0,"gtopo30":48,"timezone":"Europe/London","moddate":"2015-07-13T00:00:00.000Z"},{"geonameid":2644889,"name":"Lanivet","asciiname":"Lanivet","alternatenames":"Lanivet","latitude":"50.4435100","longitude":"-4.7644300","fclass":"P","fcode":"PPL","country":"GB","cc2":"","admin1":"ENG","admin2":"C6","admin3":"00HE061","admin4":"","population":989,"elevation":0,"gtopo30":84,"timezone":"Europe/London","moddate":"2017-06-12T00:00:00.000Z"},{"geonameid":2644888,"name":"Lanlivery","asciiname":"Lanlivery","alternatenames":"Lanlivery,Lanlivery Rural","latitude":"50.3989900","longitude":"-4.7030800","fclass":"P","fcode":"PPL","country":"GB","cc2":"","admin1":"ENG","admin2":"C6","admin3":"00HE062","admin4":"","population":0,"elevation":0,"gtopo30":147,"timezone":"Europe/London","moddate":"2011-03-03T00:00:00.000Z"},{"geonameid":2644884,"name":"Lanreath","asciiname":"Lanreath","alternatenames":"Lanreath","latitude":"50.3841400","longitude":"-4.5603700","fclass":"P","fcode":"PPL","country":"GB","cc2":"","admin1":"ENG","admin2":"C6","admin3":"00HE064","admin4":"","population":0,"elevation":0,"gtopo30":120,"timezone":"Europe/London","moddate":"2011-03-03T00:00:00.000Z"},{"geonameid":2644882,"name":"Lansallos","asciiname":"Lansallos","alternatenames":"","latitude":"50.3362600","longitude":"-4.5691100","fclass":"P","fcode":"PPL","country":"GB","cc2":"","admin1":"ENG","admin2":"C6","admin3":"00HE065","admin4":"","population":0,"elevation":0,"gtopo30":119,"timezone":"Europe/London","moddate":"2011-03-03T00:00:00.000Z"},{"geonameid":2644880,"name":"Lanteglos","asciiname":"Lanteglos","alternatenames":"","latitude":"50.6000000","longitude":"-4.7000000","fclass":"P","fcode":"PPL","country":"GB","cc2":"","admin1":"ENG","admin2":"C6","admin3":"00HE016","admin4":"","population":0,"elevation":0,"gtopo30":176,"timezone":"Europe/London","moddate":"2016-06-22T00:00:00.000Z"},{"geonameid":2644881,"name":"Lanteglos","asciiname":"Lanteglos","alternatenames":"","latitude":"50.3474700","longitude":"-4.6156700","fclass":"P","fcode":"PPL","country":"GB","cc2":"","admin1":"ENG","admin2":"C6","admin3":"00HE066","admin4":"","population":0,"elevation":0,"gtopo30":85,"timezone":"Europe/London","moddate":"2011-03-03T00:00:00.000Z"},{"geonameid":2644811,"name":"Launceston","asciiname":"Launceston","alternatenames":"Dunheafod,Dūnhēafod,Lannstefan,Launceston i Cornwall,Lonston,Лонстон","latitude":"50.6369900","longitude":"-4.3600600","fclass":"P","fcode":"PPLA3","country":"GB","cc2":"","admin1":"ENG","admin2":"C6","admin3":"00HE068","admin4":"","population":8910,"elevation":0,"gtopo30":135,"timezone":"Europe/London","moddate":"2017-06-12T00:00:00.000Z"},{"geonameid":2644790,"name":"Lawhitton","asciiname":"Lawhitton","alternatenames":"Lawbitton,Lawhitton","latitude":"50.6176100","longitude":"-4.3259100","fclass":"P","fcode":"PPL","country":"GB","cc2":"","admin1":"ENG","admin2":"C6","admin3":"00HE069","admin4":"","population":0,"elevation":0,"gtopo30":105,"timezone":"Europe/London","moddate":"2011-03-03T00:00:00.000Z"},{"geonameid":2644686,"name":"Leedstown","asciiname":"Leedstown","alternatenames":"","latitude":"50.1605500","longitude":"-5.3550300","fclass":"P","fcode":"PPL","country":"GB","cc2":"","admin1":"ENG","admin2":"C6","admin3":"00HE025","admin4":"","population":267,"elevation":0,"gtopo30":94,"timezone":"Europe/London","moddate":"2017-06-12T00:00:00.000Z"},{"geonameid":2644606,"name":"Lerryn","asciiname":"Lerryn","alternatenames":"Lerrin,Lerryn","latitude":"50.3844900","longitude":"-4.6173700","fclass":"P","fcode":"PPL","country":"GB","cc2":"","admin1":"ENG","admin2":"C6","admin3":"00HE189","admin4":"","population":308,"elevation":0,"gtopo30":4,"timezone":"Europe/London","moddate":"2017-06-12T00:00:00.000Z"},{"geonameid":2644560,"name":"Lewannick","asciiname":"Lewannick","alternatenames":"Lewannick","latitude":"50.6001900","longitude":"-4.4383100","fclass":"P","fcode":"PPL","country":"GB","cc2":"","admin1":"ENG","admin2":"C6","admin3":"00HE071","admin4":"","population":0,"elevation":0,"gtopo30":192,"timezone":"Europe/London","moddate":"2011-03-03T00:00:00.000Z"},{"geonameid":2644541,"name":"Lezant","asciiname":"Lezant","alternatenames":"","latitude":"50.5877100","longitude":"-4.3485700","fclass":"P","fcode":"PPL","country":"GB","cc2":"","admin1":"ENG","admin2":"C6","admin3":"00HE072","admin4":"","population":0,"elevation":0,"gtopo30":93,"timezone":"Europe/London","moddate":"2011-03-03T00:00:00.000Z"},{"geonameid":2644448,"name":"Linkinhorne","asciiname":"Linkinhorne","alternatenames":"Linkinhorne","latitude":"50.5375900","longitude":"-4.3736400","fclass":"P","fcode":"PPL","country":"GB","cc2":"","admin1":"ENG","admin2":"C6","admin3":"00HE073","admin4":"","population":0,"elevation":0,"gtopo30":134,"timezone":"Europe/London","moddate":"2011-03-03T00:00:00.000Z"},{"geonameid":2644409,"name":"Liskeard","asciiname":"Liskeard","alternatenames":"Liskeard,Lyskerrys,lyskard,لیسکارد","latitude":"50.4545000","longitude":"-4.4651700","fclass":"P","fcode":"PPL","country":"GB","cc2":"","admin1":"ENG","admin2":"C6","admin3":"00HE074","admin4":"","population":9237,"elevation":0,"gtopo30":129,"timezone":"Europe/London","moddate":"2017-06-12T00:00:00.000Z"},{"geonameid":2644270,"name":"Little Petherick","asciiname":"Little Petherick","alternatenames":"Little Petherick","latitude":"50.5122800","longitude":"-4.9420300","fclass":"P","fcode":"PPL","country":"GB","cc2":"","admin1":"ENG","admin2":"C6","admin3":"00HE156","admin4":"","population":0,"elevation":0,"gtopo30":42,"timezone":"Europe/London","moddate":"2011-03-03T00:00:00.000Z"},{"geonameid":9538916,"name":"Little Sinns","asciiname":"Little Sinns","alternatenames":"","latitude":"50.2537900","longitude":"-5.2355900","fclass":"P","fcode":"PPL","country":"GB","cc2":"","admin1":"ENG","admin2":"C6","admin3":"00HE118","admin4":"","population":0,"elevation":0,"gtopo30":58,"timezone":"Europe/London","moddate":"2017-07-21T00:00:00.000Z"},{"geonameid":10103991,"name":"Little Treviscoe","asciiname":"Little Treviscoe","alternatenames":"","latitude":"50.3657500","longitude":"-4.8929500","fclass":"P","fcode":"PPL","country":"GB","cc2":"","admin1":"ENG","admin2":"C6","admin3":"00HE182","admin4":"","population":0,"elevation":0,"gtopo30":174,"timezone":"Europe/London","moddate":"2015-02-16T00:00:00.000Z"},{"geonameid":2644202,"name":"Lizard","asciiname":"Lizard","alternatenames":"","latitude":"49.9687500","longitude":"-5.2053300","fclass":"P","fcode":"PPL","country":"GB","cc2":"","admin1":"ENG","admin2":"C6","admin3":"00HE056","admin4":"","population":906,"elevation":0,"gtopo30":71,"timezone":"Europe/London","moddate":"2017-06-12T00:00:00.000Z"},{"geonameid":11593333,"name":"Longrock","asciiname":"Longrock","alternatenames":"","latitude":"50.1307000","longitude":"-5.4985300","fclass":"P","fcode":"PPL","country":"GB","cc2":"","admin1":"ENG","admin2":"C6","admin3":"00HE077","admin4":"","population":0,"elevation":0,"gtopo30":4,"timezone":"Europe/London","moddate":"2017-06-22T00:00:00.000Z"},{"geonameid":3345093,"name":"Looe","asciiname":"Looe","alternatenames":"East Looe,Logh,lw,لو","latitude":"50.3577800","longitude":"-4.4541800","fclass":"P","fcode":"PPL","country":"GB","cc2":"","admin1":"ENG","admin2":"C6","admin3":"00HE075","admin4":"","population":5112,"elevation":0,"gtopo30":40,"timezone":"Europe/London","moddate":"2017-06-12T00:00:00.000Z"},{"geonameid":2643583,"name":"Lostwithiel","asciiname":"Lostwithiel","alternatenames":"Lostwithiel,Lostwydhyel,lastwytyl,lwstwyzyl,لاستویتیل,لوستويزيل","latitude":"50.4078400","longitude":"-4.6702300","fclass":"P","fcode":"PPL","country":"GB","cc2":"","admin1":"ENG","admin2":"C6","admin3":"00HE076","admin4":"","population":2659,"elevation":0,"gtopo30":11,"timezone":"Europe/London","moddate":"2017-06-12T00:00:00.000Z"},{"geonameid":2643536,"name":"Lower Boscaswell","asciiname":"Lower Boscaswell","alternatenames":"Boscaswell,Lower Boscaswell","latitude":"50.1548300","longitude":"-5.6719300","fclass":"P","fcode":"PPL","country":"GB","cc2":"","admin1":"ENG","admin2":"C6","admin3":"00HE161","admin4":"","population":0,"elevation":0,"gtopo30":104,"timezone":"Europe/London","moddate":"2011-03-03T00:00:00.000Z"},{"geonameid":2643427,"name":"Ludgvan","asciiname":"Ludgvan","alternatenames":"Ludgvan","latitude":"50.1445900","longitude":"-5.4947300","fclass":"P","fcode":"PPL","country":"GB","cc2":"","admin1":"ENG","admin2":"C6","admin3":"00HE077","admin4":"","population":0,"elevation":0,"gtopo30":85,"timezone":"Europe/London","moddate":"2011-03-03T00:00:00.000Z"},{"geonameid":2643333,"name":"Luxulian","asciiname":"Luxulian","alternatenames":"Luxulian,Luxulyan","latitude":"50.3902700","longitude":"-4.7441300","fclass":"P","fcode":"PPL","country":"GB","cc2":"","admin1":"ENG","admin2":"C6","admin3":"00HE062","admin4":"","population":388,"elevation":0,"gtopo30":121,"timezone":"Europe/London","moddate":"2017-06-13T00:00:00.000Z"},{"geonameid":2643228,"name":"Madron","asciiname":"Madron","alternatenames":"","latitude":"50.1326600","longitude":"-5.5648400","fclass":"P","fcode":"PPL","country":"GB","cc2":"","admin1":"ENG","admin2":"C6","admin3":"00HE080","admin4":"","population":626,"elevation":0,"gtopo30":119,"timezone":"Europe/London","moddate":"2017-06-12T00:00:00.000Z"},{"geonameid":10103974,"name":"Malpas","asciiname":"Malpas","alternatenames":"","latitude":"50.2463800","longitude":"-5.0252600","fclass":"P","fcode":"PPL","country":"GB","cc2":"","admin1":"ENG","admin2":"C6","admin3":"00HE138","admin4":"","population":0,"elevation":0,"gtopo30":49,"timezone":"Europe/London","moddate":"2015-02-16T00:00:00.000Z"},{"geonameid":2643131,"name":"Manaccan","asciiname":"Manaccan","alternatenames":"Manaccan","latitude":"50.0842900","longitude":"-5.1272800","fclass":"P","fcode":"PPL","country":"GB","cc2":"","admin1":"ENG","admin2":"C6","admin3":"00HE082","admin4":"","population":0,"elevation":0,"gtopo30":60,"timezone":"Europe/London","moddate":"2011-03-03T00:00:00.000Z"},{"geonameid":2643076,"name":"Marazion","asciiname":"Marazion","alternatenames":"Marazion,Marghas Yow,Marghasyow,Parvum Forum,marazywn,مارازیون","latitude":"50.1255600","longitude":"-5.4750500","fclass":"P","fcode":"PPL","country":"GB","cc2":"","admin1":"ENG","admin2":"C6","admin3":"00HE083","admin4":"","population":1294,"elevation":0,"gtopo30":17,"timezone":"Europe/London","moddate":"2017-06-12T00:00:00.000Z"},{"geonameid":2643040,"name":"Marhamchurch","asciiname":"Marhamchurch","alternatenames":"Marhamchurch,Markhamchurch","latitude":"50.8051300","longitude":"-4.5224100","fclass":"P","fcode":"PPL","country":"GB","cc2":"","admin1":"ENG","admin2":"C6","admin3":"00HE084","admin4":"","population":658,"elevation":0,"gtopo30":51,"timezone":"Europe/London","moddate":"2017-06-12T00:00:00.000Z"},{"geonameid":9538919,"name":"Marys Well","asciiname":"Marys Well","alternatenames":"","latitude":"50.2461100","longitude":"-5.2791000","fclass":"P","fcode":"PPL","country":"GB","cc2":"","admin1":"ENG","admin2":"C6","admin3":"00HE050","admin4":"","population":0,"elevation":0,"gtopo30":91,"timezone":"Europe/London","moddate":"2014-09-13T00:00:00.000Z"},{"geonameid":2642893,"name":"Mawgan","asciiname":"Mawgan","alternatenames":"Mawgan,Mawgan in Meneage","latitude":"50.0784900","longitude":"-5.2078500","fclass":"P","fcode":"PPL","country":"GB","cc2":"","admin1":"ENG","admin2":"C6","admin3":"00HE085","admin4":"","population":0,"elevation":0,"gtopo30":57,"timezone":"Europe/London","moddate":"2011-03-03T00:00:00.000Z"},{"geonameid":2642892,"name":"Mawgan Porth","asciiname":"Mawgan Porth","alternatenames":"Mawgan Porth","latitude":"50.4666700","longitude":"-5.0333300","fclass":"P","fcode":"PPL","country":"GB","cc2":"","admin1":"ENG","admin2":"C6","admin3":"00HE086","admin4":"","population":303,"elevation":0,"gtopo30":3,"timezone":"Europe/London","moddate":"2017-06-12T00:00:00.000Z"},{"geonameid":2642891,"name":"Mawnan","asciiname":"Mawnan","alternatenames":"Mawnan","latitude":"50.1074900","longitude":"-5.0956200","fclass":"P","fcode":"PPL","country":"GB","cc2":"","admin1":"ENG","admin2":"C6","admin3":"00HE087","admin4":"","population":0,"elevation":0,"gtopo30":66,"timezone":"Europe/London","moddate":"2011-03-03T00:00:00.000Z"},{"geonameid":10103990,"name":"Meledor","asciiname":"Meledor","alternatenames":"","latitude":"50.3586000","longitude":"-4.9195100","fclass":"P","fcode":"PPL","country":"GB","cc2":"","admin1":"ENG","admin2":"C6","admin3":"00HE182","admin4":"","population":0,"elevation":0,"gtopo30":127,"timezone":"Europe/London","moddate":"2015-02-16T00:00:00.000Z"},{"geonameid":2642749,"name":"Menheniot","asciiname":"Menheniot","alternatenames":"Menheniot","latitude":"50.4400600","longitude":"-4.4119400","fclass":"P","fcode":"PPL","country":"GB","cc2":"","admin1":"ENG","admin2":"C6","admin3":"00HE088","admin4":"","population":782,"elevation":0,"gtopo30":108,"timezone":"Europe/London","moddate":"2017-06-12T00:00:00.000Z"},{"geonameid":2642718,"name":"Merrymeet","asciiname":"Merrymeet","alternatenames":"","latitude":"50.4682200","longitude":"-4.4257500","fclass":"P","fcode":"PPL","country":"GB","cc2":"","admin1":"ENG","admin2":"C6","admin3":"00HE088","admin4":"","population":0,"elevation":0,"gtopo30":140,"timezone":"Europe/London","moddate":"2011-03-03T00:00:00.000Z"},{"geonameid":2642687,"name":"Mevagissey","asciiname":"Mevagissey","alternatenames":"Lannvorek,Mevagissey,mwghysy,موغيسي","latitude":"50.2732400","longitude":"-4.7916600","fclass":"P","fcode":"PPL","country":"GB","cc2":"","admin1":"ENG","admin2":"C6","admin3":"00HE089","admin4":"","population":2117,"elevation":0,"gtopo30":10,"timezone":"Europe/London","moddate":"2017-06-12T00:00:00.000Z"},{"geonameid":2642651,"name":"Michaelstow","asciiname":"Michaelstow","alternatenames":"","latitude":"50.5780600","longitude":"-4.7134200","fclass":"P","fcode":"PPL","country":"GB","cc2":"","admin1":"ENG","admin2":"C6","admin3":"00HE090","admin4":"","population":0,"elevation":0,"gtopo30":153,"timezone":"Europe/London","moddate":"2011-03-03T00:00:00.000Z"},{"geonameid":2642614,"name":"Middlehill","asciiname":"Middlehill","alternatenames":"","latitude":"50.4833300","longitude":"-4.4000000","fclass":"P","fcode":"PPL","country":"GB","cc2":"","admin1":"ENG","admin2":"C6","admin3":"00HE157","admin4":"","population":0,"elevation":0,"gtopo30":130,"timezone":"Europe/London","moddate":"2016-06-22T00:00:00.000Z"},{"geonameid":2642526,"name":"Millbrook","asciiname":"Millbrook","alternatenames":"","latitude":"50.3492500","longitude":"-4.2150600","fclass":"P","fcode":"PPLA3","country":"GB","cc2":"","admin1":"ENG","admin2":"C6","admin3":"00HE091","admin4":"","population":0,"elevation":0,"gtopo30":7,"timezone":"Europe/London","moddate":"2017-06-26T00:00:00.000Z"},{"geonameid":2642411,"name":"Mitchell","asciiname":"Mitchell","alternatenames":"Mitchell","latitude":"50.3516200","longitude":"-5.0095700","fclass":"P","fcode":"PPL","country":"GB","cc2":"","admin1":"ENG","admin2":"C6","admin3":"00HE179","admin4":"","population":0,"elevation":0,"gtopo30":99,"timezone":"Europe/London","moddate":"2011-03-03T00:00:00.000Z"},{"geonameid":2642161,"name":"Morvah","asciiname":"Morvah","alternatenames":"Morvah","latitude":"50.1613900","longitude":"-5.6394000","fclass":"P","fcode":"PPL","country":"GB","cc2":"","admin1":"ENG","admin2":"C6","admin3":"00HE092","admin4":"","population":0,"elevation":0,"gtopo30":119,"timezone":"Europe/London","moddate":"2011-03-03T00:00:00.000Z"},{"geonameid":2642160,"name":"Morval","asciiname":"Morval","alternatenames":"","latitude":"50.3845800","longitude":"-4.4481700","fclass":"P","fcode":"PPL","country":"GB","cc2":"","admin1":"ENG","admin2":"C6","admin3":"00HE093","admin4":"","population":0,"elevation":0,"gtopo30":44,"timezone":"Europe/London","moddate":"2011-03-03T00:00:00.000Z"},{"geonameid":2642152,"name":"Morwenstow","asciiname":"Morwenstow","alternatenames":"Moorwinstow,Morwenstow","latitude":"50.9073700","longitude":"-4.5502400","fclass":"P","fcode":"PPL","country":"GB","cc2":"","admin1":"ENG","admin2":"C6","admin3":"00HE094","admin4":"","population":0,"elevation":0,"gtopo30":137,"timezone":"Europe/London","moddate":"2011-03-03T00:00:00.000Z"},{"geonameid":9538911,"name":"Mount Hawke","asciiname":"Mount Hawke","alternatenames":"","latitude":"50.2822900","longitude":"-5.2085500","fclass":"P","fcode":"PPL","country":"GB","cc2":"","admin1":"ENG","admin2":"C6","admin3":"00HE128","admin4":"","population":1511,"elevation":0,"gtopo30":115,"timezone":"Europe/London","moddate":"2017-06-12T00:00:00.000Z"},{"geonameid":2642084,"name":"Mousehole","asciiname":"Mousehole","alternatenames":"Porthenys,Porthynys,mwshl,موسهل","latitude":"50.0831300","longitude":"-5.5392100","fclass":"P","fcode":"PPL","country":"GB","cc2":"","admin1":"ENG","admin2":"C6","admin3":"00HE107","admin4":"","population":697,"elevation":0,"gtopo30":11,"timezone":"Europe/London","moddate":"2017-06-12T00:00:00.000Z"},{"geonameid":2641976,"name":"Mullion","asciiname":"Mullion","alternatenames":"mwlyn,مولين","latitude":"50.0270600","longitude":"-5.2424800","fclass":"P","fcode":"PPL","country":"GB","cc2":"","admin1":"ENG","admin2":"C6","admin3":"00HE095","admin4":"","population":1955,"elevation":0,"gtopo30":69,"timezone":"Europe/London","moddate":"2017-06-12T00:00:00.000Z"},{"geonameid":2641931,"name":"Mylor Bridge","asciiname":"Mylor Bridge","alternatenames":"Mylor,Mylor Bridge","latitude":"50.1850600","longitude":"-5.0796300","fclass":"P","fcode":"PPL","country":"GB","cc2":"","admin1":"ENG","admin2":"C6","admin3":"00HE096","admin4":"","population":1443,"elevation":0,"gtopo30":9,"timezone":"Europe/London","moddate":"2017-06-12T00:00:00.000Z"},{"geonameid":2641906,"name":"Nancekuke","asciiname":"Nancekuke","alternatenames":"","latitude":"50.2648500","longitude":"-5.2710300","fclass":"P","fcode":"PPL","country":"GB","cc2":"","admin1":"ENG","admin2":"C6","admin3":"00HE114","admin4":"","population":0,"elevation":0,"gtopo30":81,"timezone":"Europe/London","moddate":"2014-09-13T00:00:00.000Z"},{"geonameid":7732702,"name":"Nanpean","asciiname":"Nanpean","alternatenames":"","latitude":"50.3688400","longitude":"-4.8693500","fclass":"P","fcode":"PPL","country":"GB","cc2":"","admin1":"ENG","admin2":"C6","admin3":"00HE182","admin4":"","population":2563,"elevation":0,"gtopo30":180,"timezone":"Europe/London","moddate":"2017-06-12T00:00:00.000Z"},{"geonameid":6324517,"name":"New Polzeath","asciiname":"New Polzeath","alternatenames":"","latitude":"50.5777900","longitude":"-4.9131100","fclass":"P","fcode":"PPL","country":"GB","cc2":"","admin1":"ENG","admin2":"C6","admin3":"00HE176","admin4":"","population":0,"elevation":0,"gtopo30":42,"timezone":"Europe/London","moddate":"2011-03-03T00:00:00.000Z"},{"geonameid":2641621,"name":"Newlyn","asciiname":"Newlyn","alternatenames":"Lulynn,N'julin,Newlyn,nywlyn,Ньюлин,نیولین","latitude":"50.1052000","longitude":"-5.5517600","fclass":"P","fcode":"PPL","country":"GB","cc2":"","admin1":"ENG","admin2":"C6","admin3":"00HE107","admin4":"","population":0,"elevation":0,"gtopo30":30,"timezone":"Europe/London","moddate":"2011-03-03T00:00:00.000Z"},{"geonameid":2641620,"name":"Newlyn East","asciiname":"Newlyn East","alternatenames":"Newlyn,Newlyn East","latitude":"50.3666700","longitude":"-5.0500000","fclass":"P","fcode":"PPL","country":"GB","cc2":"GB","admin1":"ENG","admin2":"C6","admin3":"00HE179","admin4":"","population":0,"elevation":0,"gtopo30":93,"timezone":"Europe/London","moddate":"2016-06-22T00:00:00.000Z"},{"geonameid":2641589,"name":"Newquay","asciiname":"Newquay","alternatenames":"N'juki,NQY,Newquay,Njukij,Tewyn Plustry,Tewynblustri,nyuki,nywky,Ньюки,Нюкий,نیوکی,ニューキー","latitude":"50.4155700","longitude":"-5.0731900","fclass":"P","fcode":"PPLA3","country":"GB","cc2":"","admin1":"ENG","admin2":"C6","admin3":"00HE097","admin4":"","population":20189,"elevation":0,"gtopo30":31,"timezone":"Europe/London","moddate":"2017-06-12T00:00:00.000Z"},{"geonameid":10630496,"name":"No Mans Land Looe","asciiname":"No Mans Land Looe","alternatenames":"","latitude":"50.3823100","longitude":"-4.4274000","fclass":"P","fcode":"PPL","country":"GB","cc2":"","admin1":"ENG","admin2":"C6","admin3":"00HE168","admin4":"","population":0,"elevation":0,"gtopo30":131,"timezone":"Europe/London","moddate":"2015-09-07T00:00:00.000Z"},{"geonameid":9538917,"name":"North Country","asciiname":"North Country","alternatenames":"","latitude":"50.2498400","longitude":"-5.2370000","fclass":"P","fcode":"PPL","country":"GB","cc2":"","admin1":"ENG","admin2":"C6","admin3":"00HE118","admin4":"","population":773,"elevation":0,"gtopo30":74,"timezone":"Europe/London","moddate":"2017-06-12T00:00:00.000Z"},{"geonameid":2641337,"name":"North Hill","asciiname":"North Hill","alternatenames":"","latitude":"50.5500000","longitude":"-4.4333300","fclass":"P","fcode":"PPLA3","country":"GB","cc2":"","admin1":"ENG","admin2":"C6","admin3":"00HE098","admin4":"","population":0,"elevation":0,"gtopo30":123,"timezone":"Europe/London","moddate":"2011-07-31T00:00:00.000Z"},{"geonameid":2641283,"name":"North Petherwin","asciiname":"North Petherwin","alternatenames":"North Petherwin","latitude":"50.6769500","longitude":"-4.4335400","fclass":"P","fcode":"PPL","country":"GB","cc2":"","admin1":"ENG","admin2":"C6","admin3":"00HE099","admin4":"","population":0,"elevation":0,"gtopo30":124,"timezone":"Europe/London","moddate":"2011-03-03T00:00:00.000Z"},{"geonameid":2641246,"name":"North Tamerton","asciiname":"North Tamerton","alternatenames":"","latitude":"50.7499200","longitude":"-4.3940400","fclass":"P","fcode":"PPL","country":"GB","cc2":"","admin1":"ENG","admin2":"C6","admin3":"00HE100","admin4":"","population":0,"elevation":0,"gtopo30":124,"timezone":"Europe/London","moddate":"2011-03-03T00:00:00.000Z"},{"geonameid":10103973,"name":"Old Kea","asciiname":"Old Kea","alternatenames":"","latitude":"50.2366900","longitude":"-5.0260700","fclass":"P","fcode":"PPL","country":"GB","cc2":"","admin1":"ENG","admin2":"C6","admin3":"00HE052","admin4":"","population":0,"elevation":0,"gtopo30":17,"timezone":"Europe/London","moddate":"2015-02-16T00:00:00.000Z"},{"geonameid":2640845,"name":"Otterham","asciiname":"Otterham","alternatenames":"","latitude":"50.6877700","longitude":"-4.5954400","fclass":"P","fcode":"PPL","country":"GB","cc2":"","admin1":"ENG","admin2":"C6","admin3":"00HE101","admin4":"","population":0,"elevation":0,"gtopo30":203,"timezone":"Europe/London","moddate":"2011-03-03T00:00:00.000Z"},{"geonameid":2640685,"name":"Padstow","asciiname":"Padstow","alternatenames":"Lannwedhenek,padstw,پادستو","latitude":"50.5388500","longitude":"-4.9366400","fclass":"P","fcode":"PPLA3","country":"GB","cc2":"","admin1":"ENG","admin2":"C6","admin3":"00HE102","admin4":"","population":2296,"elevation":0,"gtopo30":12,"timezone":"Europe/London","moddate":"2017-06-12T00:00:00.000Z"},{"geonameid":2640623,"name":"Par","asciiname":"Par","alternatenames":"PCW,Par","latitude":"50.3510700","longitude":"-4.7028800","fclass":"P","fcode":"PPL","country":"GB","cc2":"","admin1":"ENG","admin2":"C6","admin3":"00HE133","admin4":"","population":9462,"elevation":0,"gtopo30":3,"timezone":"Europe/London","moddate":"2015-07-13T00:00:00.000Z"},{"geonameid":9538920,"name":"Park Bottom","asciiname":"Park Bottom","alternatenames":"","latitude":"50.2369100","longitude":"-5.2714600","fclass":"P","fcode":"PPL","country":"GB","cc2":"","admin1":"ENG","admin2":"C6","admin3":"00HE050","admin4":"","population":0,"elevation":0,"gtopo30":81,"timezone":"Europe/London","moddate":"2014-09-13T00:00:00.000Z"},{"geonameid":2640563,"name":"Paul","asciiname":"Paul","alternatenames":"Paul,Saint Paul","latitude":"50.0902200","longitude":"-5.5468300","fclass":"P","fcode":"PPL","country":"GB","cc2":"","admin1":"ENG","admin2":"C6","admin3":"00HE107","admin4":"","population":0,"elevation":0,"gtopo30":79,"timezone":"Europe/London","moddate":"2011-03-03T00:00:00.000Z"},{"geonameid":9538918,"name":"Paynters Lane End","asciiname":"Paynters Lane End","alternatenames":"","latitude":"50.2450600","longitude":"-5.2678200","fclass":"P","fcode":"PPL","country":"GB","cc2":"","admin1":"ENG","admin2":"C6","admin3":"00HE050","admin4":"","population":0,"elevation":0,"gtopo30":88,"timezone":"Europe/London","moddate":"2014-09-13T00:00:00.000Z"},{"geonameid":2640508,"name":"Pelynt","asciiname":"Pelynt","alternatenames":"Pelynt","latitude":"50.3658900","longitude":"-4.5227400","fclass":"P","fcode":"PPL","country":"GB","cc2":"","admin1":"ENG","admin2":"C6","admin3":"00HE104","admin4":"","population":763,"elevation":0,"gtopo30":141,"timezone":"Europe/London","moddate":"2017-06-12T00:00:00.000Z"},{"geonameid":12104695,"name":"Penare","asciiname":"Penare","alternatenames":"","latitude":"50.2294900","longitude":"-4.8057400","fclass":"P","fcode":"PPL","country":"GB","cc2":"","admin1":"ENG","admin2":"C6","admin3":"00HE154","admin4":"","population":0,"elevation":0,"gtopo30":39,"timezone":"Europe/London","moddate":"2019-11-22T00:00:00.000Z"},{"geonameid":9883559,"name":"Pendeen","asciiname":"Pendeen","alternatenames":"bndyn,بندين","latitude":"50.1516300","longitude":"-5.6644800","fclass":"P","fcode":"PPL","country":"GB","cc2":"","admin1":"ENG","admin2":"C6","admin3":"00HE161","admin4":"","population":0,"elevation":130,"gtopo30":132,"timezone":"Europe/London","moddate":"2014-12-27T00:00:00.000Z"},{"geonameid":10376347,"name":"Penpillick","asciiname":"Penpillick","alternatenames":"","latitude":"50.3761000","longitude":"-4.7061800","fclass":"P","fcode":"PPL","country":"GB","cc2":"","admin1":"ENG","admin2":"C6","admin3":"00HE062","admin4":"","population":0,"elevation":0,"gtopo30":71,"timezone":"Europe/London","moddate":"2015-07-13T00:00:00.000Z"},{"geonameid":10103977,"name":"Penpool","asciiname":"Penpool","alternatenames":"","latitude":"50.2119500","longitude":"-5.0667100","fclass":"P","fcode":"PPL","country":"GB","cc2":"","admin1":"ENG","admin2":"C6","admin3":"00HE036","admin4":"","population":0,"elevation":0,"gtopo30":10,"timezone":"Europe/London","moddate":"2015-02-16T00:00:00.000Z"},{"geonameid":2640413,"name":"Penryn","asciiname":"Penryn","alternatenames":"Pennrynn,Penrynn,pnryn  kwrnwal,پنرین، کورنوال","latitude":"50.1681200","longitude":"-5.1041600","fclass":"P","fcode":"PPL","country":"GB","cc2":"","admin1":"ENG","admin2":"C6","admin3":"00HE105","admin4":"","population":7326,"elevation":0,"gtopo30":29,"timezone":"Europe/London","moddate":"2011-03-03T00:00:00.000Z"},{"geonameid":3345095,"name":"Pensilva","asciiname":"Pensilva","alternatenames":"","latitude":"50.5030200","longitude":"-4.4149100","fclass":"P","fcode":"PPL","country":"GB","cc2":"","admin1":"ENG","admin2":"C6","admin3":"00HE157","admin4":"","population":1663,"elevation":0,"gtopo30":232,"timezone":"Europe/London","moddate":"2017-06-12T00:00:00.000Z"},{"geonameid":2640408,"name":"Pentewan","asciiname":"Pentewan","alternatenames":"","latitude":"50.2918300","longitude":"-4.7862300","fclass":"P","fcode":"PPL","country":"GB","cc2":"","admin1":"ENG","admin2":"C6","admin3":"00HE106","admin4":"","population":0,"elevation":0,"gtopo30":5,"timezone":"Europe/London","moddate":"2011-03-03T00:00:00.000Z"},{"geonameid":10376365,"name":"Pentire","asciiname":"Pentire","alternatenames":"","latitude":"50.4110300","longitude":"-5.1151200","fclass":"P","fcode":"PPLX","country":"GB","cc2":"","admin1":"ENG","admin2":"C6","admin3":"00HE097","admin4":"","population":0,"elevation":0,"gtopo30":44,"timezone":"Europe/London","moddate":"2015-07-13T00:00:00.000Z"},{"geonameid":2640377,"name":"Penzance","asciiname":"Penzance","alternatenames":"PZE,Pen Sans,Pennsans,Penzance,Penzans,peng zan si,penzansu,Πενζάνς,Пензанс,ပင်န်ဇန့်မြို့,ペンザンス,彭赞斯","latitude":"50.1186100","longitude":"-5.5371500","fclass":"P","fcode":"PPLA3","country":"GB","cc2":"","admin1":"ENG","admin2":"C6","admin3":"00HE107","admin4":"","population":19872,"elevation":0,"gtopo30":32,"timezone":"Europe/London","moddate":"2017-06-12T00:00:00.000Z"},{"geonameid":9409472,"name":"Perranarworthal","asciiname":"Perranarworthal","alternatenames":"Perenoworthal","latitude":"50.2057500","longitude":"-5.1199300","fclass":"P","fcode":"PPLA3","country":"GB","cc2":"","admin1":"ENG","admin2":"C6","admin3":"00HE108","admin4":"","population":0,"elevation":0,"gtopo30":33,"timezone":"Europe/London","moddate":"2014-08-28T00:00:00.000Z"},{"geonameid":2640367,"name":"Perranporth","asciiname":"Perranporth","alternatenames":"Perranport,Porthpyran,brnbrth,Перранпорт,برنبرث","latitude":"50.3437700","longitude":"-5.1555800","fclass":"P","fcode":"PPL","country":"GB","cc2":"","admin1":"ENG","admin2":"C6","admin3":"00HE110","admin4":"","population":3210,"elevation":0,"gtopo30":12,"timezone":"Europe/London","moddate":"2017-06-12T00:00:00.000Z"},{"geonameid":2640366,"name":"Perranuthnoe","asciiname":"Perranuthnoe","alternatenames":"Perranuthnoe","latitude":"50.1146900","longitude":"-5.4449300","fclass":"P","fcode":"PPL","country":"GB","cc2":"","admin1":"ENG","admin2":"C6","admin3":"00HE109","admin4":"","population":0,"elevation":0,"gtopo30":35,"timezone":"Europe/London","moddate":"2011-03-03T00:00:00.000Z"},{"geonameid":2640365,"name":"Perranwell","asciiname":"Perranwell","alternatenames":"","latitude":"50.2133300","longitude":"-5.1205300","fclass":"P","fcode":"PPL","country":"GB","cc2":"","admin1":"ENG","admin2":"C6","admin3":"00HE108","admin4":"","population":1207,"elevation":0,"gtopo30":22,"timezone":"Europe/London","moddate":"2017-06-12T00:00:00.000Z"},{"geonameid":2640364,"name":"Perranzabuloe","asciiname":"Perranzabuloe","alternatenames":"Perranzabuloe","latitude":"50.3260000","longitude":"-5.1331700","fclass":"P","fcode":"PPL","country":"GB","cc2":"","admin1":"ENG","admin2":"C6","admin3":"00HE110","admin4":"","population":0,"elevation":0,"gtopo30":73,"timezone":"Europe/London","moddate":"2011-03-03T00:00:00.000Z"},{"geonameid":2640321,"name":"Phillack","asciiname":"Phillack","alternatenames":"Phillack","latitude":"50.1971700","longitude":"-5.4041400","fclass":"P","fcode":"PPL","country":"GB","cc2":"","admin1":"ENG","admin2":"C6","admin3":"00HE047","admin4":"","population":0,"elevation":0,"gtopo30":22,"timezone":"Europe/London","moddate":"2011-03-03T00:00:00.000Z"},{"geonameid":2640320,"name":"Philleigh","asciiname":"Philleigh","alternatenames":"Philleigh","latitude":"50.2162600","longitude":"-4.9853100","fclass":"P","fcode":"PPL","country":"GB","cc2":"","admin1":"ENG","admin2":"C6","admin3":"00HE111","admin4":"","population":0,"elevation":0,"gtopo30":60,"timezone":"Europe/London","moddate":"2011-03-03T00:00:00.000Z"},{"geonameid":2640291,"name":"Pillaton","asciiname":"Pillaton","alternatenames":"","latitude":"50.4500000","longitude":"-4.3000000","fclass":"P","fcode":"PPLA3","country":"GB","cc2":"","admin1":"ENG","admin2":"C6","admin3":"00HE112","admin4":"","population":0,"elevation":0,"gtopo30":43,"timezone":"Europe/London","moddate":"2011-07-31T00:00:00.000Z"},{"geonameid":10103976,"name":"Point","asciiname":"Point","alternatenames":"","latitude":"50.2096200","longitude":"-5.0712600","fclass":"P","fcode":"PPL","country":"GB","cc2":"","admin1":"ENG","admin2":"C6","admin3":"00HE036","admin4":"","population":0,"elevation":0,"gtopo30":42,"timezone":"Europe/London","moddate":"2015-02-16T00:00:00.000Z"},{"geonameid":2640152,"name":"Polperro","asciiname":"Polperro","alternatenames":"Polperro,Porthpyra,blbryw,Полперро,بلبريو","latitude":"50.3313000","longitude":"-4.5222000","fclass":"P","fcode":"PPL","country":"GB","cc2":"","admin1":"ENG","admin2":"C6","admin3":"00HE065","admin4":"","population":1206,"elevation":0,"gtopo30":38,"timezone":"Europe/London","moddate":"2017-06-12T00:00:00.000Z"},{"geonameid":2640151,"name":"Polruan","asciiname":"Polruan","alternatenames":"","latitude":"50.3268900","longitude":"-4.6314400","fclass":"P","fcode":"PPL","country":"GB","cc2":"","admin1":"ENG","admin2":"C6","admin3":"00HE066","admin4":"","population":614,"elevation":0,"gtopo30":60,"timezone":"Europe/London","moddate":"2017-06-12T00:00:00.000Z"},{"geonameid":7289333,"name":"Polyphant","asciiname":"Polyphant","alternatenames":"","latitude":"50.6120000","longitude":"-4.4581300","fclass":"P","fcode":"PPL","country":"GB","cc2":"","admin1":"ENG","admin2":"C6","admin3":"00HE071","admin4":"","population":0,"elevation":0,"gtopo30":150,"timezone":"Europe/London","moddate":"2016-06-22T00:00:00.000Z"},{"geonameid":6324514,"name":"Polzeath","asciiname":"Polzeath","alternatenames":"","latitude":"50.5695600","longitude":"-4.9175900","fclass":"P","fcode":"PPL","country":"GB","cc2":"","admin1":"ENG","admin2":"C6","admin3":"00HE177","admin4":"","population":1449,"elevation":5,"gtopo30":55,"timezone":"Europe/London","moddate":"2011-03-03T00:00:00.000Z"},{"geonameid":9409475,"name":"Ponsanooth","asciiname":"Ponsanooth","alternatenames":"","latitude":"50.1989100","longitude":"-5.1435800","fclass":"P","fcode":"PPL","country":"GB","cc2":"","admin1":"ENG","admin2":"C6","admin3":"00HE153","admin4":"","population":967,"elevation":0,"gtopo30":28,"timezone":"Europe/London","moddate":"2017-06-12T00:00:00.000Z"},{"geonameid":2640103,"name":"Pool","asciiname":"Pool","alternatenames":"Pool","latitude":"50.2290100","longitude":"-5.2737400","fclass":"P","fcode":"PPL","country":"GB","cc2":"","admin1":"ENG","admin2":"C6","admin3":"00HE020","admin4":"","population":0,"elevation":0,"gtopo30":93,"timezone":"Europe/London","moddate":"2014-09-14T00:00:00.000Z"},{"geonameid":2640089,"name":"Porkellis","asciiname":"Porkellis","alternatenames":"","latitude":"50.1558800","longitude":"-5.2296600","fclass":"P","fcode":"PPL","country":"GB","cc2":"","admin1":"ENG","admin2":"C6","admin3":"00HE209","admin4":"","population":0,"elevation":0,"gtopo30":156,"timezone":"Europe/London","moddate":"2011-03-03T00:00:00.000Z"},{"geonameid":11592792,"name":"Port Gaverne","asciiname":"Port Gaverne","alternatenames":"","latitude":"50.5919800","longitude":"-4.8222700","fclass":"P","fcode":"PPL","country":"GB","cc2":"","admin1":"ENG","admin2":"C6","admin3":"00HE144","admin4":"","population":0,"elevation":0,"gtopo30":30,"timezone":"Europe/London","moddate":"2017-06-19T00:00:00.000Z"},{"geonameid":2640040,"name":"Port Isaac","asciiname":"Port Isaac","alternatenames":"Port Isaac","latitude":"50.5930900","longitude":"-4.8287800","fclass":"P","fcode":"PPL","country":"GB","cc2":"","admin1":"ENG","admin2":"C6","admin3":"00HE144","admin4":"","population":0,"elevation":0,"gtopo30":48,"timezone":"Europe/London","moddate":"2011-03-03T00:00:00.000Z"},{"geonameid":7290168,"name":"Porth","asciiname":"Porth","alternatenames":"","latitude":"50.4231800","longitude":"-5.0565000","fclass":"P","fcode":"PPL","country":"GB","cc2":"","admin1":"ENG","admin2":"C6","admin3":"00HE097","admin4":"","population":0,"elevation":0,"gtopo30":13,"timezone":"Europe/London","moddate":"2015-05-04T00:00:00.000Z"},{"geonameid":2640055,"name":"Porthallow","asciiname":"Porthallow","alternatenames":"Porthallow","latitude":"50.0666700","longitude":"-5.0833300","fclass":"P","fcode":"PPL","country":"GB","cc2":"","admin1":"ENG","admin2":"C6","admin3":"00HE163","admin4":"","population":0,"elevation":0,"gtopo30":39,"timezone":"Europe/London","moddate":"2016-06-22T00:00:00.000Z"},{"geonameid":2640052,"name":"Porthcurno","asciiname":"Porthcurno","alternatenames":"Porthcurno,Porthcurnow,brthkwrnw,pocheukuleuno,برثكورنو,포츠쿠르노","latitude":"50.0486100","longitude":"-5.6577300","fclass":"P","fcode":"PPL","country":"GB","cc2":"","admin1":"ENG","admin2":"C6","admin3":"00HE166","admin4":"","population":0,"elevation":0,"gtopo30":70,"timezone":"Europe/London","moddate":"2011-03-03T00:00:00.000Z"},{"geonameid":2640046,"name":"Porthleven","asciiname":"Porthleven","alternatenames":"Porthleven,pwrtlwn,پورتلون","latitude":"50.0861800","longitude":"-5.3150100","fclass":"P","fcode":"PPL","country":"GB","cc2":"","admin1":"ENG","admin2":"C6","admin3":"00HE113","admin4":"","population":3059,"elevation":0,"gtopo30":12,"timezone":"Europe/London","moddate":"2017-06-12T00:00:00.000Z"},{"geonameid":11821205,"name":"Porthpean","asciiname":"Porthpean","alternatenames":"","latitude":"50.3217800","longitude":"-4.7705100","fclass":"P","fcode":"PPLL","country":"GB","cc2":"","admin1":"ENG","admin2":"C6","admin3":"00HE132","admin4":"","population":0,"elevation":0,"gtopo30":-9999,"timezone":"Europe/London","moddate":"2018-02-26T00:00:00.000Z"},{"geonameid":8714310,"name":"Porthtowan","asciiname":"Porthtowan","alternatenames":"","latitude":"50.2801800","longitude":"-5.2426700","fclass":"P","fcode":"PPL","country":"GB","cc2":"","admin1":"ENG","admin2":"C6","admin3":"00HE128","admin4":"","population":0,"elevation":0,"gtopo30":70,"timezone":"Europe/London","moddate":"2014-09-13T00:00:00.000Z"},{"geonameid":2640029,"name":"Portloe","asciiname":"Portloe","alternatenames":"Porthloe,Porthlooe,Portloe","latitude":"50.2187600","longitude":"-4.8925400","fclass":"P","fcode":"PPL","country":"GB","cc2":"","admin1":"ENG","admin2":"C6","admin3":"00HE204","admin4":"","population":0,"elevation":0,"gtopo30":37,"timezone":"Europe/London","moddate":"2011-03-03T00:00:00.000Z"},{"geonameid":2640026,"name":"Portmellon","asciiname":"Portmellon","alternatenames":"Portmellin,Portmellon","latitude":"50.2624000","longitude":"-4.7859700","fclass":"P","fcode":"PPL","country":"GB","cc2":"","admin1":"ENG","admin2":"C6","admin3":"00HE089","admin4":"","population":0,"elevation":0,"gtopo30":8,"timezone":"Europe/London","moddate":"2011-03-03T00:00:00.000Z"},{"geonameid":2640007,"name":"Portreath","asciiname":"Portreath","alternatenames":"Porthtreth,Portreath,brtryth,برتريث","latitude":"50.2605800","longitude":"-5.2893300","fclass":"P","fcode":"PPL","country":"GB","cc2":"","admin1":"ENG","admin2":"C6","admin3":"00HE114","admin4":"","population":963,"elevation":0,"gtopo30":8,"timezone":"Europe/London","moddate":"2017-06-12T00:00:00.000Z"},{"geonameid":2640044,"name":"Portscatho","asciiname":"Portscatho","alternatenames":"","latitude":"50.1727100","longitude":"-4.9735600","fclass":"P","fcode":"PPL","country":"GB","cc2":"","admin1":"ENG","admin2":"C6","admin3":"00HE040","admin4":"","population":1500,"elevation":0,"gtopo30":-9999,"timezone":"Europe/London","moddate":"2011-03-03T00:00:00.000Z"},{"geonameid":11496487,"name":"Portwrinkle","asciiname":"Portwrinkle","alternatenames":"","latitude":"50.3620000","longitude":"-4.3110000","fclass":"P","fcode":"PPL","country":"GB","cc2":"","admin1":"ENG","admin2":"C6","admin3":"00HE124","admin4":"","population":0,"elevation":0,"gtopo30":17,"timezone":"Europe/London","moddate":"2017-03-22T00:00:00.000Z"},{"geonameid":2639961,"name":"Poughill","asciiname":"Poughill","alternatenames":"","latitude":"50.8429500","longitude":"-4.5272700","fclass":"P","fcode":"PPL","country":"GB","cc2":"","admin1":"ENG","admin2":"C6","admin3":"00HE011","admin4":"","population":712,"elevation":0,"gtopo30":61,"timezone":"Europe/London","moddate":"2017-06-12T00:00:00.000Z"},{"geonameid":2639954,"name":"Poundstock","asciiname":"Poundstock","alternatenames":"Poundstock,Pounstock","latitude":"50.7666700","longitude":"-4.5500000","fclass":"P","fcode":"PPLA3","country":"GB","cc2":"GB","admin1":"ENG","admin2":"C6","admin3":"00HE115","admin4":"","population":0,"elevation":0,"gtopo30":70,"timezone":"Europe/London","moddate":"2011-07-31T00:00:00.000Z"},{"geonameid":2639937,"name":"Praze an Beeble","asciiname":"Praze an Beeble","alternatenames":"Praze an Beeble","latitude":"50.1744300","longitude":"-5.3086800","fclass":"P","fcode":"PPL","country":"GB","cc2":"","admin1":"ENG","admin2":"C6","admin3":"00HE046","admin4":"","population":0,"elevation":0,"gtopo30":104,"timezone":"Europe/London","moddate":"2017-06-26T00:00:00.000Z"},{"geonameid":2639880,"name":"Probus","asciiname":"Probus","alternatenames":"Probus","latitude":"50.2926700","longitude":"-4.9540100","fclass":"P","fcode":"PPL","country":"GB","cc2":"","admin1":"ENG","admin2":"C6","admin3":"00HE116","admin4":"","population":1906,"elevation":0,"gtopo30":73,"timezone":"Europe/London","moddate":"2017-06-12T00:00:00.000Z"},{"geonameid":2639777,"name":"Quethiock","asciiname":"Quethiock","alternatenames":"Quethiock","latitude":"50.4586500","longitude":"-4.3775300","fclass":"P","fcode":"PPL","country":"GB","cc2":"","admin1":"ENG","admin2":"C6","admin3":"00HE117","admin4":"","population":0,"elevation":0,"gtopo30":112,"timezone":"Europe/London","moddate":"2011-03-03T00:00:00.000Z"},{"geonameid":11593371,"name":"Quintrell Downs","asciiname":"Quintrell Downs","alternatenames":"","latitude":"50.4017100","longitude":"-5.0267200","fclass":"P","fcode":"PPL","country":"GB","cc2":"","admin1":"ENG","admin2":"C6","admin3":"00HE022","admin4":"","population":0,"elevation":0,"gtopo30":57,"timezone":"Europe/London","moddate":"2017-06-22T00:00:00.000Z"},{"geonameid":2639524,"name":"Redruth","asciiname":"Redruth","alternatenames":"Redrut,Resrudh,Ryd Ruth,ledeuluseu,rdrwth,Редрът,ردروث,레드루스","latitude":"50.2331500","longitude":"-5.2243400","fclass":"P","fcode":"PPLA3","country":"GB","cc2":"","admin1":"ENG","admin2":"C6","admin3":"00HE118","admin4":"","population":42690,"elevation":0,"gtopo30":135,"timezone":"Europe/London","moddate":"2017-06-12T00:00:00.000Z"},{"geonameid":2639270,"name":"Roche","asciiname":"Roche","alternatenames":"Roche","latitude":"50.4080800","longitude":"-4.8337300","fclass":"P","fcode":"PPLA3","country":"GB","cc2":"","admin1":"ENG","admin2":"C6","admin3":"00HE119","admin4":"","population":2517,"elevation":0,"gtopo30":184,"timezone":"Europe/London","moddate":"2017-06-12T00:00:00.000Z"},{"geonameid":6324516,"name":"Rock","asciiname":"Rock","alternatenames":"","latitude":"50.5497800","longitude":"-4.9046200","fclass":"P","fcode":"PPL","country":"GB","cc2":"","admin1":"ENG","admin2":"C6","admin3":"00HE177","admin4":"","population":1203,"elevation":0,"gtopo30":46,"timezone":"Europe/London","moddate":"2017-06-12T00:00:00.000Z"},{"geonameid":6621635,"name":"Rosudgeon","asciiname":"Rosudgeon","alternatenames":"","latitude":"50.1165500","longitude":"-5.4202900","fclass":"P","fcode":"PPL","country":"GB","cc2":"","admin1":"ENG","admin2":"C6","admin3":"00HE109","admin4":"","population":0,"elevation":0,"gtopo30":85,"timezone":"Europe/London","moddate":"2016-06-22T00:00:00.000Z"},{"geonameid":10103970,"name":"Ruan Laniforne","asciiname":"Ruan Laniforne","alternatenames":"","latitude":"50.2404300","longitude":"-4.9542300","fclass":"P","fcode":"PPL","country":"GB","cc2":"","admin1":"ENG","admin2":"C6","admin3":"00HE120","admin4":"","population":0,"elevation":0,"gtopo30":18,"timezone":"Europe/London","moddate":"2015-02-16T00:00:00.000Z"},{"geonameid":2639007,"name":"Ruan Lanihorne","asciiname":"Ruan Lanihorne","alternatenames":"Ruan Lanihorne","latitude":"50.2407000","longitude":"-4.9531200","fclass":"P","fcode":"PPL","country":"GB","cc2":"","admin1":"ENG","admin2":"C6","admin3":"00HE120","admin4":"","population":0,"elevation":0,"gtopo30":23,"timezone":"Europe/London","moddate":"2015-02-16T00:00:00.000Z"},{"geonameid":2639006,"name":"Ruan Major","asciiname":"Ruan Major","alternatenames":"","latitude":"50.0034300","longitude":"-5.2056100","fclass":"P","fcode":"PPL","country":"GB","cc2":"","admin1":"ENG","admin2":"C6","admin3":"00HE041","admin4":"","population":0,"elevation":0,"gtopo30":78,"timezone":"Europe/London","moddate":"2011-03-03T00:00:00.000Z"},{"geonameid":2639005,"name":"Ruan Minor","asciiname":"Ruan Minor","alternatenames":"","latitude":"49.9933700","longitude":"-5.1821600","fclass":"P","fcode":"PPL","country":"GB","cc2":"","admin1":"ENG","admin2":"C6","admin3":"00HE041","admin4":"","population":558,"elevation":0,"gtopo30":62,"timezone":"Europe/London","moddate":"2017-06-12T00:00:00.000Z"},{"geonameid":2638870,"name":"Saint Agnes","asciiname":"Saint Agnes","alternatenames":"Saint Agnes,St. Agness","latitude":"50.3127800","longitude":"-5.2045600","fclass":"P","fcode":"PPL","country":"GB","cc2":"","admin1":"ENG","admin2":"C6","admin3":"00HE128","admin4":"","population":2820,"elevation":0,"gtopo30":100,"timezone":"Europe/London","moddate":"2014-09-13T00:00:00.000Z"},{"geonameid":2638865,"name":"Saint Allen","asciiname":"Saint Allen","alternatenames":"","latitude":"50.3000000","longitude":"-5.0666700","fclass":"P","fcode":"PPL","country":"GB","cc2":"","admin1":"ENG","admin2":"C6","admin3":"00HE053","admin4":"","population":0,"elevation":0,"gtopo30":44,"timezone":"Europe/London","moddate":"2016-06-22T00:00:00.000Z"},{"geonameid":2638859,"name":"Saint Anthony","asciiname":"Saint Anthony","alternatenames":"","latitude":"50.0833300","longitude":"-5.1000000","fclass":"P","fcode":"PPL","country":"GB","cc2":"","admin1":"ENG","admin2":"C6","admin3":"00HE130","admin4":"","population":0,"elevation":0,"gtopo30":55,"timezone":"Europe/London","moddate":"2016-06-22T00:00:00.000Z"},{"geonameid":2638849,"name":"Saint Blazey","asciiname":"Saint Blazey","alternatenames":"St Blazey","latitude":"50.3633400","longitude":"-4.7189300","fclass":"P","fcode":"PPL","country":"GB","cc2":"","admin1":"ENG","admin2":"C6","admin3":"00HE133","admin4":"","population":0,"elevation":0,"gtopo30":31,"timezone":"Europe/London","moddate":"2017-06-18T00:00:00.000Z"},{"geonameid":2638845,"name":"Saint Breward","asciiname":"Saint Breward","alternatenames":"","latitude":"50.5587800","longitude":"-4.6894700","fclass":"P","fcode":"PPL","country":"GB","cc2":"","admin1":"ENG","admin2":"C6","admin3":"00HE135","admin4":"","population":0,"elevation":0,"gtopo30":187,"timezone":"Europe/London","moddate":"2017-06-26T00:00:00.000Z"},{"geonameid":2638838,"name":"Saint Buryan","asciiname":"Saint Buryan","alternatenames":"Saint Burian,Saint Buryan","latitude":"50.0742100","longitude":"-5.6215600","fclass":"P","fcode":"PPL","country":"GB","cc2":"GB","admin1":"ENG","admin2":"C6","admin3":"00HE136","admin4":"","population":0,"elevation":0,"gtopo30":121,"timezone":"Europe/London","moddate":"2017-06-26T00:00:00.000Z"},{"geonameid":2638832,"name":"Saint Cleer","asciiname":"Saint Cleer","alternatenames":"","latitude":"50.4833300","longitude":"-4.4666700","fclass":"P","fcode":"PPL","country":"GB","cc2":"","admin1":"ENG","admin2":"C6","admin3":"00HE137","admin4":"","population":0,"elevation":0,"gtopo30":212,"timezone":"Europe/London","moddate":"2016-06-22T00:00:00.000Z"},{"geonameid":2638831,"name":"Saint Clement","asciiname":"Saint Clement","alternatenames":"","latitude":"50.2557400","longitude":"-5.0208400","fclass":"P","fcode":"PPL","country":"GB","cc2":"","admin1":"ENG","admin2":"C6","admin3":"00HE138","admin4":"","population":0,"elevation":0,"gtopo30":34,"timezone":"Europe/London","moddate":"2015-02-16T00:00:00.000Z"},{"geonameid":2638829,"name":"Saint Clether","asciiname":"Saint Clether","alternatenames":"","latitude":"50.6333300","longitude":"-4.5333300","fclass":"P","fcode":"PPL","country":"GB","cc2":"","admin1":"ENG","admin2":"C6","admin3":"00HE139","admin4":"","population":0,"elevation":0,"gtopo30":230,"timezone":"Europe/London","moddate":"2016-06-22T00:00:00.000Z"},{"geonameid":2638828,"name":"Saint Columb Major","asciiname":"Saint Columb Major","alternatenames":"Saint Columb,Saint Columb Major,St Columb,St. Columb,Synt Colom Gwartha,Synt Colom Veur","latitude":"50.4316300","longitude":"-4.9433600","fclass":"P","fcode":"PPL","country":"GB","cc2":"","admin1":"ENG","admin2":"C6","admin3":"00HE140","admin4":"","population":3170,"elevation":0,"gtopo30":98,"timezone":"Europe/London","moddate":"2017-06-26T00:00:00.000Z"},{"geonameid":2638827,"name":"Saint Columb Minor","asciiname":"Saint Columb Minor","alternatenames":"Saint Columb Minor,Sen Kolomm Vyghan,St Columb Minor,St. Columb Minor","latitude":"50.4179800","longitude":"-5.0475300","fclass":"P","fcode":"PPL","country":"GB","cc2":"","admin1":"ENG","admin2":"C6","admin3":"00HE097","admin4":"","population":0,"elevation":0,"gtopo30":51,"timezone":"Europe/London","moddate":"2014-09-13T00:00:00.000Z"},{"geonameid":2638817,"name":"Saint Dennis","asciiname":"Saint Dennis","alternatenames":"Saint Denis,Saint Dennis","latitude":"50.3833300","longitude":"-4.8833300","fclass":"P","fcode":"PPL","country":"GB","cc2":"","admin1":"ENG","admin2":"C6","admin3":"00HE142","admin4":"","population":2206,"elevation":0,"gtopo30":168,"timezone":"Europe/London","moddate":"2016-06-22T00:00:00.000Z"},{"geonameid":2638812,"name":"Saint Dominick","asciiname":"Saint Dominick","alternatenames":"","latitude":"50.4833300","longitude":"-4.2666700","fclass":"P","fcode":"PPL","country":"GB","cc2":"","admin1":"ENG","admin2":"C6","admin3":"00HE143","admin4":"","population":0,"elevation":0,"gtopo30":167,"timezone":"Europe/London","moddate":"2016-06-22T00:00:00.000Z"},{"geonameid":2638810,"name":"Saint Endellion","asciiname":"Saint Endellion","alternatenames":"Endellyon,Saint Endellion","latitude":"50.5666700","longitude":"-4.8333300","fclass":"P","fcode":"PPL","country":"GB","cc2":"GB","admin1":"ENG","admin2":"C6","admin3":"00HE144","admin4":"","population":0,"elevation":0,"gtopo30":76,"timezone":"Europe/London","moddate":"2016-06-22T00:00:00.000Z"},{"geonameid":2638808,"name":"Saint Enoder","asciiname":"Saint Enoder","alternatenames":"","latitude":"50.3666700","longitude":"-4.9666700","fclass":"P","fcode":"PPL","country":"GB","cc2":"","admin1":"ENG","admin2":"C6","admin3":"00HE145","admin4":"","population":0,"elevation":0,"gtopo30":99,"timezone":"Europe/London","moddate":"2016-06-22T00:00:00.000Z"},{"geonameid":2638807,"name":"Saint Erme","asciiname":"Saint Erme","alternatenames":"","latitude":"50.3117800","longitude":"-5.0290600","fclass":"P","fcode":"PPL","country":"GB","cc2":"","admin1":"ENG","admin2":"C6","admin3":"00HE146","admin4":"","population":0,"elevation":0,"gtopo30":102,"timezone":"Europe/London","moddate":"2017-06-26T00:00:00.000Z"},{"geonameid":2638806,"name":"Saint Erth","asciiname":"Saint Erth","alternatenames":"Saint Erth","latitude":"50.1666700","longitude":"-5.4333300","fclass":"P","fcode":"PPL","country":"GB","cc2":"","admin1":"ENG","admin2":"C6","admin3":"00HE147","admin4":"","population":0,"elevation":0,"gtopo30":4,"timezone":"Europe/London","moddate":"2016-06-22T00:00:00.000Z"},{"geonameid":2638805,"name":"Saint Ervan","asciiname":"Saint Ervan","alternatenames":"Saint Ervan","latitude":"50.4833300","longitude":"-4.9833300","fclass":"P","fcode":"PPL","country":"GB","cc2":"","admin1":"ENG","admin2":"C6","admin3":"00HE149","admin4":"","population":0,"elevation":0,"gtopo30":77,"timezone":"Europe/London","moddate":"2016-06-22T00:00:00.000Z"},{"geonameid":2638804,"name":"Saint Eval","asciiname":"Saint Eval","alternatenames":"","latitude":"50.4785300","longitude":"-4.9926200","fclass":"P","fcode":"PPL","country":"GB","cc2":"","admin1":"ENG","admin2":"C6","admin3":"00HE086","admin4":"","population":0,"elevation":0,"gtopo30":101,"timezone":"Europe/London","moddate":"2017-06-26T00:00:00.000Z"},{"geonameid":2638803,"name":"Saint Ewe","asciiname":"Saint Ewe","alternatenames":"Saint Ewe","latitude":"50.2666700","longitude":"-4.8333300","fclass":"P","fcode":"PPL","country":"GB","cc2":"","admin1":"ENG","admin2":"C6","admin3":"00HE154","admin4":"","population":0,"elevation":0,"gtopo30":99,"timezone":"Europe/London","moddate":"2016-06-22T00:00:00.000Z"},{"geonameid":2638795,"name":"Saint Gennys","asciiname":"Saint Gennys","alternatenames":"Saint Gennis,Saint Gennys","latitude":"50.7333300","longitude":"-4.6333300","fclass":"P","fcode":"PPL","country":"GB","cc2":"GB","admin1":"ENG","admin2":"C6","admin3":"00HE151","admin4":"","population":0,"elevation":0,"gtopo30":88,"timezone":"Europe/London","moddate":"2016-06-22T00:00:00.000Z"},{"geonameid":2638792,"name":"Saint Germans","asciiname":"Saint Germans","alternatenames":"","latitude":"50.3931600","longitude":"-4.3081700","fclass":"P","fcode":"PPL","country":"GB","cc2":"","admin1":"ENG","admin2":"C6","admin3":"00HE057","admin4":"","population":0,"elevation":0,"gtopo30":27,"timezone":"Europe/London","moddate":"2017-06-26T00:00:00.000Z"},{"geonameid":2638790,"name":"Saint Goran","asciiname":"Saint Goran","alternatenames":"Gorran,Saint Goran,Saint Gorran","latitude":"50.2508300","longitude":"-4.8219700","fclass":"P","fcode":"PPL","country":"GB","cc2":"GB","admin1":"ENG","admin2":"C6","admin3":"00HE154","admin4":"","population":0,"elevation":0,"gtopo30":77,"timezone":"Europe/London","moddate":"2011-11-18T00:00:00.000Z"},{"geonameid":2638783,"name":"Saint Hilary","asciiname":"Saint Hilary","alternatenames":"Saint Hilary","latitude":"50.1166700","longitude":"-5.4166700","fclass":"P","fcode":"PPL","country":"GB","cc2":"","admin1":"ENG","admin2":"C6","admin3":"00HE155","admin4":"","population":0,"elevation":0,"gtopo30":83,"timezone":"Europe/London","moddate":"2016-06-22T00:00:00.000Z"},{"geonameid":2638780,"name":"Saint Issey","asciiname":"Saint Issey","alternatenames":"","latitude":"50.5000000","longitude":"-4.9166700","fclass":"P","fcode":"PPL","country":"GB","cc2":"","admin1":"ENG","admin2":"C6","admin3":"00HE156","admin4":"","population":0,"elevation":0,"gtopo30":74,"timezone":"Europe/London","moddate":"2016-06-22T00:00:00.000Z"},{"geonameid":2638779,"name":"Saint Ive","asciiname":"Saint Ive","alternatenames":"Saint Ive","latitude":"50.4833300","longitude":"-4.3833300","fclass":"P","fcode":"PPL","country":"GB","cc2":"","admin1":"ENG","admin2":"C6","admin3":"00HE157","admin4":"","population":0,"elevation":0,"gtopo30":178,"timezone":"Europe/London","moddate":"2018-07-04T00:00:00.000Z"},{"geonameid":2638766,"name":"Saint Just in Roseland","asciiname":"Saint Just in Roseland","alternatenames":"Saint Just,Saint Just in Roseland","latitude":"50.1833300","longitude":"-5.0166700","fclass":"P","fcode":"PPL","country":"GB","cc2":"GB","admin1":"ENG","admin2":"C6","admin3":"00HE162","admin4":"","population":0,"elevation":0,"gtopo30":2,"timezone":"Europe/London","moddate":"2016-06-22T00:00:00.000Z"},{"geonameid":2638765,"name":"Saint Keverne","asciiname":"Saint Keverne","alternatenames":"","latitude":"50.0496400","longitude":"-5.0895200","fclass":"P","fcode":"PPL","country":"GB","cc2":"","admin1":"ENG","admin2":"C6","admin3":"00HE163","admin4":"","population":0,"elevation":0,"gtopo30":87,"timezone":"Europe/London","moddate":"2017-06-26T00:00:00.000Z"},{"geonameid":2638764,"name":"Saint Kew","asciiname":"Saint Kew","alternatenames":"","latitude":"50.5500000","longitude":"-4.7833300","fclass":"P","fcode":"PPL","country":"GB","cc2":"","admin1":"ENG","admin2":"C6","admin3":"00HE164","admin4":"","population":0,"elevation":0,"gtopo30":54,"timezone":"Europe/London","moddate":"2016-06-22T00:00:00.000Z"},{"geonameid":2638763,"name":"Saint Keyne","asciiname":"Saint Keyne","alternatenames":"","latitude":"50.4166700","longitude":"-4.4666700","fclass":"P","fcode":"PPL","country":"GB","cc2":"","admin1":"ENG","admin2":"C6","admin3":"00HE165","admin4":"","population":0,"elevation":0,"gtopo30":88,"timezone":"Europe/London","moddate":"2016-06-22T00:00:00.000Z"},{"geonameid":2638754,"name":"Saint Levan","asciiname":"Saint Levan","alternatenames":"Saint Levan","latitude":"50.0422600","longitude":"-5.6600700","fclass":"P","fcode":"PPL","country":"GB","cc2":"","admin1":"ENG","admin2":"C6","admin3":"00HE166","admin4":"","population":0,"elevation":0,"gtopo30":59,"timezone":"Europe/London","moddate":"2015-04-10T00:00:00.000Z"},{"geonameid":2638752,"name":"Saint Mabyn","asciiname":"Saint Mabyn","alternatenames":"","latitude":"50.5259700","longitude":"-4.7660700","fclass":"P","fcode":"PPL","country":"GB","cc2":"","admin1":"ENG","admin2":"C6","admin3":"00HE167","admin4":"","population":0,"elevation":0,"gtopo30":102,"timezone":"Europe/London","moddate":"2017-06-26T00:00:00.000Z"},{"geonameid":2638744,"name":"Saint Martin","asciiname":"Saint Martin","alternatenames":"Saint Martin","latitude":"50.3666700","longitude":"-4.4333300","fclass":"P","fcode":"PPL","country":"GB","cc2":"","admin1":"ENG","admin2":"C6","admin3":"00HE168","admin4":"","population":0,"elevation":0,"gtopo30":31,"timezone":"Europe/London","moddate":"2018-07-04T00:00:00.000Z"},{"geonameid":2638741,"name":"Saint Martins Green","asciiname":"Saint Martins Green","alternatenames":"Saint Martin,Saint Martins Green","latitude":"50.0666700","longitude":"-5.1666700","fclass":"P","fcode":"PPL","country":"GB","cc2":"GB","admin1":"ENG","admin2":"C6","admin3":"00HE169","admin4":"","population":0,"elevation":0,"gtopo30":73,"timezone":"Europe/London","moddate":"2016-06-22T00:00:00.000Z"},{"geonameid":2638728,"name":"Saint Mawes","asciiname":"Saint Mawes","alternatenames":"Saint Mawes","latitude":"50.1594400","longitude":"-5.0122200","fclass":"P","fcode":"PPL","country":"GB","cc2":"","admin1":"ENG","admin2":"C6","admin3":"00HE162","admin4":"","population":0,"elevation":0,"gtopo30":9,"timezone":"Europe/London","moddate":"2016-06-22T00:00:00.000Z"},{"geonameid":2638727,"name":"Saint Mawgan","asciiname":"Saint Mawgan","alternatenames":"","latitude":"50.4500000","longitude":"-4.9833300","fclass":"P","fcode":"PPL","country":"GB","cc2":"","admin1":"ENG","admin2":"C6","admin3":"00HE086","admin4":"","population":0,"elevation":0,"gtopo30":87,"timezone":"Europe/London","moddate":"2016-06-22T00:00:00.000Z"},{"geonameid":2638726,"name":"Saint Mellion","asciiname":"Saint Mellion","alternatenames":"","latitude":"50.4666700","longitude":"-4.2666700","fclass":"P","fcode":"PPL","country":"GB","cc2":"","admin1":"ENG","admin2":"C6","admin3":"00HE112","admin4":"","population":0,"elevation":0,"gtopo30":86,"timezone":"Europe/London","moddate":"2016-06-22T00:00:00.000Z"},{"geonameid":2638724,"name":"Saint Merryn","asciiname":"Saint Merryn","alternatenames":"Saint Merryn","latitude":"50.5254600","longitude":"-4.9898200","fclass":"P","fcode":"PPL","country":"GB","cc2":"","admin1":"ENG","admin2":"C6","admin3":"00HE171","admin4":"","population":0,"elevation":0,"gtopo30":50,"timezone":"Europe/London","moddate":"2017-06-26T00:00:00.000Z"},{"geonameid":2638720,"name":"Saint Minver","asciiname":"Saint Minver","alternatenames":"Saint Minver","latitude":"50.5500000","longitude":"-4.8666700","fclass":"P","fcode":"PPL","country":"GB","cc2":"","admin1":"ENG","admin2":"C6","admin3":"00HE176","admin4":"","population":0,"elevation":0,"gtopo30":56,"timezone":"Europe/London","moddate":"2018-07-04T00:00:00.000Z"},{"geonameid":2638718,"name":"Saint Neot","asciiname":"Saint Neot","alternatenames":"","latitude":"50.4811200","longitude":"-4.5591800","fclass":"P","fcode":"PPL","country":"GB","cc2":"","admin1":"ENG","admin2":"C6","admin3":"00HE178","admin4":"","population":0,"elevation":0,"gtopo30":99,"timezone":"Europe/London","moddate":"2017-06-26T00:00:00.000Z"},