{"pageProps":{"locale":"ro","admin2":{"geonameid":662967,"name":"Comuna Vidra","country":"RO","admin1":"43","admin2":"105936","admin3":"","latitude":"44.2810700","longitude":"26.1431000"},"admin1":{"geonameid":865518,"name":"Ilfov","admin1":"43"},"locations":[{"geonameid":683913,"name":"Bragadiru","asciiname":"Bragadiru","alternatenames":"Bragadiru,Bragadirul,Straini-Dobreni,Străini-Dobreni","latitude":"44.2666700","longitude":"26.1666700","fclass":"P","fcode":"PPLX","country":"RO","cc2":"","admin1":"43","admin2":"105936","admin3":"","admin4":"","population":0,"elevation":0,"gtopo30":55,"timezone":"Europe/Bucharest","moddate":"2020-02-12T00:00:00.000Z"},{"geonameid":680277,"name":"Crețești","asciiname":"Cretesti","alternatenames":"Cretesti,Cretestii,Creţestii,Creţeşti","latitude":"44.2823800","longitude":"26.1353000","fclass":"P","fcode":"PPL","country":"RO","cc2":"RO","admin1":"43","admin2":"105936","admin3":"","admin4":"","population":2683,"elevation":0,"gtopo30":60,"timezone":"Europe/Bucharest","moddate":"2013-04-21T00:00:00.000Z"},{"geonameid":667744,"name":"Sbârcea","asciiname":"Sbarcea","alternatenames":"Sbarcea,Sbircea,Sbârcea,Sbîrcea","latitude":"44.2836100","longitude":"26.1333300","fclass":"P","fcode":"PPL","country":"RO","cc2":"","admin1":"43","admin2":"105936","admin3":"","admin4":"","population":0,"elevation":0,"gtopo30":59,"timezone":"Europe/Bucharest","moddate":"2016-02-07T00:00:00.000Z"},{"geonameid":666913,"name":"Sintești","asciiname":"Sintesti","alternatenames":"","latitude":"44.3004600","longitude":"26.1212600","fclass":"P","fcode":"PPL","country":"RO","cc2":"","admin1":"43","admin2":"105936","admin3":"","admin4":"","population":2143,"elevation":0,"gtopo30":65,"timezone":"Europe/Bucharest","moddate":"2013-04-21T00:00:00.000Z"},{"geonameid":662971,"name":"Vidra","asciiname":"Vidra","alternatenames":"","latitude":"44.2605600","longitude":"26.1697200","fclass":"P","fcode":"PPLA2","country":"RO","cc2":"","admin1":"43","admin2":"105936","admin3":"","admin4":"","population":8322,"elevation":0,"gtopo30":53,"timezone":"Europe/Bucharest","moddate":"2012-06-12T00:00:00.000Z"}],"admin3":[],"alternateNames":[{"alternatenameId":8321538,"geonameid":865518,"isoLanguage":"en","alternateName":"Ilfov","isPreferredName":true,"isShortName":true,"isColloquial":false,"isHistoric":false}]},"__N_SSG":true}