{"pageProps":{"locale":"ro","admin2":{"geonameid":679416,"name":"Comuna Dieci","country":"RO","admin1":"02","admin2":"10701","admin3":"","latitude":"46.3207100","longitude":"22.2237300"},"admin1":{"geonameid":686253,"name":"Arad","admin1":"02"},"locations":[{"geonameid":681215,"name":"Cociuba","asciiname":"Cociuba","alternatenames":"Cociuba,Kocsoba,Kocsuba,Koroskocsoba,Köröskocsoba","latitude":"46.3091800","longitude":"22.1844300","fclass":"P","fcode":"PPL","country":"RO","cc2":"","admin1":"02","admin2":"10701","admin3":"","admin4":"","population":174,"elevation":0,"gtopo30":145,"timezone":"Europe/Bucharest","moddate":"2013-04-21T00:00:00.000Z"},{"geonameid":680108,"name":"Crocna","asciiname":"Crocna","alternatenames":"Also Koroknya,Alsó Koroknya,Crocna,Felso-Koroknya,Felső-Koroknya,Koroknya,Krogna,Krokna","latitude":"46.3271400","longitude":"22.2951700","fclass":"P","fcode":"PPL","country":"RO","cc2":"","admin1":"02","admin2":"10701","admin3":"","admin4":"","population":555,"elevation":0,"gtopo30":212,"timezone":"Europe/Bucharest","moddate":"2013-04-21T00:00:00.000Z"},{"geonameid":679417,"name":"Dieci","asciiname":"Dieci","alternatenames":"Deakfalva,Decs,Decse,Deákfalva,Diakfalva,Dieci,Diecs,Diákfalva,Diécs,Décs,Décse","latitude":"46.3166700","longitude":"22.2500000","fclass":"P","fcode":"PPLA2","country":"RO","cc2":"","admin1":"02","admin2":"10701","admin3":"","admin4":"","population":1725,"elevation":0,"gtopo30":175,"timezone":"Europe/Bucharest","moddate":"2012-06-12T00:00:00.000Z"},{"geonameid":668935,"name":"Revetiș","asciiname":"Revetis","alternatenames":"Rekes,Revetis,Revetiş,Rékes","latitude":"46.3133800","longitude":"22.1953200","fclass":"P","fcode":"PPL","country":"RO","cc2":"","admin1":"02","admin2":"10701","admin3":"","admin4":"","population":188,"elevation":0,"gtopo30":149,"timezone":"Europe/Bucharest","moddate":"2013-04-21T00:00:00.000Z"},{"geonameid":668654,"name":"Roșia","asciiname":"Rosia","alternatenames":"Borosrozsa,Borosrózsa,Rosia,Rosia-Sebis,Rossia,Rossina,Roşia-Şebiş,Roșia","latitude":"46.3375700","longitude":"22.1954100","fclass":"P","fcode":"PPL","country":"RO","cc2":"","admin1":"02","admin2":"10701","admin3":"","admin4":"","population":86,"elevation":0,"gtopo30":198,"timezone":"Europe/Bucharest","moddate":"2013-12-01T00:00:00.000Z"}],"admin3":[],"alternateNames":[]},"__N_SSG":true}