{"pageProps":{"locale":"ro","admin2":{"geonameid":681941,"name":"Comuna Cicârlău","country":"RO","admin1":"25","admin2":"107662","admin3":"","latitude":"47.7058200","longitude":"23.3814200"},"admin1":{"geonameid":673887,"name":"Maramureş","admin1":"25"},"locations":[{"geonameid":684814,"name":"Bârgău","asciiname":"Bargau","alternatenames":"Bargau,Birgau,Bârgău,Bîrgău","latitude":"47.6834400","longitude":"23.3997100","fclass":"P","fcode":"PPL","country":"RO","cc2":"RO","admin1":"25","admin2":"107662","admin3":"","admin4":"","population":305,"elevation":0,"gtopo30":149,"timezone":"Europe/Bucharest","moddate":"2013-04-21T00:00:00.000Z"},{"geonameid":681942,"name":"Cicârlău","asciiname":"Cicarlau","alternatenames":"Cicarlau,Cicirlau,Cicîrlău,Cicărlâu","latitude":"47.6915500","longitude":"23.4038000","fclass":"P","fcode":"PPLA2","country":"RO","cc2":"RO","admin1":"25","admin2":"107662","admin3":"","admin4":"","population":1804,"elevation":0,"gtopo30":162,"timezone":"Europe/Bucharest","moddate":"2013-04-21T00:00:00.000Z"},{"geonameid":676336,"name":"Handalu Ilbei","asciiname":"Handalu Ilbei","alternatenames":"Handal,Handalu Ilbei,Ilba Handal","latitude":"47.7355000","longitude":"23.3645100","fclass":"P","fcode":"PPL","country":"RO","cc2":"RO","admin1":"25","admin2":"107662","admin3":"","admin4":"","population":490,"elevation":0,"gtopo30":216,"timezone":"Europe/Bucharest","moddate":"2013-04-21T00:00:00.000Z"},{"geonameid":675684,"name":"Ilba","asciiname":"Ilba","alternatenames":"","latitude":"47.7128000","longitude":"23.3576500","fclass":"P","fcode":"PPL","country":"RO","cc2":"","admin1":"25","admin2":"107662","admin3":"","admin4":"","population":1501,"elevation":0,"gtopo30":150,"timezone":"Europe/Bucharest","moddate":"2013-04-21T00:00:00.000Z"}],"admin3":[],"alternateNames":[]},"__N_SSG":true}