{"pageProps":{"locale":"ro","admin2":{"geonameid":679256,"name":"Comuna Dobreni","country":"RO","admin1":"28","admin2":"122285","admin3":"","latitude":"46.9948200","longitude":"26.4094100"},"admin1":{"geonameid":672460,"name":"Neamţ","admin1":"28"},"locations":[{"geonameid":682623,"name":"Cășăria","asciiname":"Casaria","alternatenames":"","latitude":"46.9901600","longitude":"26.4196800","fclass":"P","fcode":"PPL","country":"RO","cc2":"","admin1":"28","admin2":"122285","admin3":"","admin4":"","population":286,"elevation":0,"gtopo30":452,"timezone":"Europe/Bucharest","moddate":"2013-04-21T00:00:00.000Z"},{"geonameid":679257,"name":"Dobreni","asciiname":"Dobreni","alternatenames":"Dobrein,Dobreni","latitude":"46.9833300","longitude":"26.4166700","fclass":"P","fcode":"PPLA2","country":"RO","cc2":"","admin1":"28","admin2":"122285","admin3":"","admin4":"","population":3641,"elevation":0,"gtopo30":487,"timezone":"Europe/Bucharest","moddate":"2012-06-12T00:00:00.000Z"},{"geonameid":673992,"name":"Malu","asciiname":"Malu","alternatenames":"","latitude":"46.9833300","longitude":"26.4000000","fclass":"P","fcode":"PPL","country":"RO","cc2":"","admin1":"28","admin2":"122285","admin3":"","admin4":"","population":0,"elevation":0,"gtopo30":488,"timezone":"Europe/Bucharest","moddate":"2016-02-07T00:00:00.000Z"},{"geonameid":670730,"name":"Pârâu Dobreni","asciiname":"Parau Dobreni","alternatenames":"Parau Dobreni,Piriu Dobreni,Pârâu Dobreni,Pîrîu Dobreni","latitude":"47.0000000","longitude":"26.4166700","fclass":"P","fcode":"PPL","country":"RO","cc2":"","admin1":"28","admin2":"122285","admin3":"","admin4":"","population":0,"elevation":0,"gtopo30":407,"timezone":"Europe/Bucharest","moddate":"2020-03-08T00:00:00.000Z"},{"geonameid":668047,"name":"Sărata","asciiname":"Sarata","alternatenames":"","latitude":"46.9883800","longitude":"26.3892500","fclass":"P","fcode":"PPL","country":"RO","cc2":"","admin1":"28","admin2":"122285","admin3":"","admin4":"","population":189,"elevation":0,"gtopo30":480,"timezone":"Europe/Bucharest","moddate":"2013-04-21T00:00:00.000Z"},{"geonameid":667813,"name":"Satu Nou","asciiname":"Satu Nou","alternatenames":"","latitude":"47.0000000","longitude":"26.4166700","fclass":"P","fcode":"PPL","country":"RO","cc2":"","admin1":"28","admin2":"122285","admin3":"","admin4":"","population":0,"elevation":0,"gtopo30":407,"timezone":"Europe/Bucharest","moddate":"2016-02-07T00:00:00.000Z"},{"geonameid":665687,"name":"Suseni","asciiname":"Suseni","alternatenames":"","latitude":"46.9833300","longitude":"26.4000000","fclass":"P","fcode":"PPLX","country":"RO","cc2":"","admin1":"28","admin2":"122285","admin3":"","admin4":"","population":0,"elevation":0,"gtopo30":488,"timezone":"Europe/Bucharest","moddate":"2016-02-07T00:00:00.000Z"}],"admin3":[],"alternateNames":[]},"__N_SSG":true}