{"pageProps":{"locale":"en","admin2":{"geonameid":3333123,"name":"Bath and North East Somerset","country":"GB","admin1":"ENG","admin2":"A4","admin3":"","latitude":"51.3333300","longitude":"-2.5000000"},"admin1":{"geonameid":6269131,"name":"England","admin1":"ENG","localeAltName":"England"},"locations":[{"geonameid":2656173,"name":"Bath","asciiname":"Bath","alternatenames":"Aquae Sulis,Ba,Badanceaster,Bat,Bata,Batas,Bath,Baðanceaster,Bāta,Caerfaddon,QQX,ba si,baseu,basu,bath,bati,bʼt,Μπαθ,Бат,Բաթ,באת,باتھ,باتھ، سومرسیٹ,باث,บาธ,ბათი,バース,巴斯,바스","latitude":"51.3751000","longitude":"-2.3617200","fclass":"P","fcode":"PPLA2","country":"GB","cc2":"","admin1":"ENG","admin2":"A4","admin3":"","admin4":"","population":94782,"elevation":0,"gtopo30":96,"timezone":"Europe/London","moddate":"2019-09-05T00:00:00.000Z"},{"geonameid":2656172,"name":"Bathampton","asciiname":"Bathampton","alternatenames":"Bathampton","latitude":"51.3952400","longitude":"-2.3227900","fclass":"P","fcode":"PPL","country":"GB","cc2":"","admin1":"ENG","admin2":"A4","admin3":"00HA001","admin4":"","population":0,"elevation":0,"gtopo30":47,"timezone":"Europe/London","moddate":"2015-02-15T00:00:00.000Z"},{"geonameid":2656171,"name":"Batheaston","asciiname":"Batheaston","alternatenames":"","latitude":"51.4066200","longitude":"-2.3104200","fclass":"P","fcode":"PPL","country":"GB","cc2":"","admin1":"ENG","admin2":"A4","admin3":"00HA002","admin4":"","population":0,"elevation":0,"gtopo30":67,"timezone":"Europe/London","moddate":"2011-03-03T00:00:00.000Z"},{"geonameid":2656170,"name":"Bathford","asciiname":"Bathford","alternatenames":"Bathford","latitude":"51.4002000","longitude":"-2.3016100","fclass":"P","fcode":"PPLA3","country":"GB","cc2":"","admin1":"ENG","admin2":"A4","admin3":"00HA003","admin4":"","population":0,"elevation":0,"gtopo30":64,"timezone":"Europe/London","moddate":"2017-04-27T00:00:00.000Z"},{"geonameid":9884028,"name":"Belluton","asciiname":"Belluton","alternatenames":"","latitude":"51.3758000","longitude":"-2.5656900","fclass":"P","fcode":"PPL","country":"GB","cc2":"","admin1":"ENG","admin2":"A4","admin3":"00HA042","admin4":"","population":0,"elevation":0,"gtopo30":74,"timezone":"Europe/London","moddate":"2014-12-31T00:00:00.000Z"},{"geonameid":3345404,"name":"Bishop Sutton","asciiname":"Bishop Sutton","alternatenames":"Bishop Sutton","latitude":"51.3344400","longitude":"-2.5947200","fclass":"P","fcode":"PPL","country":"GB","cc2":"","admin1":"ENG","admin2":"A4","admin3":"00HA043","admin4":"","population":1193,"elevation":0,"gtopo30":69,"timezone":"Europe/London","moddate":"2017-06-12T00:00:00.000Z"},{"geonameid":2654275,"name":"Burnett","asciiname":"Burnett","alternatenames":"","latitude":"51.3858900","longitude":"-2.4833100","fclass":"P","fcode":"PPL","country":"GB","cc2":"","admin1":"ENG","admin2":"A4","admin3":"00HA013","admin4":"","population":0,"elevation":0,"gtopo30":87,"timezone":"Europe/London","moddate":"2011-03-03T00:00:00.000Z"},{"geonameid":6619695,"name":"Cameley","asciiname":"Cameley","alternatenames":"","latitude":"51.3161600","longitude":"-2.5607900","fclass":"P","fcode":"PPL","country":"GB","cc2":"","admin1":"ENG","admin2":"A4","admin3":"00HA004","admin4":"","population":1286,"elevation":0,"gtopo30":110,"timezone":"Europe/London","moddate":"2011-03-03T00:00:00.000Z"},{"geonameid":2653924,"name":"Camerton","asciiname":"Camerton","alternatenames":"","latitude":"51.3161100","longitude":"-2.4561100","fclass":"P","fcode":"PPLA3","country":"GB","cc2":"","admin1":"ENG","admin2":"A4","admin3":"00HA005","admin4":"","population":0,"elevation":0,"gtopo30":109,"timezone":"Europe/London","moddate":"2011-07-31T00:00:00.000Z"},{"geonameid":9253745,"name":"Charlcombe","asciiname":"Charlcombe","alternatenames":"","latitude":"51.4036200","longitude":"-2.3631300","fclass":"P","fcode":"PPL","country":"GB","cc2":"","admin1":"ENG","admin2":"A4","admin3":"00HA006","admin4":"","population":422,"elevation":0,"gtopo30":102,"timezone":"Europe/London","moddate":"2014-07-24T00:00:00.000Z"},{"geonameid":2653258,"name":"Chelwood","asciiname":"Chelwood","alternatenames":"","latitude":"51.3563500","longitude":"-2.5306700","fclass":"P","fcode":"PPL","country":"GB","cc2":"","admin1":"ENG","admin2":"A4","admin3":"00HA007","admin4":"","population":0,"elevation":0,"gtopo30":70,"timezone":"Europe/London","moddate":"2014-12-31T00:00:00.000Z"},{"geonameid":2653197,"name":"Chew Magna","asciiname":"Chew Magna","alternatenames":"Chew Magna,Great Chew","latitude":"51.3661100","longitude":"-2.6102800","fclass":"P","fcode":"PPLA3","country":"GB","cc2":"GB","admin1":"ENG","admin2":"A4","admin3":"00HA008","admin4":"","population":1149,"elevation":0,"gtopo30":50,"timezone":"Europe/London","moddate":"2017-06-12T00:00:00.000Z"},{"geonameid":2653196,"name":"Chew Stoke","asciiname":"Chew Stoke","alternatenames":"","latitude":"51.3536500","longitude":"-2.6326600","fclass":"P","fcode":"PPL","country":"GB","cc2":"","admin1":"ENG","admin2":"A4","admin3":"00HA009","admin4":"","population":776,"elevation":0,"gtopo30":54,"timezone":"Europe/London","moddate":"2017-06-12T00:00:00.000Z"},{"geonameid":11524159,"name":"Claverton","asciiname":"Claverton","alternatenames":"","latitude":"51.3754500","longitude":"-2.3047700","fclass":"P","fcode":"PPL","country":"GB","cc2":"","admin1":"ENG","admin2":"A4","admin3":"00HA010","admin4":"","population":0,"elevation":0,"gtopo30":68,"timezone":"Europe/London","moddate":"2017-04-27T00:00:00.000Z"},{"geonameid":2652739,"name":"Clutton","asciiname":"Clutton","alternatenames":"","latitude":"51.3294400","longitude":"-2.5430600","fclass":"P","fcode":"PPLA3","country":"GB","cc2":"","admin1":"ENG","admin2":"A4","admin3":"00HA011","admin4":"","population":2739,"elevation":0,"gtopo30":120,"timezone":"Europe/London","moddate":"2011-07-31T00:00:00.000Z"},{"geonameid":2652483,"name":"Compton Dando","asciiname":"Compton Dando","alternatenames":"","latitude":"51.3790900","longitude":"-2.5144500","fclass":"P","fcode":"PPLA3","country":"GB","cc2":"","admin1":"ENG","admin2":"A4","admin3":"00HA013","admin4":"","population":0,"elevation":0,"gtopo30":28,"timezone":"Europe/London","moddate":"2014-12-31T00:00:00.000Z"},{"geonameid":2652481,"name":"Compton Martin","asciiname":"Compton Martin","alternatenames":"","latitude":"51.3105600","longitude":"-2.6552800","fclass":"P","fcode":"PPLA3","country":"GB","cc2":"","admin1":"ENG","admin2":"A4","admin3":"00HA014","admin4":"","population":508,"elevation":0,"gtopo30":100,"timezone":"Europe/London","moddate":"2017-06-12T00:00:00.000Z"},{"geonameid":2652313,"name":"Corston","asciiname":"Corston","alternatenames":"","latitude":"51.3850000","longitude":"-2.4402800","fclass":"P","fcode":"PPLA3","country":"GB","cc2":"","admin1":"ENG","admin2":"A4","admin3":"00HA015","admin4":"","population":494,"elevation":0,"gtopo30":35,"timezone":"Europe/London","moddate":"2017-06-12T00:00:00.000Z"},{"geonameid":2650422,"name":"East Harptree","asciiname":"East Harptree","alternatenames":"","latitude":"51.3011100","longitude":"-2.6216700","fclass":"P","fcode":"PPLA3","country":"GB","cc2":"","admin1":"ENG","admin2":"A4","admin3":"00HA017","admin4":"","population":644,"elevation":0,"gtopo30":107,"timezone":"Europe/London","moddate":"2017-06-12T00:00:00.000Z"},{"geonameid":2649674,"name":"Farmborough","asciiname":"Farmborough","alternatenames":"Farmboro,Farmborough","latitude":"51.3439000","longitude":"-2.4877800","fclass":"P","fcode":"PPL","country":"GB","cc2":"","admin1":"ENG","admin2":"A4","admin3":"00HA019","admin4":"","population":847,"elevation":0,"gtopo30":116,"timezone":"Europe/London","moddate":"2017-06-12T00:00:00.000Z"},{"geonameid":2649644,"name":"Farrington Gurney","asciiname":"Farrington Gurney","alternatenames":"","latitude":"51.2977400","longitude":"-2.5291300","fclass":"P","fcode":"PPL","country":"GB","cc2":"","admin1":"ENG","admin2":"A4","admin3":"00HA020","admin4":"","population":901,"elevation":0,"gtopo30":123,"timezone":"Europe/London","moddate":"2017-06-12T00:00:00.000Z"},{"geonameid":2649070,"name":"Freshford","asciiname":"Freshford","alternatenames":"","latitude":"51.3391700","longitude":"-2.3030600","fclass":"P","fcode":"PPLA3","country":"GB","cc2":"","admin1":"ENG","admin2":"A4","admin3":"00HA021","admin4":"","population":0,"elevation":0,"gtopo30":49,"timezone":"Europe/London","moddate":"2011-07-31T00:00:00.000Z"},{"geonameid":2647623,"name":"Hallatrow","asciiname":"Hallatrow","alternatenames":"Hallatrow","latitude":"51.3125000","longitude":"-2.5205600","fclass":"P","fcode":"PPL","country":"GB","cc2":"","admin1":"ENG","admin2":"A4","admin3":"00HA022","admin4":"","population":465,"elevation":0,"gtopo30":90,"timezone":"Europe/London","moddate":"2018-07-04T00:00:00.000Z"},{"geonameid":2646846,"name":"Hinton Charterhouse","asciiname":"Hinton Charterhouse","alternatenames":"","latitude":"51.3237700","longitude":"-2.3284100","fclass":"P","fcode":"PPLA3","country":"GB","cc2":"","admin1":"ENG","admin2":"A4","admin3":"00HA024","admin4":"","population":0,"elevation":0,"gtopo30":140,"timezone":"Europe/London","moddate":"2016-03-08T00:00:00.000Z"},{"geonameid":9884025,"name":"Huntstrete","asciiname":"Huntstrete","alternatenames":"","latitude":"51.3618400","longitude":"-2.5128200","fclass":"P","fcode":"PPL","country":"GB","cc2":"","admin1":"ENG","admin2":"A4","admin3":"00HA013","admin4":"","population":0,"elevation":0,"gtopo30":92,"timezone":"Europe/London","moddate":"2014-12-31T00:00:00.000Z"},{"geonameid":2645847,"name":"Kelston","asciiname":"Kelston","alternatenames":"","latitude":"51.4029000","longitude":"-2.4321600","fclass":"P","fcode":"PPL","country":"GB","cc2":"","admin1":"ENG","admin2":"A4","admin3":"00HA025","admin4":"","population":0,"elevation":0,"gtopo30":69,"timezone":"Europe/London","moddate":"2011-03-03T00:00:00.000Z"},{"geonameid":2645733,"name":"Keynsham","asciiname":"Keynsham","alternatenames":"Keynsham,kynsham,کینشام","latitude":"51.4138700","longitude":"-2.4978000","fclass":"P","fcode":"PPL","country":"GB","cc2":"","admin1":"ENG","admin2":"A4","admin3":"00HA026","admin4":"","population":15641,"elevation":0,"gtopo30":25,"timezone":"Europe/London","moddate":"2017-06-12T00:00:00.000Z"},{"geonameid":11887255,"name":"Lansdown","asciiname":"Lansdown","alternatenames":"","latitude":"51.4164000","longitude":"-2.3954500","fclass":"P","fcode":"PPL","country":"GB","cc2":"","admin1":"ENG","admin2":"A4","admin3":"00HA006","admin4":"","population":0,"elevation":0,"gtopo30":145,"timezone":"Europe/London","moddate":"2018-06-21T00:00:00.000Z"},{"geonameid":10103806,"name":"Larkhall","asciiname":"Larkhall","alternatenames":"","latitude":"51.3997900","longitude":"-2.3488900","fclass":"P","fcode":"PPLX","country":"GB","cc2":"","admin1":"ENG","admin2":"A4","admin3":"","admin4":"","population":0,"elevation":0,"gtopo30":45,"timezone":"Europe/London","moddate":"2019-09-30T00:00:00.000Z"},{"geonameid":2643015,"name":"Marksbury","asciiname":"Marksbury","alternatenames":"","latitude":"51.3596200","longitude":"-2.4802500","fclass":"P","fcode":"PPL","country":"GB","cc2":"","admin1":"ENG","admin2":"A4","admin3":"00HA027","admin4":"","population":0,"elevation":0,"gtopo30":118,"timezone":"Europe/London","moddate":"2011-03-03T00:00:00.000Z"},{"geonameid":2642570,"name":"Midford","asciiname":"Midford","alternatenames":"","latitude":"51.3458500","longitude":"-2.3464600","fclass":"P","fcode":"PPL","country":"GB","cc2":"","admin1":"ENG","admin2":"A4","admin3":"00HA041","admin4":"","population":0,"elevation":0,"gtopo30":71,"timezone":"Europe/London","moddate":"2011-03-03T00:00:00.000Z"},{"geonameid":2642557,"name":"Midsomer Norton","asciiname":"Midsomer Norton","alternatenames":"mydswmr nwrtwn,میدسومر نورتون","latitude":"51.2856700","longitude":"-2.4859100","fclass":"P","fcode":"PPL","country":"GB","cc2":"","admin1":"ENG","admin2":"A4","admin3":"00HA033","admin4":"","population":10458,"elevation":0,"gtopo30":95,"timezone":"Europe/London","moddate":"2012-03-29T00:00:00.000Z"},{"geonameid":8658769,"name":"Newton St Loe","asciiname":"Newton St Loe","alternatenames":"","latitude":"51.3829800","longitude":"-2.4263900","fclass":"P","fcode":"PPL","country":"GB","cc2":"","admin1":"ENG","admin2":"A4","admin3":"00HA030","admin4":"","population":0,"elevation":0,"gtopo30":41,"timezone":"Europe/London","moddate":"2013-12-22T00:00:00.000Z"},{"geonameid":9884031,"name":"North Wick","asciiname":"North Wick","alternatenames":"","latitude":"51.3859500","longitude":"-2.6018300","fclass":"P","fcode":"PPLX","country":"GB","cc2":"","admin1":"ENG","admin2":"A4","admin3":"00HA008","admin4":"","population":0,"elevation":0,"gtopo30":105,"timezone":"Europe/London","moddate":"2014-12-31T00:00:00.000Z"},{"geonameid":2641221,"name":"North Widcombe","asciiname":"North Widcombe","alternatenames":"","latitude":"51.3233300","longitude":"-2.6102800","fclass":"P","fcode":"PPL","country":"GB","cc2":"","admin1":"ENG","admin2":"A4","admin3":"00HA048","admin4":"","population":0,"elevation":0,"gtopo30":68,"timezone":"Europe/London","moddate":"2016-06-22T00:00:00.000Z"},{"geonameid":9884030,"name":"Norton Hawkfield","asciiname":"Norton Hawkfield","alternatenames":"","latitude":"51.3823600","longitude":"-2.5917900","fclass":"P","fcode":"PPL","country":"GB","cc2":"","admin1":"ENG","admin2":"A4","admin3":"00HA032","admin4":"","population":0,"elevation":0,"gtopo30":67,"timezone":"Europe/London","moddate":"2014-12-31T00:00:00.000Z"},{"geonameid":9884029,"name":"Norton Malreward","asciiname":"Norton Malreward","alternatenames":"","latitude":"51.3879100","longitude":"-2.5740600","fclass":"P","fcode":"PPL","country":"GB","cc2":"","admin1":"ENG","admin2":"A4","admin3":"00HA032","admin4":"","population":0,"elevation":0,"gtopo30":130,"timezone":"Europe/London","moddate":"2014-12-31T00:00:00.000Z"},{"geonameid":2640559,"name":"Paulton","asciiname":"Paulton","alternatenames":"","latitude":"51.3047200","longitude":"-2.5002800","fclass":"P","fcode":"PPLA3","country":"GB","cc2":"","admin1":"ENG","admin2":"A4","admin3":"00HA034","admin4":"","population":4873,"elevation":0,"gtopo30":124,"timezone":"Europe/London","moddate":"2011-07-31T00:00:00.000Z"},{"geonameid":3345396,"name":"Peasedown Saint John","asciiname":"Peasedown Saint John","alternatenames":"","latitude":"51.3166700","longitude":"-2.4241700","fclass":"P","fcode":"PPL","country":"GB","cc2":"","admin1":"ENG","admin2":"A4","admin3":"00HA035","admin4":"","population":6263,"elevation":0,"gtopo30":165,"timezone":"Europe/London","moddate":"2016-06-22T00:00:00.000Z"},{"geonameid":2640410,"name":"Pensford","asciiname":"Pensford","alternatenames":"Pensford","latitude":"51.3711100","longitude":"-2.5472200","fclass":"P","fcode":"PPL","country":"GB","cc2":"","admin1":"ENG","admin2":"A4","admin3":"00HA037","admin4":"","population":870,"elevation":0,"gtopo30":45,"timezone":"Europe/London","moddate":"2017-06-12T00:00:00.000Z"},{"geonameid":2639883,"name":"Priston","asciiname":"Priston","alternatenames":"","latitude":"51.3430600","longitude":"-2.4391700","fclass":"P","fcode":"PPLA3","country":"GB","cc2":"","admin1":"ENG","admin2":"A4","admin3":"00HA036","admin4":"","population":232,"elevation":0,"gtopo30":86,"timezone":"Europe/London","moddate":"2017-06-12T00:00:00.000Z"},{"geonameid":2639871,"name":"Publow","asciiname":"Publow","alternatenames":"","latitude":"51.3787700","longitude":"-2.5435100","fclass":"P","fcode":"PPLA3","country":"GB","cc2":"","admin1":"ENG","admin2":"A4","admin3":"00HA037","admin4":"","population":0,"elevation":0,"gtopo30":49,"timezone":"Europe/London","moddate":"2014-12-31T00:00:00.000Z"},{"geonameid":9884023,"name":"Queen Charlton","asciiname":"Queen Charlton","alternatenames":"","latitude":"51.4017200","longitude":"-2.5284000","fclass":"P","fcode":"PPL","country":"GB","cc2":"","admin1":"ENG","admin2":"A4","admin3":"00HA013","admin4":"","population":0,"elevation":0,"gtopo30":75,"timezone":"Europe/London","moddate":"2014-12-31T00:00:00.000Z"},{"geonameid":2639715,"name":"Radstock","asciiname":"Radstock","alternatenames":"Radstok,radstwk,Радсток,رادستوک","latitude":"51.2886200","longitude":"-2.4600300","fclass":"P","fcode":"PPL","country":"GB","cc2":"","admin1":"ENG","admin2":"A4","admin3":"00HA033","admin4":"","population":5275,"elevation":0,"gtopo30":110,"timezone":"Europe/London","moddate":"2012-03-29T00:00:00.000Z"},{"geonameid":2638639,"name":"Saltford","asciiname":"Saltford","alternatenames":"","latitude":"51.4013900","longitude":"-2.4594400","fclass":"P","fcode":"PPLA3","country":"GB","cc2":"","admin1":"ENG","admin2":"A4","admin3":"00HA039","admin4":"","population":4073,"elevation":0,"gtopo30":44,"timezone":"Europe/London","moddate":"2017-06-12T00:00:00.000Z"},{"geonameid":2637281,"name":"South Widcombe","asciiname":"South Widcombe","alternatenames":"","latitude":"51.3075000","longitude":"-2.6025000","fclass":"P","fcode":"PPL","country":"GB","cc2":"","admin1":"ENG","admin2":"A4","admin3":"00HA023","admin4":"","population":0,"elevation":0,"gtopo30":76,"timezone":"Europe/London","moddate":"2016-06-22T00:00:00.000Z"},{"geonameid":9884026,"name":"Stanton Drew","asciiname":"Stanton Drew","alternatenames":"","latitude":"51.3674900","longitude":"-2.5864600","fclass":"P","fcode":"PPLA3","country":"GB","cc2":"","admin1":"ENG","admin2":"A4","admin3":"00HA042","admin4":"","population":0,"elevation":0,"gtopo30":38,"timezone":"Europe/London","moddate":"2014-12-31T00:00:00.000Z"},{"geonameid":8181793,"name":"Stanton Wick","asciiname":"Stanton Wick","alternatenames":"","latitude":"51.3554900","longitude":"-2.5607200","fclass":"P","fcode":"PPL","country":"GB","cc2":"","admin1":"ENG","admin2":"A4","admin3":"00HA042","admin4":"","population":0,"elevation":0,"gtopo30":89,"timezone":"Europe/London","moddate":"2014-12-31T00:00:00.000Z"},{"geonameid":2636751,"name":"Stowey","asciiname":"Stowey","alternatenames":"","latitude":"51.3366400","longitude":"-2.5793600","fclass":"P","fcode":"PPL","country":"GB","cc2":"","admin1":"ENG","admin2":"A4","admin3":"00HA043","admin4":"","population":0,"elevation":0,"gtopo30":96,"timezone":"Europe/London","moddate":"2011-03-03T00:00:00.000Z"},{"geonameid":3345398,"name":"Temple Cloud","asciiname":"Temple Cloud","alternatenames":"","latitude":"51.3200700","longitude":"-2.5419700","fclass":"P","fcode":"PPL","country":"GB","cc2":"","admin1":"ENG","admin2":"A4","admin3":"00HA004","admin4":"","population":0,"elevation":0,"gtopo30":129,"timezone":"Europe/London","moddate":"2011-03-03T00:00:00.000Z"},{"geonameid":2635801,"name":"Timsbury","asciiname":"Timsbury","alternatenames":"","latitude":"51.3244400","longitude":"-2.4791700","fclass":"P","fcode":"PPLA3","country":"GB","cc2":"","admin1":"ENG","admin2":"A4","admin3":"00HA045","admin4":"","population":2504,"elevation":0,"gtopo30":141,"timezone":"Europe/London","moddate":"2017-06-12T00:00:00.000Z"},{"geonameid":2635310,"name":"Twerton","asciiname":"Twerton","alternatenames":"","latitude":"51.3791300","longitude":"-2.3931500","fclass":"P","fcode":"PPLX","country":"GB","cc2":"","admin1":"ENG","admin2":"A4","admin3":"00HA018","admin4":"","population":0,"elevation":0,"gtopo30":27,"timezone":"Europe/London","moddate":"2011-03-03T00:00:00.000Z"},{"geonameid":2635245,"name":"Ubley","asciiname":"Ubley","alternatenames":"","latitude":"51.3214100","longitude":"-2.6780000","fclass":"P","fcode":"PPL","country":"GB","cc2":"","admin1":"ENG","admin2":"A4","admin3":"00HA046","admin4":"","population":331,"elevation":0,"gtopo30":61,"timezone":"Europe/London","moddate":"2017-06-12T00:00:00.000Z"},{"geonameid":2636457,"name":"Upper Swainswick","asciiname":"Upper Swainswick","alternatenames":"Swainswick,Upper Swainswick","latitude":"51.4139300","longitude":"-2.3509600","fclass":"P","fcode":"PPL","country":"GB","cc2":"","admin1":"ENG","admin2":"A4","admin3":"00HA044","admin4":"","population":0,"elevation":0,"gtopo30":84,"timezone":"Europe/London","moddate":"2011-03-03T00:00:00.000Z"},{"geonameid":2634571,"name":"Wellow","asciiname":"Wellow","alternatenames":"","latitude":"51.3244400","longitude":"-2.3741700","fclass":"P","fcode":"PPLA3","country":"GB","cc2":"","admin1":"ENG","admin2":"A4","admin3":"00HA047","admin4":"","population":529,"elevation":0,"gtopo30":84,"timezone":"Europe/London","moddate":"2017-06-12T00:00:00.000Z"},{"geonameid":2634398,"name":"West Harptree","asciiname":"West Harptree","alternatenames":"","latitude":"51.3091000","longitude":"-2.6317500","fclass":"P","fcode":"PPL","country":"GB","cc2":"","admin1":"ENG","admin2":"A4","admin3":"00HA048","admin4":"","population":0,"elevation":0,"gtopo30":85,"timezone":"Europe/London","moddate":"2011-03-03T00:00:00.000Z"},{"geonameid":2634129,"name":"Whitchurch","asciiname":"Whitchurch","alternatenames":"","latitude":"51.4060600","longitude":"-2.5626500","fclass":"P","fcode":"PPLA3","country":"GB","cc2":"","admin1":"ENG","admin2":"A4","admin3":"00HA049","admin4":"","population":0,"elevation":0,"gtopo30":77,"timezone":"Europe/London","moddate":"2014-12-31T00:00:00.000Z"},{"geonameid":9884024,"name":"Woollard","asciiname":"Woollard","alternatenames":"","latitude":"51.3791500","longitude":"-2.5352700","fclass":"P","fcode":"PPL","country":"GB","cc2":"","admin1":"ENG","admin2":"A4","admin3":"00HA037","admin4":"","population":0,"elevation":0,"gtopo30":51,"timezone":"Europe/London","moddate":"2016-03-02T00:00:00.000Z"},{"geonameid":6693663,"name":"Writhlington","asciiname":"Writhlington","alternatenames":"","latitude":"51.2913400","longitude":"-2.4280600","fclass":"P","fcode":"PPL","country":"GB","cc2":"","admin1":"ENG","admin2":"A4","admin3":"00HA033","admin4":"","population":0,"elevation":0,"gtopo30":128,"timezone":"Europe/London","moddate":"2016-06-22T00:00:00.000Z"}],"admin3":[{"geonameid":7296167,"name":"Bathampton","admin3":"00HA001"},{"geonameid":7296075,"name":"Batheaston","admin3":"00HA002"},{"geonameid":7298312,"name":"Bathford","admin3":"00HA003"},{"geonameid":7296348,"name":"Cameley","admin3":"00HA004"},{"geonameid":7296349,"name":"Camerton","admin3":"00HA005"},{"geonameid":7296350,"name":"Charlcombe","admin3":"00HA006"},{"geonameid":7290772,"name":"Chelwood","admin3":"00HA007"},{"geonameid":7296159,"name":"Chew Magna","admin3":"00HA008"},{"geonameid":7296351,"name":"Chew Stoke","admin3":"00HA009"},{"geonameid":7296160,"name":"Claverton","admin3":"00HA010"},{"geonameid":7296161,"name":"Clutton","admin3":"00HA011"},{"geonameid":7290724,"name":"Combe Hay","admin3":"00HA012"},{"geonameid":7296352,"name":"Compton Dando","admin3":"00HA013"},{"geonameid":7298313,"name":"Compton Martin","admin3":"00HA014"},{"geonameid":7296162,"name":"Corston","admin3":"00HA015"},{"geonameid":7296552,"name":"Dunkerton","admin3":"00HA016"},{"geonameid":7296516,"name":"East Harptree","admin3":"00HA017"},{"geonameid":7298314,"name":"Englishcombe","admin3":"00HA018"},{"geonameid":7296164,"name":"Farmborough","admin3":"00HA019"},{"geonameid":7296165,"name":"Farrington Gurney","admin3":"00HA020"},{"geonameid":7296166,"name":"Freshford","admin3":"00HA021"},{"geonameid":7296517,"name":"High Littleton","admin3":"00HA022"},{"geonameid":7298315,"name":"Hinton Blewett","admin3":"00HA023"},{"geonameid":7296168,"name":"Hinton Charterhouse","admin3":"00HA024"},{"geonameid":7296553,"name":"Kelston","admin3":"00HA025"},{"geonameid":7296076,"name":"Keynsham","admin3":"00HA026"},{"geonameid":7296077,"name":"Marksbury","admin3":"00HA027"},{"geonameid":7296079,"name":"Monkton Combe","admin3":"00HA028"},{"geonameid":7298316,"name":"Nempnett Thrubwell","admin3":"00HA029"},{"geonameid":7296080,"name":"Newton St. Loe","admin3":"00HA030"},{"geonameid":7296554,"name":"North Stoke","admin3":"00HA031"},{"geonameid":7296081,"name":"Norton Malreward","admin3":"00HA032"},{"geonameid":7296169,"name":"Norton-Radstock","admin3":"00HA033"},{"geonameid":7296170,"name":"Paulton","admin3":"00HA034"},{"geonameid":7298317,"name":"Peasedown St. John","admin3":"00HA035"},{"geonameid":7296082,"name":"Priston","admin3":"00HA036"},{"geonameid":7298318,"name":"Publow","admin3":"00HA037"},{"geonameid":7296555,"name":"Saltford","admin3":"00HA039"},{"geonameid":7296171,"name":"Shoscombe","admin3":"00HA040"},{"geonameid":7296556,"name":"Southstoke","admin3":"00HA041"},{"geonameid":7298319,"name":"St. Catherine","admin3":"00HA038"},{"geonameid":7296083,"name":"Stanton Drew","admin3":"00HA042"},{"geonameid":7296557,"name":"Stowey-Sutton","admin3":"00HA043"},{"geonameid":7298320,"name":"Swainswick","admin3":"00HA044"},{"geonameid":7296172,"name":"Timsbury","admin3":"00HA045"},{"geonameid":7296084,"name":"Ubley","admin3":"00HA046"},{"geonameid":7296558,"name":"Wellow","admin3":"00HA047"},{"geonameid":7296173,"name":"West Harptree","admin3":"00HA048"},{"geonameid":7296086,"name":"Whitchurch","admin3":"00HA049"}],"alternateNames":[{"alternatenameId":1626647,"geonameid":6269131,"isoLanguage":"en","alternateName":"England","isPreferredName":true,"isShortName":true,"isColloquial":false,"isHistoric":false}]},"__N_SSG":true}