{"pageProps":{"locale":"ro","admin2":{"geonameid":681033,"name":"Comuna Comana","country":"RO","admin1":"42","admin2":"102106","admin3":"","latitude":"44.1796500","longitude":"26.1490500"},"admin1":{"geonameid":677104,"name":"Giurgiu","admin1":"42"},"locations":[{"geonameid":683451,"name":"Budeni","asciiname":"Budeni","alternatenames":"","latitude":"44.1911500","longitude":"26.1150600","fclass":"P","fcode":"PPL","country":"RO","cc2":"","admin1":"42","admin2":"102106","admin3":"","admin4":"","population":965,"elevation":0,"gtopo30":46,"timezone":"Europe/Bucharest","moddate":"2013-04-21T00:00:00.000Z"},{"geonameid":681036,"name":"Comana","asciiname":"Comana","alternatenames":"Comana","latitude":"44.1705600","longitude":"26.1450000","fclass":"P","fcode":"PPLA2","country":"RO","cc2":"","admin1":"42","admin2":"102106","admin3":"","admin4":"","population":7717,"elevation":0,"gtopo30":52,"timezone":"Europe/Bucharest","moddate":"2012-06-12T00:00:00.000Z"},{"geonameid":678468,"name":"Falaștoaca","asciiname":"Falastoaca","alternatenames":"","latitude":"44.1909800","longitude":"26.1847500","fclass":"P","fcode":"PPL","country":"RO","cc2":"","admin1":"42","admin2":"102106","admin3":"","admin4":"","population":1126,"elevation":0,"gtopo30":47,"timezone":"Europe/Bucharest","moddate":"2013-04-21T00:00:00.000Z"},{"geonameid":676820,"name":"Grădiștea","asciiname":"Gradistea","alternatenames":"","latitude":"44.2106200","longitude":"26.1654700","fclass":"P","fcode":"PPL","country":"RO","cc2":"","admin1":"42","admin2":"102106","admin3":"","admin4":"","population":1664,"elevation":0,"gtopo30":49,"timezone":"Europe/Bucharest","moddate":"2013-04-21T00:00:00.000Z"},{"geonameid":662584,"name":"Vlad Țepeș","asciiname":"Vlad Tepes","alternatenames":"","latitude":"44.1328200","longitude":"26.1335500","fclass":"P","fcode":"PPL","country":"RO","cc2":"","admin1":"42","admin2":"102106","admin3":"","admin4":"","population":2043,"elevation":0,"gtopo30":83,"timezone":"Europe/Bucharest","moddate":"2013-04-20T00:00:00.000Z"}],"admin3":[],"alternateNames":[]},"__N_SSG":true}