{"pageProps":{"locale":"ro","admin2":{"geonameid":672961,"name":"Comuna Moftinu","country":"RO","admin1":"32","admin2":"138208","admin3":"","latitude":"47.6833300","longitude":"22.6000000"},"admin1":{"geonameid":667869,"name":"Satu Mare","admin1":"32"},"locations":[{"geonameid":679126,"name":"Domănești","asciiname":"Domanesti","alternatenames":"Domahida,Domanesti,Domăneşti","latitude":"47.7107100","longitude":"22.5897500","fclass":"P","fcode":"PPL","country":"RO","cc2":"RO","admin1":"32","admin2":"138208","admin3":"","admin4":"","population":1066,"elevation":0,"gtopo30":113,"timezone":"Europe/Bucharest","moddate":"2013-04-21T00:00:00.000Z"},{"geonameid":677384,"name":"Ghilvaci","asciiname":"Ghilvaci","alternatenames":"","latitude":"47.6783900","longitude":"22.6708200","fclass":"P","fcode":"PPL","country":"RO","cc2":"","admin1":"32","admin2":"138208","admin3":"","admin4":"","population":399,"elevation":0,"gtopo30":118,"timezone":"Europe/Bucharest","moddate":"2013-04-21T00:00:00.000Z"},{"geonameid":677383,"name":"Ghilvaci Gară","asciiname":"Ghilvaci Gara","alternatenames":"Gara Ghilvaci,Ghilvaci Gara,Ghilvaci Gară","latitude":"47.7000000","longitude":"22.6833300","fclass":"P","fcode":"PPLX","country":"RO","cc2":"","admin1":"32","admin2":"138208","admin3":"","admin4":"","population":0,"elevation":0,"gtopo30":117,"timezone":"Europe/Bucharest","moddate":"2020-06-10T00:00:00.000Z"},{"geonameid":677310,"name":"Ghirolt","asciiname":"Ghirolt","alternatenames":"","latitude":"47.6093100","longitude":"22.6233400","fclass":"P","fcode":"PPL","country":"RO","cc2":"","admin1":"32","admin2":"138208","admin3":"","admin4":"","population":144,"elevation":0,"gtopo30":120,"timezone":"Europe/Bucharest","moddate":"2013-04-21T00:00:00.000Z"},{"geonameid":675472,"name":"Istrău","asciiname":"Istrau","alternatenames":"Istrau,Istraul,Istrău,Istrăul","latitude":"47.6231000","longitude":"22.6471200","fclass":"P","fcode":"PPL","country":"RO","cc2":"RO","admin1":"32","admin2":"138208","admin3":"","admin4":"","population":109,"elevation":0,"gtopo30":122,"timezone":"Europe/Bucharest","moddate":"2013-04-21T00:00:00.000Z"},{"geonameid":672964,"name":"Moftinu Mare","asciiname":"Moftinu Mare","alternatenames":"Moftinu Mare,Moftinul-Mare","latitude":"47.6666700","longitude":"22.6666700","fclass":"P","fcode":"PPL","country":"RO","cc2":"","admin1":"32","admin2":"138208","admin3":"","admin4":"","population":4242,"elevation":0,"gtopo30":118,"timezone":"Europe/Bucharest","moddate":"2016-02-07T00:00:00.000Z"},{"geonameid":672962,"name":"Moftinu Mic","asciiname":"Moftinu Mic","alternatenames":"Moftinu Mic,Moftinul Mic","latitude":"47.6866900","longitude":"22.6005400","fclass":"P","fcode":"PPLA2","country":"RO","cc2":"RO","admin1":"32","admin2":"138208","admin3":"","admin4":"","population":1226,"elevation":0,"gtopo30":122,"timezone":"Europe/Bucharest","moddate":"2013-04-21T00:00:00.000Z"},{"geonameid":666992,"name":"Sânmiclăuş","asciiname":"Sanmiclaus","alternatenames":"Sanmiclaus,Sanmiclauus,Sinmiclaus,Sânmiclaŭus,Sânmiclăuş,Sînmiclăuş","latitude":"47.6333300","longitude":"22.6000000","fclass":"P","fcode":"PPL","country":"RO","cc2":"","admin1":"32","admin2":"138208","admin3":"","admin4":"","population":0,"elevation":0,"gtopo30":119,"timezone":"Europe/Bucharest","moddate":"2020-03-08T00:00:00.000Z"},{"geonameid":11776167,"name":"Teste","asciiname":"Teste","alternatenames":"","latitude":"47.6952600","longitude":"22.7089800","fclass":"P","fcode":"PPL","country":"RO","cc2":"","admin1":"32","admin2":"138208","admin3":"","admin4":"","population":0,"elevation":450,"gtopo30":119,"timezone":"Europe/Bucharest","moddate":"2017-11-11T00:00:00.000Z"}],"admin3":[],"alternateNames":[]},"__N_SSG":true}