{"pageProps":{"locale":"ro","admin2":{"geonameid":675511,"name":"Comuna Ipatele","country":"RO","admin1":"23","admin2":"97553","admin3":"","latitude":"46.9039000","longitude":"27.4376200"},"admin1":{"geonameid":675809,"name":"Iaşi","admin1":"23"},"locations":[{"geonameid":686481,"name":"Alexești","asciiname":"Alexesti","alternatenames":"","latitude":"46.8774700","longitude":"27.4446000","fclass":"P","fcode":"PPL","country":"RO","cc2":"","admin1":"23","admin2":"97553","admin3":"","admin4":"","population":44,"elevation":0,"gtopo30":184,"timezone":"Europe/Bucharest","moddate":"2013-04-21T00:00:00.000Z"},{"geonameid":684893,"name":"Bâcu","asciiname":"Bacu","alternatenames":"Bacu,Bacul,Bicu,Bâcu,Bâcul,Bîcu,Sendrenii-Bacu,Sendrenii-Bâcu","latitude":"46.9242400","longitude":"27.4597600","fclass":"P","fcode":"PPL","country":"RO","cc2":"RO","admin1":"23","admin2":"97553","admin3":"","admin4":"","population":609,"elevation":0,"gtopo30":199,"timezone":"Europe/Bucharest","moddate":"2013-04-21T00:00:00.000Z"},{"geonameid":679851,"name":"Cuza Vodă","asciiname":"Cuza Voda","alternatenames":"Borasti,Borastii,Borăşti,Borăştii,Cuza Voda,Cuza Vodă","latitude":"46.8947800","longitude":"27.4102700","fclass":"P","fcode":"PPL","country":"RO","cc2":"RO","admin1":"23","admin2":"97553","admin3":"","admin4":"","population":456,"elevation":0,"gtopo30":205,"timezone":"Europe/Bucharest","moddate":"2013-04-21T00:00:00.000Z"},{"geonameid":675512,"name":"Ipatele","asciiname":"Ipatele","alternatenames":"Halita,Haliţa,Ipatele,Petresti,Petreşti","latitude":"46.9166700","longitude":"27.4166700","fclass":"P","fcode":"PPLA2","country":"RO","cc2":"","admin1":"23","admin2":"97553","admin3":"","admin4":"","population":2095,"elevation":0,"gtopo30":214,"timezone":"Europe/Bucharest","moddate":"2012-06-12T00:00:00.000Z"}],"admin3":[],"alternateNames":[]},"__N_SSG":true}