{"pageProps":{"locale":"ro","admin2":{"geonameid":668985,"name":"Comuna Remetea","country":"RO","admin1":"05","admin2":"30719","admin3":"","latitude":"46.7295600","longitude":"22.3527600"},"admin1":{"geonameid":684878,"name":"Bihor","admin1":"05"},"locations":[{"geonameid":678906,"name":"Drăgoteni","asciiname":"Dragoteni","alternatenames":"","latitude":"46.7325400","longitude":"22.3087700","fclass":"P","fcode":"PPL","country":"RO","cc2":"","admin1":"05","admin2":"30719","admin3":"","admin4":"","population":535,"elevation":0,"gtopo30":188,"timezone":"Europe/Bucharest","moddate":"2013-04-21T00:00:00.000Z"},{"geonameid":673498,"name":"Meziad","asciiname":"Meziad","alternatenames":"","latitude":"46.7409000","longitude":"22.4284600","fclass":"P","fcode":"PPL","country":"RO","cc2":"","admin1":"05","admin2":"30719","admin3":"","admin4":"","population":1342,"elevation":0,"gtopo30":250,"timezone":"Europe/Bucharest","moddate":"2013-04-21T00:00:00.000Z"},{"geonameid":671009,"name":"Petreasa","asciiname":"Petreasa","alternatenames":"Petreasa,Petroasa","latitude":"46.7143200","longitude":"22.3481700","fclass":"P","fcode":"PPL","country":"RO","cc2":"RO","admin1":"05","admin2":"30719","admin3":"","admin4":"","population":454,"elevation":0,"gtopo30":203,"timezone":"Europe/Bucharest","moddate":"2013-04-21T00:00:00.000Z"},{"geonameid":668987,"name":"Remetea","asciiname":"Remetea","alternatenames":"","latitude":"46.7333300","longitude":"22.3500000","fclass":"P","fcode":"PPLA2","country":"RO","cc2":"","admin1":"05","admin2":"30719","admin3":"","admin4":"","population":3084,"elevation":0,"gtopo30":189,"timezone":"Europe/Bucharest","moddate":"2012-06-12T00:00:00.000Z"},{"geonameid":666521,"name":"Soimuș","asciiname":"Soimus","alternatenames":"Soimus,Soimus Petroasa,Soimus-Petreasa,Şoimuş,Şoimuş Petroasa,Şoimuş-Petreasa","latitude":"46.7204500","longitude":"22.3290000","fclass":"P","fcode":"PPL","country":"RO","cc2":"RO","admin1":"05","admin2":"30719","admin3":"","admin4":"","population":169,"elevation":0,"gtopo30":186,"timezone":"Europe/Bucharest","moddate":"2013-04-21T00:00:00.000Z"}],"admin3":[],"alternateNames":[]},"__N_SSG":true}