{"pageProps":{"locale":"ro","admin2":{"geonameid":668416,"name":"Comuna Rusca Montană","country":"RO","admin1":"12","admin2":"53728","admin3":"","latitude":"45.6004200","longitude":"22.4363800"},"admin1":{"geonameid":682714,"name":"Caraş-Severin","admin1":"12"},"locations":[{"geonameid":674577,"name":"Lozna-Pleşi","asciiname":"Lozna-Plesi","alternatenames":"Lozna,Lozna-Plesi,Lozna-Pleşi","latitude":"45.6000000","longitude":"22.3666700","fclass":"P","fcode":"PPLX","country":"RO","cc2":"","admin1":"12","admin2":"53728","admin3":"","admin4":"","population":0,"elevation":0,"gtopo30":661,"timezone":"Europe/Bucharest","moddate":"2020-06-10T00:00:00.000Z"},{"geonameid":674575,"name":"Loznicioara","asciiname":"Loznicioara","alternatenames":"Loznicioara,Loznisoara,Loznişoara","latitude":"45.5500000","longitude":"22.4666700","fclass":"P","fcode":"PPLX","country":"RO","cc2":"","admin1":"12","admin2":"53728","admin3":"","admin4":"","population":0,"elevation":0,"gtopo30":436,"timezone":"Europe/Bucharest","moddate":"2016-02-07T00:00:00.000Z"},{"geonameid":668417,"name":"Rusca Montană","asciiname":"Rusca Montana","alternatenames":"Rusca Montana,Rusca Montană","latitude":"45.5674100","longitude":"22.4581600","fclass":"P","fcode":"PPLA2","country":"RO","cc2":"","admin1":"12","admin2":"53728","admin3":"","admin4":"","population":1820,"elevation":0,"gtopo30":366,"timezone":"Europe/Bucharest","moddate":"2013-04-21T00:00:00.000Z"},{"geonameid":668415,"name":"Rușchița","asciiname":"Ruschita","alternatenames":"Colonel Ruschita,Colonel Ruschiţa,Goldaia Ruschita,Goldaia Ruschiţa,Golonia-Ruschit,Ruschita,Ruschiţa","latitude":"45.6334200","longitude":"22.4146100","fclass":"P","fcode":"PPL","country":"RO","cc2":"RO","admin1":"12","admin2":"53728","admin3":"","admin4":"","population":802,"elevation":0,"gtopo30":581,"timezone":"Europe/Bucharest","moddate":"2013-04-21T00:00:00.000Z"}],"admin3":[],"alternateNames":[]},"__N_SSG":true}