{"pageProps":{"locale":"ro","admin2":{"geonameid":664308,"name":"Comuna Ulmeni","country":"RO","admin1":"11","admin2":"49894","admin3":"","latitude":"45.0688100","longitude":"26.6236400"},"admin1":{"geonameid":683121,"name":"Buzău","admin1":"11"},"locations":[{"geonameid":685561,"name":"Băltăreți","asciiname":"Baltareti","alternatenames":"Baltareti,Baltaretii,Băltăreţi,Băltăreţii","latitude":"45.0610700","longitude":"26.6224800","fclass":"P","fcode":"PPL","country":"RO","cc2":"RO","admin1":"11","admin2":"49894","admin3":"","admin4":"","population":569,"elevation":0,"gtopo30":96,"timezone":"Europe/Bucharest","moddate":"2013-04-21T00:00:00.000Z"},{"geonameid":681309,"name":"Clondiru","asciiname":"Clondiru","alternatenames":"Clondiru,Ion Gheorghe Duca","latitude":"45.0535600","longitude":"26.6157200","fclass":"P","fcode":"PPL","country":"RO","cc2":"RO","admin1":"11","admin2":"49894","admin3":"","admin4":"","population":751,"elevation":0,"gtopo30":92,"timezone":"Europe/Bucharest","moddate":"2013-04-21T00:00:00.000Z"},{"geonameid":681307,"name":"Clondiru de Jos","asciiname":"Clondiru de Jos","alternatenames":"","latitude":"45.0500000","longitude":"26.6166700","fclass":"P","fcode":"PPLX","country":"RO","cc2":"","admin1":"11","admin2":"49894","admin3":"","admin4":"","population":0,"elevation":0,"gtopo30":91,"timezone":"Europe/Bucharest","moddate":"2016-02-07T00:00:00.000Z"},{"geonameid":681305,"name":"Clondiru de Sus","asciiname":"Clondiru de Sus","alternatenames":"","latitude":"45.0500000","longitude":"26.6166700","fclass":"P","fcode":"PPLX","country":"RO","cc2":"","admin1":"11","admin2":"49894","admin3":"","admin4":"","population":0,"elevation":0,"gtopo30":91,"timezone":"Europe/Bucharest","moddate":"2016-02-07T00:00:00.000Z"},{"geonameid":668051,"name":"Sărata","asciiname":"Sarata","alternatenames":"Atarnati,Atarnaţi,Atirnati,Atîrnaţi,Sarata,Sărata","latitude":"45.0603100","longitude":"26.6058800","fclass":"P","fcode":"PPL","country":"RO","cc2":"RO","admin1":"11","admin2":"49894","admin3":"","admin4":"","population":392,"elevation":0,"gtopo30":99,"timezone":"Europe/Bucharest","moddate":"2013-04-21T00:00:00.000Z"},{"geonameid":664312,"name":"Ulmeni","asciiname":"Ulmeni","alternatenames":"","latitude":"45.0666700","longitude":"26.6500000","fclass":"P","fcode":"PPLA2","country":"RO","cc2":"","admin1":"11","admin2":"49894","admin3":"","admin4":"","population":3283,"elevation":0,"gtopo30":100,"timezone":"Europe/Bucharest","moddate":"2012-06-12T00:00:00.000Z"},{"geonameid":662887,"name":"Vâlcele","asciiname":"Valcele","alternatenames":"Valcelele,Vilcele,Vâlcelele,Vîlcele","latitude":"45.0869200","longitude":"26.6335300","fclass":"P","fcode":"PPL","country":"RO","cc2":"","admin1":"11","admin2":"49894","admin3":"","admin4":"","population":1811,"elevation":0,"gtopo30":119,"timezone":"Europe/Bucharest","moddate":"2015-11-05T00:00:00.000Z"}],"admin3":[],"alternateNames":[]},"__N_SSG":true}