{"pageProps":{"locale":"en","admin2":{"geonameid":7290534,"name":"Bedford","country":"GB","admin1":"ENG","admin2":"Z5","admin3":"","latitude":"52.1883100","longitude":"-0.4531600"},"admin1":{"geonameid":6269131,"name":"England","admin1":"ENG","localeAltName":"England"},"locations":[{"geonameid":2656046,"name":"Bedford","asciiname":"Bedford","alternatenames":"Bedford,Bedfordia,XQD,bdfwrd  anglstan,bedeupeodeu,bydfwrd,Бедфорд,בעדפארד,بدفورد، انگلستان,بيدفورد,베드퍼드","latitude":"52.1345900","longitude":"-0.4663200","fclass":"P","fcode":"PPLA2","country":"GB","cc2":"","admin1":"ENG","admin2":"Z5","admin3":"","admin4":"","population":106940,"elevation":0,"gtopo30":30,"timezone":"Europe/London","moddate":"2017-06-12T00:00:00.000Z"},{"geonameid":2655712,"name":"Biddenham","asciiname":"Biddenham","alternatenames":"","latitude":"52.1384700","longitude":"-0.5068700","fclass":"P","fcode":"PPLA3","country":"GB","cc2":"","admin1":"ENG","admin2":"Z5","admin3":"00KB001","admin4":"","population":0,"elevation":0,"gtopo30":40,"timezone":"Europe/London","moddate":"2011-07-31T00:00:00.000Z"},{"geonameid":2655349,"name":"Bletsoe","asciiname":"Bletsoe","alternatenames":"","latitude":"52.2122200","longitude":"-0.5062200","fclass":"P","fcode":"PPL","country":"GB","cc2":"","admin1":"ENG","admin2":"Z5","admin3":"00KB002","admin4":"","population":0,"elevation":0,"gtopo30":54,"timezone":"Europe/London","moddate":"2011-03-03T00:00:00.000Z"},{"geonameid":2655243,"name":"Bolnhurst","asciiname":"Bolnhurst","alternatenames":"","latitude":"52.2171800","longitude":"-0.4089800","fclass":"P","fcode":"PPL","country":"GB","cc2":"","admin1":"ENG","admin2":"Z5","admin3":"00KB003","admin4":"","population":0,"elevation":0,"gtopo30":77,"timezone":"Europe/London","moddate":"2016-06-22T00:00:00.000Z"},{"geonameid":2654589,"name":"Bromham","asciiname":"Bromham","alternatenames":"","latitude":"52.1450800","longitude":"-0.5290600","fclass":"P","fcode":"PPLA3","country":"GB","cc2":"","admin1":"ENG","admin2":"Z5","admin3":"00KB005","admin4":"","population":4670,"elevation":0,"gtopo30":38,"timezone":"Europe/London","moddate":"2017-06-12T00:00:00.000Z"},{"geonameid":2653813,"name":"Cardington","asciiname":"Cardington","alternatenames":"","latitude":"52.1174200","longitude":"-0.4128900","fclass":"P","fcode":"PPLA3","country":"GB","cc2":"","admin1":"ENG","admin2":"Z5","admin3":"00KB006","admin4":"","population":288,"elevation":0,"gtopo30":29,"timezone":"Europe/London","moddate":"2017-06-12T00:00:00.000Z"},{"geonameid":2653770,"name":"Carlton","asciiname":"Carlton","alternatenames":"","latitude":"52.1880100","longitude":"-0.6070400","fclass":"P","fcode":"PPL","country":"GB","cc2":"","admin1":"ENG","admin2":"Z5","admin3":"00KB007","admin4":"","population":874,"elevation":0,"gtopo30":50,"timezone":"Europe/London","moddate":"2017-06-12T00:00:00.000Z"},{"geonameid":6693204,"name":"Chawston","asciiname":"Chawston","alternatenames":"","latitude":"52.1913400","longitude":"-0.3147000","fclass":"P","fcode":"PPL","country":"GB","cc2":"","admin1":"ENG","admin2":"Z5","admin3":"00KB046","admin4":"","population":0,"elevation":0,"gtopo30":26,"timezone":"Europe/London","moddate":"2011-03-03T00:00:00.000Z"},{"geonameid":2653271,"name":"Chellington","asciiname":"Chellington","alternatenames":"","latitude":"52.1919600","longitude":"-0.6013700","fclass":"P","fcode":"PPL","country":"GB","cc2":"","admin1":"ENG","admin2":"Z5","admin3":"00KB007","admin4":"","population":0,"elevation":0,"gtopo30":48,"timezone":"Europe/London","moddate":"2016-06-22T00:00:00.000Z"},{"geonameid":2652950,"name":"Clapham","asciiname":"Clapham","alternatenames":"","latitude":"52.1608500","longitude":"-0.4952900","fclass":"P","fcode":"PPLA3","country":"GB","cc2":"","admin1":"ENG","admin2":"Z5","admin3":"00KB008","admin4":"","population":4560,"elevation":0,"gtopo30":33,"timezone":"Europe/London","moddate":"2019-10-01T00:00:00.000Z"},{"geonameid":2652548,"name":"Colmworth","asciiname":"Colmworth","alternatenames":"","latitude":"52.2168100","longitude":"-0.3782600","fclass":"P","fcode":"PPLA3","country":"GB","cc2":"","admin1":"ENG","admin2":"Z5","admin3":"00KB009","admin4":"","population":0,"elevation":0,"gtopo30":69,"timezone":"Europe/London","moddate":"2011-07-31T00:00:00.000Z"},{"geonameid":2652398,"name":"Cople","asciiname":"Cople","alternatenames":"","latitude":"52.1234200","longitude":"-0.3893300","fclass":"P","fcode":"PPLA3","country":"GB","cc2":"","admin1":"ENG","admin2":"Z5","admin3":"00KB010","admin4":"","population":722,"elevation":0,"gtopo30":28,"timezone":"Europe/London","moddate":"2017-06-12T00:00:00.000Z"},{"geonameid":8063659,"name":"Cotton End","asciiname":"Cotton End","alternatenames":"","latitude":"52.0956000","longitude":"-0.4174100","fclass":"P","fcode":"PPL","country":"GB","cc2":"","admin1":"ENG","admin2":"Z5","admin3":"00KB012","admin4":"","population":838,"elevation":0,"gtopo30":32,"timezone":"Europe/London","moddate":"2017-06-12T00:00:00.000Z"},{"geonameid":2652215,"name":"Covington","asciiname":"Covington","alternatenames":"Covington","latitude":"52.3166700","longitude":"-0.4500000","fclass":"P","fcode":"PPL","country":"GB","cc2":"","admin1":"ENG","admin2":"Z5","admin3":"00KB011","admin4":"","population":0,"elevation":0,"gtopo30":48,"timezone":"Europe/London","moddate":"2016-06-22T00:00:00.000Z"},{"geonameid":2650048,"name":"Elstow","asciiname":"Elstow","alternatenames":"alstw,الستو","latitude":"52.1072700","longitude":"-0.4649000","fclass":"P","fcode":"PPLA3","country":"GB","cc2":"","admin1":"ENG","admin2":"Z5","admin3":"00KB013","admin4":"","population":0,"elevation":0,"gtopo30":33,"timezone":"Europe/London","moddate":"2011-07-31T00:00:00.000Z"},{"geonameid":2649667,"name":"Farndish","asciiname":"Farndish","alternatenames":"","latitude":"52.2613800","longitude":"-0.6452300","fclass":"P","fcode":"PPL","country":"GB","cc2":"","admin1":"ENG","admin2":"Z5","admin3":"00KB029","admin4":"","population":0,"elevation":0,"gtopo30":78,"timezone":"Europe/London","moddate":"2014-09-29T00:00:00.000Z"},{"geonameid":11592612,"name":"Felmersham","asciiname":"Felmersham","alternatenames":"","latitude":"52.2075500","longitude":"-0.5526600","fclass":"P","fcode":"PPL","country":"GB","cc2":"","admin1":"ENG","admin2":"Z5","admin3":"00KB014","admin4":"","population":0,"elevation":0,"gtopo30":54,"timezone":"Europe/London","moddate":"2017-06-18T00:00:00.000Z"},{"geonameid":2648168,"name":"Great Barford","asciiname":"Great Barford","alternatenames":"","latitude":"52.1579100","longitude":"-0.3523500","fclass":"P","fcode":"PPL","country":"GB","cc2":"","admin1":"ENG","admin2":"Z5","admin3":"00KB015","admin4":"","population":2003,"elevation":0,"gtopo30":25,"timezone":"Europe/London","moddate":"2017-06-12T00:00:00.000Z"},{"geonameid":2647427,"name":"Harrold","asciiname":"Harrold","alternatenames":"","latitude":"52.2012700","longitude":"-0.6103800","fclass":"P","fcode":"PPLA3","country":"GB","cc2":"","admin1":"ENG","admin2":"Z5","admin3":"00KB017","admin4":"","population":1691,"elevation":0,"gtopo30":48,"timezone":"Europe/London","moddate":"2017-06-12T00:00:00.000Z"},{"geonameid":2645831,"name":"Kempston","asciiname":"Kempston","alternatenames":"kmpstwn,کمپستون","latitude":"52.1159900","longitude":"-0.5004400","fclass":"P","fcode":"PPLA3","country":"GB","cc2":"","admin1":"ENG","admin2":"Z5","admin3":"00KB018","admin4":"","population":19873,"elevation":0,"gtopo30":32,"timezone":"Europe/London","moddate":"2011-07-31T00:00:00.000Z"},{"geonameid":6947168,"name":"Kempston Hardwick","asciiname":"Kempston Hardwick","alternatenames":"","latitude":"52.0895600","longitude":"-0.4990800","fclass":"P","fcode":"PPL","country":"GB","cc2":"","admin1":"ENG","admin2":"Z5","admin3":"00KB038","admin4":"","population":20000,"elevation":35,"gtopo30":37,"timezone":"Europe/London","moddate":"2011-03-03T00:00:00.000Z"},{"geonameid":2645732,"name":"Keysoe","asciiname":"Keysoe","alternatenames":"","latitude":"52.2516100","longitude":"-0.4247800","fclass":"P","fcode":"PPL","country":"GB","cc2":"","admin1":"ENG","admin2":"Z5","admin3":"00KB003","admin4":"","population":0,"elevation":0,"gtopo30":68,"timezone":"Europe/London","moddate":"2016-06-22T00:00:00.000Z"},{"geonameid":2645103,"name":"Knotting","asciiname":"Knotting","alternatenames":"","latitude":"52.2600200","longitude":"-0.5328400","fclass":"P","fcode":"PPL","country":"GB","cc2":"","admin1":"ENG","admin2":"Z5","admin3":"00KB020","admin4":"","population":0,"elevation":0,"gtopo30":95,"timezone":"Europe/London","moddate":"2016-06-22T00:00:00.000Z"},{"geonameid":2644378,"name":"Little Barford","asciiname":"Little Barford","alternatenames":"","latitude":"52.1989800","longitude":"-0.2729000","fclass":"P","fcode":"PPLA3","country":"GB","cc2":"","admin1":"ENG","admin2":"Z5","admin3":"00KB021","admin4":"","population":0,"elevation":0,"gtopo30":20,"timezone":"Europe/London","moddate":"2011-07-31T00:00:00.000Z"},{"geonameid":2644246,"name":"Little Staughton","asciiname":"Little Staughton","alternatenames":"","latitude":"52.2506600","longitude":"-0.3821700","fclass":"P","fcode":"PPL","country":"GB","cc2":"","admin1":"ENG","admin2":"Z5","admin3":"00KB022","admin4":"","population":440,"elevation":0,"gtopo30":63,"timezone":"Europe/London","moddate":"2017-06-12T00:00:00.000Z"},{"geonameid":2642795,"name":"Melchbourne","asciiname":"Melchbourne","alternatenames":"","latitude":"52.2801800","longitude":"-0.4932700","fclass":"P","fcode":"PPL","country":"GB","cc2":"","admin1":"ENG","admin2":"Z5","admin3":"00KB023","admin4":"","population":0,"elevation":0,"gtopo30":69,"timezone":"Europe/London","moddate":"2016-06-22T00:00:00.000Z"},{"geonameid":2642467,"name":"Milton Ernest","asciiname":"Milton Ernest","alternatenames":"","latitude":"52.1930200","longitude":"-0.5114000","fclass":"P","fcode":"PPL","country":"GB","cc2":"","admin1":"ENG","admin2":"Z5","admin3":"00KB024","admin4":"","population":761,"elevation":0,"gtopo30":48,"timezone":"Europe/London","moddate":"2017-06-12T00:00:00.000Z"},{"geonameid":2641121,"name":"Oakley","asciiname":"Oakley","alternatenames":"","latitude":"52.1686200","longitude":"-0.5264900","fclass":"P","fcode":"PPLA3","country":"GB","cc2":"","admin1":"ENG","admin2":"Z5","admin3":"00KB025","admin4":"","population":2493,"elevation":0,"gtopo30":43,"timezone":"Europe/London","moddate":"2017-06-12T00:00:00.000Z"},{"geonameid":2641084,"name":"Odell","asciiname":"Odell","alternatenames":"","latitude":"52.2093700","longitude":"-0.5888000","fclass":"P","fcode":"PPLA3","country":"GB","cc2":"","admin1":"ENG","admin2":"Z5","admin3":"00KB026","admin4":"","population":0,"elevation":0,"gtopo30":48,"timezone":"Europe/London","moddate":"2011-07-31T00:00:00.000Z"},{"geonameid":2640556,"name":"Pavenham","asciiname":"Pavenham","alternatenames":"","latitude":"52.1891300","longitude":"-0.5524900","fclass":"P","fcode":"PPL","country":"GB","cc2":"","admin1":"ENG","admin2":"Z5","admin3":"00KB027","admin4":"","population":527,"elevation":0,"gtopo30":55,"timezone":"Europe/London","moddate":"2017-06-12T00:00:00.000Z"},{"geonameid":2640359,"name":"Pertenhall","asciiname":"Pertenhall","alternatenames":"","latitude":"52.2793400","longitude":"-0.4144800","fclass":"P","fcode":"PPLA3","country":"GB","cc2":"","admin1":"ENG","admin2":"Z5","admin3":"00KB028","admin4":"","population":0,"elevation":0,"gtopo30":40,"timezone":"Europe/London","moddate":"2011-07-31T00:00:00.000Z"},{"geonameid":2640184,"name":"Podington","asciiname":"Podington","alternatenames":"Puddington","latitude":"52.2542400","longitude":"-0.6246300","fclass":"P","fcode":"PPLA3","country":"GB","cc2":"GB","admin1":"ENG","admin2":"Z5","admin3":"00KB029","admin4":"","population":435,"elevation":0,"gtopo30":75,"timezone":"Europe/London","moddate":"2017-06-12T00:00:00.000Z"},{"geonameid":11790590,"name":"Radwell","asciiname":"Radwell","alternatenames":"","latitude":"52.2059800","longitude":"-0.5310300","fclass":"P","fcode":"PPL","country":"GB","cc2":"","admin1":"ENG","admin2":"Z5","admin3":"00KB014","admin4":"","population":0,"elevation":0,"gtopo30":61,"timezone":"Europe/London","moddate":"2018-06-28T00:00:00.000Z"},{"geonameid":11962630,"name":"Renhold","asciiname":"Renhold","alternatenames":"","latitude":"52.1630900","longitude":"-0.4032300","fclass":"P","fcode":"PPL","country":"GB","cc2":"","admin1":"ENG","admin2":"Z5","admin3":"00KB031","admin4":"","population":0,"elevation":0,"gtopo30":54,"timezone":"Europe/London","moddate":"2018-11-01T00:00:00.000Z"},{"geonameid":2639313,"name":"Riseley","asciiname":"Riseley","alternatenames":"rysly,ريسلي","latitude":"52.2521300","longitude":"-0.4792800","fclass":"P","fcode":"PPLA3","country":"GB","cc2":"","admin1":"ENG","admin2":"Z5","admin3":"00KB032","admin4":"","population":1286,"elevation":0,"gtopo30":58,"timezone":"Europe/London","moddate":"2017-06-12T00:00:00.000Z"},{"geonameid":2639029,"name":"Roxton","asciiname":"Roxton","alternatenames":"","latitude":"52.1775600","longitude":"-0.3159400","fclass":"P","fcode":"PPLA3","country":"GB","cc2":"","admin1":"ENG","admin2":"Z5","admin3":"00KB033","admin4":"","population":348,"elevation":0,"gtopo30":26,"timezone":"Europe/London","moddate":"2017-06-12T00:00:00.000Z"},{"geonameid":2638122,"name":"Sharnbrook","asciiname":"Sharnbrook","alternatenames":"","latitude":"52.2260600","longitude":"-0.5442500","fclass":"P","fcode":"PPLA3","country":"GB","cc2":"","admin1":"ENG","admin2":"Z5","admin3":"00KB034","admin4":"","population":1795,"elevation":0,"gtopo30":56,"timezone":"Europe/London","moddate":"2017-06-12T00:00:00.000Z"},{"geonameid":11962137,"name":"Shortstown","asciiname":"Shortstown","alternatenames":"","latitude":"52.1104100","longitude":"-0.4303600","fclass":"P","fcode":"PPL","country":"GB","cc2":"","admin1":"ENG","admin2":"Z5","admin3":"00KB012","admin4":"","population":0,"elevation":0,"gtopo30":57,"timezone":"Europe/London","moddate":"2018-10-18T00:00:00.000Z"},{"geonameid":2637503,"name":"Souldrop","asciiname":"Souldrop","alternatenames":"","latitude":"52.2448300","longitude":"-0.5574700","fclass":"P","fcode":"PPL","country":"GB","cc2":"","admin1":"ENG","admin2":"Z5","admin3":"00KB020","admin4":"","population":0,"elevation":0,"gtopo30":99,"timezone":"Europe/London","moddate":"2016-06-22T00:00:00.000Z"},{"geonameid":2637136,"name":"Stagsden","asciiname":"Stagsden","alternatenames":"","latitude":"52.1304600","longitude":"-0.5667800","fclass":"P","fcode":"PPLA3","country":"GB","cc2":"","admin1":"ENG","admin2":"Z5","admin3":"00KB035","admin4":"","population":363,"elevation":0,"gtopo30":62,"timezone":"Europe/London","moddate":"2017-06-12T00:00:00.000Z"},{"geonameid":2636935,"name":"Stevington","asciiname":"Stevington","alternatenames":"","latitude":"52.1684800","longitude":"-0.5551500","fclass":"P","fcode":"PPLA3","country":"GB","cc2":"","admin1":"ENG","admin2":"Z5","admin3":"00KB037","admin4":"","population":552,"elevation":0,"gtopo30":49,"timezone":"Europe/London","moddate":"2017-06-12T00:00:00.000Z"},{"geonameid":6947164,"name":"Stewartby","asciiname":"Stewartby","alternatenames":"","latitude":"52.0704400","longitude":"-0.5149000","fclass":"P","fcode":"PPLA3","country":"GB","cc2":"","admin1":"ENG","admin2":"Z5","admin3":"00KB038","admin4":"","population":1190,"elevation":0,"gtopo30":42,"timezone":"Europe/London","moddate":"2017-06-12T00:00:00.000Z"},{"geonameid":2636385,"name":"Swineshead","asciiname":"Swineshead","alternatenames":"","latitude":"52.2802900","longitude":"-0.4501000","fclass":"P","fcode":"PPLA3","country":"GB","cc2":"","admin1":"ENG","admin2":"Z5","admin3":"00KB039","admin4":"","population":0,"elevation":0,"gtopo30":51,"timezone":"Europe/London","moddate":"2011-07-31T00:00:00.000Z"},{"geonameid":2635895,"name":"Thurleigh","asciiname":"Thurleigh","alternatenames":"twrly,تورلي","latitude":"52.2147100","longitude":"-0.4635400","fclass":"P","fcode":"PPL","country":"GB","cc2":"","admin1":"ENG","admin2":"Z5","admin3":"00KB040","admin4":"","population":694,"elevation":0,"gtopo30":73,"timezone":"Europe/London","moddate":"2017-06-12T00:00:00.000Z"},{"geonameid":2635327,"name":"Turvey","asciiname":"Turvey","alternatenames":"","latitude":"52.1628500","longitude":"-0.6252800","fclass":"P","fcode":"PPL","country":"GB","cc2":"","admin1":"ENG","admin2":"Z5","admin3":"00KB041","admin4":"","population":940,"elevation":0,"gtopo30":52,"timezone":"Europe/London","moddate":"2017-06-12T00:00:00.000Z"},{"geonameid":2635136,"name":"Upper Dean","asciiname":"Upper Dean","alternatenames":"Dean","latitude":"52.2971400","longitude":"-0.4659700","fclass":"P","fcode":"PPL","country":"GB","cc2":"GB","admin1":"ENG","admin2":"Z5","admin3":"00KB011","admin4":"","population":418,"elevation":0,"gtopo30":55,"timezone":"Europe/London","moddate":"2017-06-12T00:00:00.000Z"},{"geonameid":2633917,"name":"Wilden","asciiname":"Wilden","alternatenames":"","latitude":"52.1827200","longitude":"-0.3964500","fclass":"P","fcode":"PPLA3","country":"GB","cc2":"","admin1":"ENG","admin2":"Z5","admin3":"00KB042","admin4":"","population":0,"elevation":0,"gtopo30":45,"timezone":"Europe/London","moddate":"2011-07-31T00:00:00.000Z"},{"geonameid":2633898,"name":"Willington","asciiname":"Willington","alternatenames":"","latitude":"52.1340900","longitude":"-0.3723500","fclass":"P","fcode":"PPLA3","country":"GB","cc2":"","admin1":"ENG","admin2":"Z5","admin3":"00KB043","admin4":"","population":751,"elevation":0,"gtopo30":27,"timezone":"Europe/London","moddate":"2017-06-12T00:00:00.000Z"},{"geonameid":2633878,"name":"Wilstead","asciiname":"Wilstead","alternatenames":"Wilhamstead,Willshamstead,Wilstead","latitude":"52.0808800","longitude":"-0.4488900","fclass":"P","fcode":"PPLA3","country":"GB","cc2":"","admin1":"ENG","admin2":"Z5","admin3":"00KB044","admin4":"","population":2177,"elevation":0,"gtopo30":41,"timezone":"Europe/London","moddate":"2018-08-21T00:00:00.000Z"},{"geonameid":11888088,"name":"Wixams","asciiname":"Wixams","alternatenames":"","latitude":"52.0909400","longitude":"-0.4626200","fclass":"P","fcode":"PPL","country":"GB","cc2":"","admin1":"ENG","admin2":"Z5","admin3":"00KB044","admin4":"","population":0,"elevation":0,"gtopo30":68,"timezone":"Europe/London","moddate":"2018-07-04T00:00:00.000Z"},{"geonameid":2633575,"name":"Wootton","asciiname":"Wootton","alternatenames":"","latitude":"52.0952500","longitude":"-0.5349400","fclass":"P","fcode":"PPLA3","country":"GB","cc2":"","admin1":"ENG","admin2":"Z5","admin3":"00KB045","admin4":"","population":4344,"elevation":0,"gtopo30":48,"timezone":"Europe/London","moddate":"2017-06-12T00:00:00.000Z"},{"geonameid":6951071,"name":"Wyboston","asciiname":"Wyboston","alternatenames":"","latitude":"52.1942800","longitude":"-0.2983300","fclass":"P","fcode":"PPL","country":"GB","cc2":"","admin1":"ENG","admin2":"Z5","admin3":"00KB046","admin4":"","population":0,"elevation":0,"gtopo30":21,"timezone":"Europe/London","moddate":"2011-03-03T00:00:00.000Z"},{"geonameid":2633447,"name":"Wymington","asciiname":"Wymington","alternatenames":"","latitude":"52.2688100","longitude":"-0.6026600","fclass":"P","fcode":"PPL","country":"GB","cc2":"","admin1":"ENG","admin2":"Z5","admin3":"00KB047","admin4":"","population":0,"elevation":0,"gtopo30":74,"timezone":"Europe/London","moddate":"2014-09-29T00:00:00.000Z"},{"geonameid":2633389,"name":"Yelden","asciiname":"Yelden","alternatenames":"","latitude":"52.2929900","longitude":"-0.5158400","fclass":"P","fcode":"PPL","country":"GB","cc2":"","admin1":"ENG","admin2":"Z5","admin3":"00KB023","admin4":"","population":0,"elevation":0,"gtopo30":67,"timezone":"Europe/London","moddate":"2016-06-22T00:00:00.000Z"}],"admin3":[{"geonameid":7291584,"name":"Biddenham","admin3":"00KB001"},{"geonameid":7301689,"name":"Bletsoe","admin3":"00KB002"},{"geonameid":7297807,"name":"Bolnhurst and Keysoe","admin3":"00KB003"},{"geonameid":7294027,"name":"Brickhill","admin3":"00KB004"},{"geonameid":7301690,"name":"Bromham","admin3":"00KB005"},{"geonameid":7291585,"name":"Cardington","admin3":"00KB006"},{"geonameid":2653761,"name":"Carlton and Chellington","admin3":"00KB007"},{"geonameid":7292840,"name":"Clapham","admin3":"00KB008"},{"geonameid":7291586,"name":"Colmworth","admin3":"00KB009"},{"geonameid":7292841,"name":"Cople","admin3":"00KB010"},{"geonameid":7301691,"name":"Dean and Shelton","admin3":"00KB011"},{"geonameid":7292842,"name":"Eastcotts","admin3":"00KB012"},{"geonameid":7292843,"name":"Elstow","admin3":"00KB013"},{"geonameid":7301692,"name":"Felmersham","admin3":"00KB014"},{"geonameid":7299740,"name":"Great Barford","admin3":"00KB015"},{"geonameid":7291587,"name":"Great Denham","admin3":"00KB016"},{"geonameid":7300486,"name":"Harrold","admin3":"00KB017"},{"geonameid":7301693,"name":"Kempston","admin3":"00KB018"},{"geonameid":7301695,"name":"Kempston Rural","admin3":"00KB019"},{"geonameid":7290872,"name":"Knotting and Souldrop","admin3":"00KB020"},{"geonameid":7301696,"name":"Little Barford","admin3":"00KB021"},{"geonameid":7292844,"name":"Little Staughton","admin3":"00KB022"},{"geonameid":7300487,"name":"Melchbourne and Yielden","admin3":"00KB023"},{"geonameid":7292845,"name":"Milton Ernest","admin3":"00KB024"},{"geonameid":7300488,"name":"Oakley","admin3":"00KB025"},{"geonameid":7292846,"name":"Odell","admin3":"00KB026"},{"geonameid":7300489,"name":"Pavenham","admin3":"00KB027"},{"geonameid":7292847,"name":"Pertenhall","admin3":"00KB028"},{"geonameid":7299741,"name":"Podington","admin3":"00KB029"},{"geonameid":7301697,"name":"Ravensden","admin3":"00KB030"},{"geonameid":7292848,"name":"Renhold","admin3":"00KB031"},{"geonameid":7299742,"name":"Riseley","admin3":"00KB032"},{"geonameid":7300490,"name":"Roxton","admin3":"00KB033"},{"geonameid":7297808,"name":"Sharnbrook","admin3":"00KB034"},{"geonameid":7299743,"name":"Stagsden","admin3":"00KB035"},{"geonameid":7297809,"name":"Staploe","admin3":"00KB036"},{"geonameid":7297917,"name":"Stevington","admin3":"00KB037"},{"geonameid":7292849,"name":"Stewartby","admin3":"00KB038"},{"geonameid":7299744,"name":"Swineshead","admin3":"00KB039"},{"geonameid":7292850,"name":"Thurleigh","admin3":"00KB040"},{"geonameid":7300491,"name":"Turvey","admin3":"00KB041"},{"geonameid":7292851,"name":"Wilden","admin3":"00KB042"},{"geonameid":7291104,"name":"Willington","admin3":"00KB043"},{"geonameid":7301698,"name":"Wilshamstead","admin3":"00KB044"},{"geonameid":7300492,"name":"Wootton","admin3":"00KB045"},{"geonameid":7292852,"name":"Wyboston, Chawston and Colesden","admin3":"00KB046"},{"geonameid":7301699,"name":"Wymington","admin3":"00KB047"}],"alternateNames":[{"alternatenameId":1626647,"geonameid":6269131,"isoLanguage":"en","alternateName":"England","isPreferredName":true,"isShortName":true,"isColloquial":false,"isHistoric":false}]},"__N_SSG":true}