{"pageProps":{"locale":"ro","admin2":{"geonameid":673788,"name":"Comuna Mărgineni","country":"RO","admin1":"04","admin2":"20466","admin3":"","latitude":"46.5977900","longitude":"26.8050500"},"admin1":{"geonameid":685947,"name":"Bacău","admin1":"04"},"locations":[{"geonameid":685395,"name":"Barați","asciiname":"Barati","alternatenames":"","latitude":"46.5756900","longitude":"26.8711800","fclass":"P","fcode":"PPL","country":"RO","cc2":"","admin1":"04","admin2":"20466","admin3":"","admin4":"","population":1503,"elevation":0,"gtopo30":181,"timezone":"Europe/Bucharest","moddate":"2013-04-21T00:00:00.000Z"},{"geonameid":682163,"name":"Chetrosu","asciiname":"Chetrosu","alternatenames":"","latitude":"46.6166700","longitude":"26.7666700","fclass":"P","fcode":"PPL","country":"RO","cc2":"","admin1":"04","admin2":"20466","admin3":"","admin4":"","population":0,"elevation":0,"gtopo30":275,"timezone":"Europe/Bucharest","moddate":"2016-02-07T00:00:00.000Z"},{"geonameid":678800,"name":"Dubaşu","asciiname":"Dubasu","alternatenames":"","latitude":"46.6333300","longitude":"26.7000000","fclass":"P","fcode":"PPL","country":"RO","cc2":"","admin1":"04","admin2":"20466","admin3":"","admin4":"","population":0,"elevation":0,"gtopo30":451,"timezone":"Europe/Bucharest","moddate":"2016-02-07T00:00:00.000Z"},{"geonameid":674378,"name":"Luncani","asciiname":"Luncani","alternatenames":"","latitude":"46.6089000","longitude":"26.7626000","fclass":"P","fcode":"PPL","country":"RO","cc2":"","admin1":"04","admin2":"20466","admin3":"","admin4":"","population":730,"elevation":0,"gtopo30":219,"timezone":"Europe/Bucharest","moddate":"2013-04-21T00:00:00.000Z"},{"geonameid":673795,"name":"Mărgineni","asciiname":"Margineni","alternatenames":"Margineni,Margineni-Razesi,Margineni-Ungureni,Mărgineni,Mărgineni-Răzeşi,Mărgineni-Ungureni","latitude":"46.5876000","longitude":"26.8509500","fclass":"P","fcode":"PPLA2","country":"RO","cc2":"RO","admin1":"04","admin2":"20466","admin3":"","admin4":"","population":2817,"elevation":0,"gtopo30":198,"timezone":"Europe/Bucharest","moddate":"2013-04-21T00:00:00.000Z"},{"geonameid":673783,"name":"Mărgineni-Munteni","asciiname":"Margineni-Munteni","alternatenames":"Margineni-Munteni,Mărgineni-Munteni","latitude":"46.6000000","longitude":"26.9000000","fclass":"P","fcode":"PPL","country":"RO","cc2":"","admin1":"04","admin2":"20466","admin3":"","admin4":"","population":8033,"elevation":0,"gtopo30":164,"timezone":"Europe/Bucharest","moddate":"2018-07-04T00:00:00.000Z"},{"geonameid":671530,"name":"Pădureni","asciiname":"Padureni","alternatenames":"Padureni,Pădureni,Secatura,Secătura","latitude":"46.5798400","longitude":"26.8312400","fclass":"P","fcode":"PPL","country":"RO","cc2":"RO","admin1":"04","admin2":"20466","admin3":"","admin4":"","population":355,"elevation":0,"gtopo30":217,"timezone":"Europe/Bucharest","moddate":"2013-04-21T00:00:00.000Z"},{"geonameid":670323,"name":"Podiș","asciiname":"Podis","alternatenames":"Podisu,Podisu Slobozia,Podişu,Podişu Slobozia","latitude":"46.6141900","longitude":"26.7244200","fclass":"P","fcode":"PPL","country":"RO","cc2":"RO","admin1":"04","admin2":"20466","admin3":"","admin4":"","population":467,"elevation":0,"gtopo30":244,"timezone":"Europe/Bucharest","moddate":"2013-04-21T00:00:00.000Z"},{"geonameid":670136,"name":"Poiana","asciiname":"Poiana","alternatenames":"Lingurari,Poiana","latitude":"46.6251700","longitude":"26.7413400","fclass":"P","fcode":"PPL","country":"RO","cc2":"RO","admin1":"04","admin2":"20466","admin3":"","admin4":"","population":149,"elevation":0,"gtopo30":251,"timezone":"Europe/Bucharest","moddate":"2013-04-21T00:00:00.000Z"},{"geonameid":664874,"name":"Tocila","asciiname":"Tocila","alternatenames":"","latitude":"46.6166700","longitude":"26.7500000","fclass":"P","fcode":"PPL","country":"RO","cc2":"","admin1":"04","admin2":"20466","admin3":"","admin4":"","population":0,"elevation":0,"gtopo30":310,"timezone":"Europe/Bucharest","moddate":"2016-02-07T00:00:00.000Z"},{"geonameid":664653,"name":"Trebeș","asciiname":"Trebes","alternatenames":"Terebes,Trebis,Trebisul,Trebiş,Trebişul","latitude":"46.6000000","longitude":"26.8333300","fclass":"P","fcode":"PPL","country":"RO","cc2":"","admin1":"04","admin2":"20466","admin3":"","admin4":"","population":459,"elevation":0,"gtopo30":256,"timezone":"Europe/Bucharest","moddate":"2015-11-13T00:00:00.000Z"},{"geonameid":663870,"name":"Valea Budului","asciiname":"Valea Budului","alternatenames":"","latitude":"46.5962000","longitude":"26.8190100","fclass":"P","fcode":"PPL","country":"RO","cc2":"","admin1":"04","admin2":"20466","admin3":"","admin4":"","population":351,"elevation":0,"gtopo30":201,"timezone":"Europe/Bucharest","moddate":"2013-04-20T00:00:00.000Z"}],"admin3":[],"alternateNames":[]},"__N_SSG":true}