{"pageProps":{"locale":"ro","admin2":{"geonameid":8334631,"name":"Oraş Pucioasa","country":"RO","admin1":"16","admin2":"65921","admin3":"","latitude":"45.0757000","longitude":"25.4333500"},"admin1":{"geonameid":679385,"name":"Dâmboviţa","admin1":"16"},"locations":[{"geonameid":685788,"name":"Băile Pucioasa","asciiname":"Baile Pucioasa","alternatenames":"","latitude":"45.0833300","longitude":"25.4166700","fclass":"P","fcode":"PPLX","country":"RO","cc2":"","admin1":"16","admin2":"65921","admin3":"","admin4":"","population":0,"elevation":0,"gtopo30":433,"timezone":"Europe/Bucharest","moddate":"2016-02-07T00:00:00.000Z"},{"geonameid":685169,"name":"Bela","asciiname":"Bela","alternatenames":"","latitude":"45.0995300","longitude":"25.4353400","fclass":"P","fcode":"PPLX","country":"RO","cc2":"","admin1":"16","admin2":"65921","admin3":"","admin4":"","population":669,"elevation":0,"gtopo30":480,"timezone":"Europe/Bucharest","moddate":"2013-04-21T00:00:00.000Z"},{"geonameid":679435,"name":"Diaconești","asciiname":"Diaconesti","alternatenames":"","latitude":"45.0929000","longitude":"25.4535000","fclass":"P","fcode":"PPLX","country":"RO","cc2":"","admin1":"16","admin2":"65921","admin3":"","admin4":"","population":534,"elevation":0,"gtopo30":428,"timezone":"Europe/Bucharest","moddate":"2013-04-21T00:00:00.000Z"},{"geonameid":677041,"name":"Glodeni","asciiname":"Glodeni","alternatenames":"","latitude":"45.0634500","longitude":"25.4534200","fclass":"P","fcode":"PPLX","country":"RO","cc2":"","admin1":"16","admin2":"65921","admin3":"","admin4":"","population":1187,"elevation":0,"gtopo30":412,"timezone":"Europe/Bucharest","moddate":"2013-04-21T00:00:00.000Z"},{"geonameid":673972,"name":"Maluri-Cătun","asciiname":"Maluri-Catun","alternatenames":"","latitude":"45.0833300","longitude":"25.4166700","fclass":"P","fcode":"PPLX","country":"RO","cc2":"","admin1":"16","admin2":"65921","admin3":"","admin4":"","population":0,"elevation":0,"gtopo30":433,"timezone":"Europe/Bucharest","moddate":"2016-02-07T00:00:00.000Z"},{"geonameid":673971,"name":"Malurile","asciiname":"Malurile","alternatenames":"","latitude":"45.0591500","longitude":"25.4771200","fclass":"P","fcode":"PPLX","country":"RO","cc2":"","admin1":"16","admin2":"65921","admin3":"","admin4":"","population":159,"elevation":0,"gtopo30":433,"timezone":"Europe/Bucharest","moddate":"2013-04-21T00:00:00.000Z"},{"geonameid":10942424,"name":"Miculești","asciiname":"Miculesti","alternatenames":"","latitude":"45.0959100","longitude":"25.4438000","fclass":"P","fcode":"PPL","country":"RO","cc2":"","admin1":"16","admin2":"65921","admin3":"","admin4":"","population":464,"elevation":0,"gtopo30":422,"timezone":"Europe/Bucharest","moddate":"2015-11-24T00:00:00.000Z"},{"geonameid":670263,"name":"Podurile de Sus","asciiname":"Podurile de Sus","alternatenames":"","latitude":"45.0833300","longitude":"25.4166700","fclass":"P","fcode":"PPLX","country":"RO","cc2":"","admin1":"16","admin2":"65921","admin3":"","admin4":"","population":0,"elevation":0,"gtopo30":433,"timezone":"Europe/Bucharest","moddate":"2016-02-07T00:00:00.000Z"},{"geonameid":669606,"name":"Priseaca","asciiname":"Priseaca","alternatenames":"","latitude":"45.0833300","longitude":"25.4166700","fclass":"P","fcode":"PPLX","country":"RO","cc2":"","admin1":"16","admin2":"65921","admin3":"","admin4":"","population":0,"elevation":0,"gtopo30":433,"timezone":"Europe/Bucharest","moddate":"2016-02-07T00:00:00.000Z"},{"geonameid":669517,"name":"Pucioasa","asciiname":"Pucioasa","alternatenames":"Pucioasa","latitude":"45.0780700","longitude":"25.4323200","fclass":"P","fcode":"PPLA2","country":"RO","cc2":"","admin1":"16","admin2":"65921","admin3":"","admin4":"","population":14971,"elevation":0,"gtopo30":407,"timezone":"Europe/Bucharest","moddate":"2012-06-12T00:00:00.000Z"},{"geonameid":669516,"name":"Pucioasa-Sat","asciiname":"Pucioasa-Sat","alternatenames":"","latitude":"45.0649400","longitude":"25.4256600","fclass":"P","fcode":"PPLX","country":"RO","cc2":"","admin1":"16","admin2":"65921","admin3":"","admin4":"","population":415,"elevation":0,"gtopo30":384,"timezone":"Europe/Bucharest","moddate":"2013-04-21T00:00:00.000Z"},{"geonameid":667369,"name":"Şerbăneşti","asciiname":"Serbanesti","alternatenames":"","latitude":"45.0833300","longitude":"25.4166700","fclass":"P","fcode":"PPLX","country":"RO","cc2":"","admin1":"16","admin2":"65921","admin3":"","admin4":"","population":0,"elevation":0,"gtopo30":433,"timezone":"Europe/Bucharest","moddate":"2016-02-07T00:00:00.000Z"},{"geonameid":665958,"name":"Strâmbu","asciiname":"Strambu","alternatenames":"Strambu,Strimbu,Strâmbu,Strîmbu","latitude":"45.0833300","longitude":"25.4166700","fclass":"P","fcode":"PPLX","country":"RO","cc2":"","admin1":"16","admin2":"65921","admin3":"","admin4":"","population":0,"elevation":0,"gtopo30":433,"timezone":"Europe/Bucharest","moddate":"2020-03-08T00:00:00.000Z"}],"admin3":[],"alternateNames":[]},"__N_SSG":true}