{"pageProps":{"locale":"ro","admin2":{"geonameid":8334788,"name":"Comuna Drãcşenei","country":"RO","admin1":"35","admin2":"152797","admin3":"","latitude":"44.2071500","longitude":"25.0037000"},"admin1":{"geonameid":665283,"name":"Teleorman","admin1":"35"},"locations":[{"geonameid":679023,"name":"Drăcşani","asciiname":"Dracsani","alternatenames":"Dracsani,Dracsenei,Drăcşani,Drăcşenei","latitude":"44.2166700","longitude":"24.9833300","fclass":"P","fcode":"PPL","country":"RO","cc2":"","admin1":"35","admin2":"152797","admin3":"","admin4":"","population":3616,"elevation":0,"gtopo30":113,"timezone":"Europe/Bucharest","moddate":"2016-02-07T00:00:00.000Z"},{"geonameid":11002736,"name":"Drăcșenei","asciiname":"Dracsenei","alternatenames":"","latitude":"44.2267600","longitude":"24.9854200","fclass":"P","fcode":"PPLA2","country":"RO","cc2":"","admin1":"35","admin2":"152797","admin3":"","admin4":"","population":783,"elevation":0,"gtopo30":115,"timezone":"Europe/Bucharest","moddate":"2016-01-02T00:00:00.000Z"},{"geonameid":671976,"name":"Odobeasca","asciiname":"Odobeasca","alternatenames":"","latitude":"44.1970300","longitude":"25.0103800","fclass":"P","fcode":"PPL","country":"RO","cc2":"","admin1":"35","admin2":"152797","admin3":"","admin4":"","population":453,"elevation":0,"gtopo30":103,"timezone":"Europe/Bucharest","moddate":"2013-04-21T00:00:00.000Z"},{"geonameid":667879,"name":"Satul Vechi","asciiname":"Satul Vechi","alternatenames":"Muti,Muţi,Satul Vechi","latitude":"44.1930500","longitude":"25.0289300","fclass":"P","fcode":"PPL","country":"RO","cc2":"RO","admin1":"35","admin2":"152797","admin3":"","admin4":"","population":163,"elevation":0,"gtopo30":98,"timezone":"Europe/Bucharest","moddate":"2013-04-21T00:00:00.000Z"}],"admin3":[],"alternateNames":[]},"__N_SSG":true}