{"pageProps":{"locale":"ro","admin2":{"geonameid":668303,"name":"Comuna Sacoşu Turcesc","country":"RO","admin1":"36","admin2":"158449","admin3":"","latitude":"45.6352600","longitude":"21.3982800"},"admin1":{"geonameid":665091,"name":"Timiş","admin1":"36"},"locations":[{"geonameid":685001,"name":"Berini","asciiname":"Berini","alternatenames":"Bereny,Berini,Berény,Temesbereny,Temesberény","latitude":"45.5831600","longitude":"21.4322200","fclass":"P","fcode":"PPL","country":"RO","cc2":"RO","admin1":"36","admin2":"158449","admin3":"","admin4":"","population":495,"elevation":0,"gtopo30":105,"timezone":"Europe/Bucharest","moddate":"2013-04-21T00:00:00.000Z"},{"geonameid":675761,"name":"Icloda","asciiname":"Icloda","alternatenames":"Icloda,Iklod,Ikloda,Iklód","latitude":"45.6431300","longitude":"21.3885600","fclass":"P","fcode":"PPL","country":"RO","cc2":"RO","admin1":"36","admin2":"158449","admin3":"","admin4":"","population":268,"elevation":0,"gtopo30":95,"timezone":"Europe/Bucharest","moddate":"2013-04-21T00:00:00.000Z"},{"geonameid":671587,"name":"Otvești","asciiname":"Otvesti","alternatenames":"Eotvosfalva,Eötvösfalva,Otvesti,Otveşti,Otvosd,Ötvösd","latitude":"45.6220100","longitude":"21.4391700","fclass":"P","fcode":"PPL","country":"RO","cc2":"RO","admin1":"36","admin2":"158449","admin3":"","admin4":"","population":279,"elevation":0,"gtopo30":98,"timezone":"Europe/Bucharest","moddate":"2013-04-21T00:00:00.000Z"},{"geonameid":668304,"name":"Sacoşu Turcesc","asciiname":"Sacosu Turcesc","alternatenames":"Sacosu Turcesc,Sacosu-Mare,Sacosul Turcesu,Sacosul-Mare,Sacosul-Turcesc,Sacoşu Turcesc,Sacoşu-Mare,Sacoşul Turcesu,Sacoşul-Mare,Sacoşul-Turcesc,Sacoșu Turcesc,Toeroekszakos,Torokszakos,Törökszákos","latitude":"45.6519400","longitude":"21.4288900","fclass":"P","fcode":"PPLA2","country":"RO","cc2":"","admin1":"36","admin2":"158449","admin3":"","admin4":"","population":3121,"elevation":0,"gtopo30":95,"timezone":"Europe/Bucharest","moddate":"2015-04-11T00:00:00.000Z"},{"geonameid":666325,"name":"Stamora Română","asciiname":"Stamora Romana","alternatenames":"Felsosztamora,Felsősztamora,Olah-Sztamora,Oláh-Sztamora,Roman-Sztamora,Román-Sztamora,Rumanisch-Stmora,Rumänisch-Stmora,Stamora Romana,Stamora Romina,Stamora Română,Stamora Romînă","latitude":"45.6090300","longitude":"21.3998600","fclass":"P","fcode":"PPL","country":"RO","cc2":"RO","admin1":"36","admin2":"158449","admin3":"","admin4":"","population":356,"elevation":0,"gtopo30":99,"timezone":"Europe/Bucharest","moddate":"2013-04-21T00:00:00.000Z"},{"geonameid":664320,"name":"Uliuc","asciiname":"Uliuc","alternatenames":"Temesujlak,Temesújlak,Uiluc,Ujlak,Uliuc,Újlak","latitude":"45.6772400","longitude":"21.3607500","fclass":"P","fcode":"PPL","country":"RO","cc2":"RO","admin1":"36","admin2":"158449","admin3":"","admin4":"","population":658,"elevation":0,"gtopo30":92,"timezone":"Europe/Bucharest","moddate":"2013-04-21T00:00:00.000Z"},{"geonameid":664206,"name":"Unip","asciiname":"Unip","alternatenames":"Temesujnep,Temesújnép,Ujnep,Unip,Újnép","latitude":"45.6568000","longitude":"21.3369900","fclass":"P","fcode":"PPL","country":"RO","cc2":"RO","admin1":"36","admin2":"158449","admin3":"","admin4":"","population":280,"elevation":0,"gtopo30":91,"timezone":"Europe/Bucharest","moddate":"2013-04-20T00:00:00.000Z"}],"admin3":[],"alternateNames":[]},"__N_SSG":true}