{"pageProps":{"locale":"ro","admin2":{"geonameid":676105,"name":"Comuna Hodod","country":"RO","admin1":"32","admin2":"137844","admin3":"","latitude":"47.3987000","longitude":"23.0463300"},"admin1":{"geonameid":667869,"name":"Satu Mare","admin1":"32"},"locations":[{"geonameid":677098,"name":"Giurtelecu Hododului","asciiname":"Giurtelecu Hododului","alternatenames":"Ciurtelecul Hododului,Giurtelecu-Hododului,Giurtelecul Hododului,Giurtelecul-Hodotului","latitude":"47.4165500","longitude":"23.0929500","fclass":"P","fcode":"PPL","country":"RO","cc2":"RO","admin1":"32","admin2":"137844","admin3":"","admin4":"","population":892,"elevation":0,"gtopo30":208,"timezone":"Europe/Bucharest","moddate":"2013-04-21T00:00:00.000Z"},{"geonameid":676106,"name":"Hodod","asciiname":"Hodod","alternatenames":"Hadad,Hodod","latitude":"47.4000000","longitude":"23.0333300","fclass":"P","fcode":"PPLA2","country":"RO","cc2":"","admin1":"32","admin2":"137844","admin3":"","admin4":"","population":3131,"elevation":0,"gtopo30":243,"timezone":"Europe/Bucharest","moddate":"2012-06-12T00:00:00.000Z"},{"geonameid":674907,"name":"Lelei","asciiname":"Lelei","alternatenames":"Leleiu,Leleiul","latitude":"47.3758600","longitude":"23.0681600","fclass":"P","fcode":"PPL","country":"RO","cc2":"RO","admin1":"32","admin2":"137844","admin3":"","admin4":"","population":728,"elevation":0,"gtopo30":239,"timezone":"Europe/Bucharest","moddate":"2013-04-21T00:00:00.000Z"},{"geonameid":672547,"name":"Nadișu Hododului","asciiname":"Nadisu Hododului","alternatenames":"Nadisu-Hododului,Nadisul Hododului,Nadişu-Hododului,Nadişul Hododului","latitude":"47.3998000","longitude":"22.9991800","fclass":"P","fcode":"PPL","country":"RO","cc2":"RO","admin1":"32","admin2":"137844","admin3":"","admin4":"","population":806,"elevation":0,"gtopo30":189,"timezone":"Europe/Bucharest","moddate":"2013-04-21T00:00:00.000Z"}],"admin3":[],"alternateNames":[]},"__N_SSG":true}