{"pageProps":{"locale":"ro","admin2":{"geonameid":686085,"name":"Comuna Aşchileu","country":"RO","admin1":"13","admin2":"55776","admin3":"","latitude":"46.9849800","longitude":"23.4846800"},"admin1":{"geonameid":681291,"name":"Cluj","admin1":"13"},"locations":[{"geonameid":686084,"name":"Aşchileu Dorna","asciiname":"Aschileu Dorna","alternatenames":"","latitude":"46.9833300","longitude":"23.4833300","fclass":"P","fcode":"PPLX","country":"RO","cc2":"","admin1":"13","admin2":"55776","admin3":"","admin4":"","population":1831,"elevation":0,"gtopo30":436,"timezone":"Europe/Bucharest","moddate":"2016-02-07T00:00:00.000Z"},{"geonameid":686083,"name":"Ășchileu Mare","asciiname":"Aschileu Mare","alternatenames":"Aschileu Mare,Aschileul-Mare,Aşchileu Mare","latitude":"46.9828400","longitude":"23.4926300","fclass":"P","fcode":"PPL","country":"RO","cc2":"RO","admin1":"13","admin2":"55776","admin3":"","admin4":"","population":695,"elevation":0,"gtopo30":369,"timezone":"Europe/Bucharest","moddate":"2013-04-21T00:00:00.000Z"},{"geonameid":686082,"name":"Ășchileu Mic","asciiname":"Aschileu Mic","alternatenames":"Aschileu Mic,Aschileul-Mic,Aşchileu Mic","latitude":"46.9851700","longitude":"23.4377800","fclass":"P","fcode":"PPL","country":"RO","cc2":"RO","admin1":"13","admin2":"55776","admin3":"","admin4":"","population":388,"elevation":0,"gtopo30":399,"timezone":"Europe/Bucharest","moddate":"2013-04-21T00:00:00.000Z"},{"geonameid":680153,"name":"Cristorel","asciiname":"Cristorel","alternatenames":"","latitude":"46.9648000","longitude":"23.4633100","fclass":"P","fcode":"PPL","country":"RO","cc2":"","admin1":"13","admin2":"55776","admin3":"","admin4":"","population":465,"elevation":0,"gtopo30":402,"timezone":"Europe/Bucharest","moddate":"2013-04-21T00:00:00.000Z"},{"geonameid":679093,"name":"Dorna","asciiname":"Dorna","alternatenames":"","latitude":"47.0136300","longitude":"23.5041200","fclass":"P","fcode":"PPL","country":"RO","cc2":"","admin1":"13","admin2":"55776","admin3":"","admin4":"","population":75,"elevation":0,"gtopo30":419,"timezone":"Europe/Bucharest","moddate":"2013-04-21T00:00:00.000Z"},{"geonameid":678011,"name":"Fodora","asciiname":"Fodora","alternatenames":"","latitude":"46.9784500","longitude":"23.5255400","fclass":"P","fcode":"PPL","country":"RO","cc2":"","admin1":"13","admin2":"55776","admin3":"","admin4":"","population":329,"elevation":0,"gtopo30":361,"timezone":"Europe/Bucharest","moddate":"2013-04-21T00:00:00.000Z"}],"admin3":[],"alternateNames":[]},"__N_SSG":true}