{"pageProps":{"locale":"ro","admin2":{"geonameid":682158,"name":"Comuna Chiajna","country":"RO","admin1":"43","admin2":"179249","admin3":"","latitude":"44.4549900","longitude":"25.9934500"},"admin1":{"geonameid":865518,"name":"Ilfov","admin1":"43"},"locations":[{"geonameid":682159,"name":"Chiajna","asciiname":"Chiajna","alternatenames":"Cheajna,Chiajna","latitude":"44.4600000","longitude":"25.9733300","fclass":"P","fcode":"PPLA2","country":"RO","cc2":"","admin1":"43","admin2":"179249","admin3":"","admin4":"","population":8105,"elevation":0,"gtopo30":94,"timezone":"Europe/Bucharest","moddate":"2012-06-12T00:00:00.000Z"},{"geonameid":681761,"name":"Cioc","asciiname":"Cioc","alternatenames":"","latitude":"44.4666700","longitude":"25.9666700","fclass":"P","fcode":"PPLX","country":"RO","cc2":"","admin1":"43","admin2":"179249","admin3":"","admin4":"","population":0,"elevation":0,"gtopo30":83,"timezone":"Europe/Bucharest","moddate":"2016-02-07T00:00:00.000Z"},{"geonameid":678778,"name":"Dudu","asciiname":"Dudu","alternatenames":"Dudu,Dudul","latitude":"44.4562100","longitude":"25.9906800","fclass":"P","fcode":"PPL","country":"RO","cc2":"RO","admin1":"43","admin2":"179249","admin3":"","admin4":"","population":757,"elevation":0,"gtopo30":95,"timezone":"Europe/Bucharest","moddate":"2013-04-21T00:00:00.000Z"},{"geonameid":668600,"name":"Roșu","asciiname":"Rosu","alternatenames":"Rosu,Rosul,Roşu,Roşul","latitude":"44.4502500","longitude":"26.0112200","fclass":"P","fcode":"PPL","country":"RO","cc2":"RO","admin1":"43","admin2":"179249","admin3":"","admin4":"","population":2970,"elevation":0,"gtopo30":91,"timezone":"Europe/Bucharest","moddate":"2013-04-21T00:00:00.000Z"}],"admin3":[],"alternateNames":[{"alternatenameId":8321538,"geonameid":865518,"isoLanguage":"en","alternateName":"Ilfov","isPreferredName":true,"isShortName":true,"isColloquial":false,"isHistoric":false}]},"__N_SSG":true}