{"pageProps":{"locale":"ro","admin2":{"geonameid":685849,"name":"Comuna Bahnea","country":"RO","admin1":"27","admin2":"115307","admin3":"","latitude":"46.3195500","longitude":"24.4808400"},"admin1":{"geonameid":672628,"name":"Mure≈ü","admin1":"27"},"locations":[{"geonameid":685850,"name":"Bahnea","asciiname":"Bahnea","alternatenames":"Bachnea,Bahnea","latitude":"46.3666700","longitude":"24.4833300","fclass":"P","fcode":"PPLA2","country":"RO","cc2":"","admin1":"27","admin2":"115307","admin3":"","admin4":"","population":3754,"elevation":0,"gtopo30":332,"timezone":"Europe/Bucharest","moddate":"2012-06-12T00:00:00.000Z"},{"geonameid":684986,"name":"Bernadea","asciiname":"Bernadea","alternatenames":"Bernadea,Bernadia","latitude":"46.3740700","longitude":"24.4584700","fclass":"P","fcode":"PPL","country":"RO","cc2":"RO","admin1":"27","admin2":"115307","admin3":"","admin4":"","population":194,"elevation":0,"gtopo30":328,"timezone":"Europe/Bucharest","moddate":"2013-04-21T00:00:00.000Z"},{"geonameid":679962,"name":"Cund","asciiname":"Cund","alternatenames":"","latitude":"46.2727800","longitude":"24.5122900","fclass":"P","fcode":"PPL","country":"RO","cc2":"","admin1":"27","admin2":"115307","admin3":"","admin4":"","population":197,"elevation":0,"gtopo30":370,"timezone":"Europe/Bucharest","moddate":"2013-04-21T00:00:00.000Z"},{"geonameid":679817,"name":"Daia","asciiname":"Daia","alternatenames":"","latitude":"46.3056000","longitude":"24.4627600","fclass":"P","fcode":"PPL","country":"RO","cc2":"","admin1":"27","admin2":"115307","admin3":"","admin4":"","population":261,"elevation":0,"gtopo30":362,"timezone":"Europe/Bucharest","moddate":"2013-04-21T00:00:00.000Z"},{"geonameid":676989,"name":"Gogan","asciiname":"Gogan","alternatenames":"","latitude":"46.3049200","longitude":"24.5171200","fclass":"P","fcode":"PPL","country":"RO","cc2":"","admin1":"27","admin2":"115307","admin3":"","admin4":"","population":724,"elevation":0,"gtopo30":358,"timezone":"Europe/Bucharest","moddate":"2013-04-21T00:00:00.000Z"},{"geonameid":676987,"name":"Gogan-Varolea","asciiname":"Gogan-Varolea","alternatenames":"","latitude":"46.3000000","longitude":"24.5166700","fclass":"P","fcode":"PPL","country":"RO","cc2":"","admin1":"27","admin2":"115307","admin3":"","admin4":"","population":0,"elevation":0,"gtopo30":353,"timezone":"Europe/Bucharest","moddate":"2016-02-07T00:00:00.000Z"},{"geonameid":675744,"name":"Idiciu","asciiname":"Idiciu","alternatenames":"Idiciu,Idiciul","latitude":"46.2762500","longitude":"24.4610500","fclass":"P","fcode":"PPL","country":"RO","cc2":"RO","admin1":"27","admin2":"115307","admin3":"","admin4":"","population":371,"elevation":0,"gtopo30":391,"timezone":"Europe/Bucharest","moddate":"2013-04-21T00:00:00.000Z"},{"geonameid":674870,"name":"Lepindea","asciiname":"Lepindea","alternatenames":"","latitude":"46.3288900","longitude":"24.4754600","fclass":"P","fcode":"PPL","country":"RO","cc2":"","admin1":"27","admin2":"115307","admin3":"","admin4":"","population":270,"elevation":0,"gtopo30":327,"timezone":"Europe/Bucharest","moddate":"2013-04-21T00:00:00.000Z"}],"admin3":[],"alternateNames":[]},"__N_SSG":true}