{"pageProps":{"locale":"en","admin2":{"geonameid":3333208,"name":"Borough of Tameside","country":"GB","admin1":"ENG","admin2":"O1","admin3":"","latitude":"53.5000000","longitude":"-2.0833300","localeAltName":"Tameside"},"admin1":{"geonameid":6269131,"name":"England","admin1":"ENG","localeAltName":"England"},"locations":[{"geonameid":2656915,"name":"Ashton-under-Lyne","asciiname":"Ashton-under-Lyne","alternatenames":"Ashton,Ashton-under-Lyne,Ehshton-ander-Lajn,ashtwn-andr-lyn,Эштон-андер-Лайн,اشتون-آندر-لین","latitude":"53.4887600","longitude":"-2.0989000","fclass":"P","fcode":"PPLA2","country":"GB","cc2":"","admin1":"ENG","admin2":"O1","admin3":"","admin4":"","population":43675,"elevation":0,"gtopo30":108,"timezone":"Europe/London","moddate":"2010-10-16T00:00:00.000Z"},{"geonameid":11593057,"name":"Broadbottom","asciiname":"Broadbottom","alternatenames":"","latitude":"53.4406300","longitude":"-2.0111800","fclass":"P","fcode":"PPL","country":"GB","cc2":"","admin1":"ENG","admin2":"O1","admin3":"","admin4":"","population":0,"elevation":0,"gtopo30":143,"timezone":"Europe/London","moddate":"2017-06-20T00:00:00.000Z"},{"geonameid":2651357,"name":"Denton","asciiname":"Denton","alternatenames":"","latitude":"53.4567800","longitude":"-2.1182200","fclass":"P","fcode":"PPL","country":"GB","cc2":"","admin1":"ENG","admin2":"O1","admin3":"","admin4":"","population":27464,"elevation":0,"gtopo30":101,"timezone":"Europe/London","moddate":"2013-07-11T00:00:00.000Z"},{"geonameid":2650962,"name":"Droylsden","asciiname":"Droylsden","alternatenames":"Droylesden,Droylsden","latitude":"53.4800500","longitude":"-2.1454300","fclass":"P","fcode":"PPL","country":"GB","cc2":"","admin1":"ENG","admin2":"O1","admin3":"00BS001","admin4":"","population":23689,"elevation":0,"gtopo30":100,"timezone":"Europe/London","moddate":"2011-03-03T00:00:00.000Z"},{"geonameid":2650815,"name":"Dukinfield","asciiname":"Dukinfield","alternatenames":"dakynfyld,داکینفیلد","latitude":"53.4749700","longitude":"-2.0880900","fclass":"P","fcode":"PPL","country":"GB","cc2":"","admin1":"ENG","admin2":"O1","admin3":"","admin4":"","population":19306,"elevation":0,"gtopo30":128,"timezone":"Europe/London","moddate":"2013-07-11T00:00:00.000Z"},{"geonameid":2647795,"name":"Guide Bridge","asciiname":"Guide Bridge","alternatenames":"","latitude":"53.4745400","longitude":"-2.1139500","fclass":"P","fcode":"PPL","country":"GB","cc2":"","admin1":"ENG","admin2":"O1","admin3":"00BT001","admin4":"","population":0,"elevation":0,"gtopo30":99,"timezone":"Europe/London","moddate":"2011-03-03T00:00:00.000Z"},{"geonameid":7281593,"name":"Hattersley","asciiname":"Hattersley","alternatenames":"","latitude":"53.4479000","longitude":"-2.0278000","fclass":"P","fcode":"PPL","country":"GB","cc2":"","admin1":"ENG","admin2":"O1","admin3":"","admin4":"","population":0,"elevation":0,"gtopo30":180,"timezone":"Europe/London","moddate":"2010-03-17T00:00:00.000Z"},{"geonameid":6691255,"name":"Haughton Green","asciiname":"Haughton Green","alternatenames":"","latitude":"53.4411800","longitude":"-2.0982700","fclass":"P","fcode":"PPLX","country":"GB","cc2":"","admin1":"ENG","admin2":"O1","admin3":"00BS001","admin4":"","population":9000,"elevation":0,"gtopo30":113,"timezone":"Europe/London","moddate":"2011-03-03T00:00:00.000Z"},{"geonameid":6691237,"name":"Hollingworth","asciiname":"Hollingworth","alternatenames":"","latitude":"53.4630000","longitude":"-1.9910000","fclass":"P","fcode":"PPLX","country":"GB","cc2":"","admin1":"ENG","admin2":"O1","admin3":"","admin4":"","population":2447,"elevation":0,"gtopo30":151,"timezone":"Europe/London","moddate":"2017-05-23T00:00:00.000Z"},{"geonameid":11551007,"name":"Hurst","asciiname":"Hurst","alternatenames":"","latitude":"53.4980800","longitude":"-2.0836300","fclass":"P","fcode":"PPL","country":"GB","cc2":"","admin1":"ENG","admin2":"O1","admin3":"","admin4":"","population":0,"elevation":0,"gtopo30":154,"timezone":"Europe/London","moddate":"2017-06-08T00:00:00.000Z"},{"geonameid":2646327,"name":"Hyde","asciiname":"Hyde","alternatenames":"","latitude":"53.4513100","longitude":"-2.0794300","fclass":"P","fcode":"PPL","country":"GB","cc2":"","admin1":"ENG","admin2":"O1","admin3":"","admin4":"","population":31926,"elevation":0,"gtopo30":112,"timezone":"Europe/London","moddate":"2013-07-11T00:00:00.000Z"},{"geonameid":2643704,"name":"Longdendale","asciiname":"Longdendale","alternatenames":"","latitude":"53.4666700","longitude":"-2.0000000","fclass":"P","fcode":"PPL","country":"GB","cc2":"","admin1":"ENG","admin2":"O1","admin3":"","admin4":"","population":8873,"elevation":0,"gtopo30":203,"timezone":"Europe/London","moddate":"2013-07-11T00:00:00.000Z"},{"geonameid":2642641,"name":"Micklehurst","asciiname":"Micklehurst","alternatenames":"","latitude":"53.5144400","longitude":"-2.0318400","fclass":"P","fcode":"PPL","country":"GB","cc2":"","admin1":"ENG","admin2":"O1","admin3":"00BT001","admin4":"","population":0,"elevation":0,"gtopo30":153,"timezone":"Europe/London","moddate":"2011-03-03T00:00:00.000Z"},{"geonameid":2642524,"name":"Millbrook","asciiname":"Millbrook","alternatenames":"","latitude":"53.4930500","longitude":"-2.0320400","fclass":"P","fcode":"PPL","country":"GB","cc2":"","admin1":"ENG","admin2":"O1","admin3":"","admin4":"","population":0,"elevation":0,"gtopo30":154,"timezone":"Europe/London","moddate":"2013-07-11T00:00:00.000Z"},{"geonameid":2642143,"name":"Mossley","asciiname":"Mossley","alternatenames":"mwsly,موسلی","latitude":"53.5145400","longitude":"-2.0346200","fclass":"P","fcode":"PPLA3","country":"GB","cc2":"","admin1":"ENG","admin2":"O1","admin3":"00BT001","admin4":"","population":9929,"elevation":0,"gtopo30":144,"timezone":"Europe/London","moddate":"2011-07-31T00:00:00.000Z"},{"geonameid":2642131,"name":"Mottram in Longdendale","asciiname":"Mottram in Longdendale","alternatenames":"Mottram,Mottram in Longdendale","latitude":"53.4590300","longitude":"-2.0116100","fclass":"P","fcode":"PPL","country":"GB","cc2":"","admin1":"ENG","admin2":"O1","admin3":"","admin4":"","population":0,"elevation":0,"gtopo30":205,"timezone":"Europe/London","moddate":"2016-03-02T00:00:00.000Z"},{"geonameid":6691256,"name":"Newton Moor Industrial Estate","asciiname":"Newton Moor Industrial Estate","alternatenames":"","latitude":"53.4628600","longitude":"-2.0690300","fclass":"P","fcode":"PPLX","country":"GB","cc2":"","admin1":"ENG","admin2":"O1","admin3":"","admin4":"","population":0,"elevation":0,"gtopo30":139,"timezone":"Europe/London","moddate":"2010-05-25T00:00:00.000Z"},{"geonameid":2637106,"name":"Stalybridge","asciiname":"Stalybridge","alternatenames":"Stalibridzh,Stalybridge,Сталибридж,استالی‌بریج","latitude":"53.4841400","longitude":"-2.0590800","fclass":"P","fcode":"PPL","country":"GB","cc2":"","admin1":"ENG","admin2":"O1","admin3":"00BT001","admin4":"","population":22748,"elevation":0,"gtopo30":114,"timezone":"Europe/London","moddate":"2011-03-03T00:00:00.000Z"}],"admin3":[{"geonameid":7291795,"name":"Mossley","admin3":"00BT001"}],"alternateNames":[{"alternatenameId":8666531,"geonameid":3333208,"isoLanguage":"en","alternateName":"Tameside","isPreferredName":true,"isShortName":true,"isColloquial":false,"isHistoric":false},{"alternatenameId":1626647,"geonameid":6269131,"isoLanguage":"en","alternateName":"England","isPreferredName":true,"isShortName":true,"isColloquial":false,"isHistoric":false}]},"__N_SSG":true}