{"pageProps":{"locale":"en","admin2":{"geonameid":2646007,"name":"Isle of Wight","country":"GB","admin1":"ENG","admin2":"G2","admin3":"","latitude":"50.6666700","longitude":"-1.3333300","localeAltName":"Isle of Wight"},"admin1":{"geonameid":6269131,"name":"England","admin1":"ENG","localeAltName":"England"},"locations":[{"geonameid":2657391,"name":"Alverstone","asciiname":"Alverstone","alternatenames":"Alverstone","latitude":"50.6674400","longitude":"-1.1860100","fclass":"P","fcode":"PPL","country":"GB","cc2":"","admin1":"ENG","admin2":"G2","admin3":"00MW014","admin4":"","population":0,"elevation":0,"gtopo30":9,"timezone":"Europe/London","moddate":"2014-08-27T00:00:00.000Z"},{"geonameid":9883997,"name":"Alverstone Garden Village","asciiname":"Alverstone Garden Village","alternatenames":"","latitude":"50.6658700","longitude":"-1.1927500","fclass":"P","fcode":"PPLL","country":"GB","cc2":"","admin1":"ENG","admin2":"G2","admin3":"00MW014","admin4":"","population":0,"elevation":0,"gtopo30":23,"timezone":"Europe/London","moddate":"2014-12-31T00:00:00.000Z"},{"geonameid":2657021,"name":"Arreton","asciiname":"Arreton","alternatenames":"Arreton","latitude":"50.6780000","longitude":"-1.2450200","fclass":"P","fcode":"PPL","country":"GB","cc2":"","admin1":"ENG","admin2":"G2","admin3":"00MW001","admin4":"","population":0,"elevation":0,"gtopo30":42,"timezone":"Europe/London","moddate":"2015-01-04T00:00:00.000Z"},{"geonameid":2655925,"name":"Bembridge","asciiname":"Bembridge","alternatenames":"BBP,Bembridzh,Бембридж","latitude":"50.6863400","longitude":"-1.0827500","fclass":"P","fcode":"PPLA3","country":"GB","cc2":"","admin1":"ENG","admin2":"G2","admin3":"00MW002","admin4":"","population":3688,"elevation":0,"gtopo30":18,"timezone":"Europe/London","moddate":"2017-06-12T00:00:00.000Z"},{"geonameid":2655436,"name":"Blackwater","asciiname":"Blackwater","alternatenames":"Blackwater","latitude":"50.6666700","longitude":"-1.2833300","fclass":"P","fcode":"PPL","country":"GB","cc2":"","admin1":"ENG","admin2":"G2","admin3":"00MW001","admin4":"","population":0,"elevation":0,"gtopo30":35,"timezone":"Europe/London","moddate":"2016-06-22T00:00:00.000Z"},{"geonameid":2655218,"name":"Bonchurch","asciiname":"Bonchurch","alternatenames":"","latitude":"50.5994700","longitude":"-1.1860100","fclass":"P","fcode":"PPL","country":"GB","cc2":"","admin1":"ENG","admin2":"G2","admin3":"00MW023","admin4":"","population":0,"elevation":0,"gtopo30":40,"timezone":"Europe/London","moddate":"2011-02-17T00:00:00.000Z"},{"geonameid":10376284,"name":"Bouldnor","asciiname":"Bouldnor","alternatenames":"","latitude":"50.7070600","longitude":"-1.4806700","fclass":"P","fcode":"PPL","country":"GB","cc2":"","admin1":"ENG","admin2":"G2","admin3":"00MW019","admin4":"","population":0,"elevation":0,"gtopo30":13,"timezone":"Europe/London","moddate":"2015-07-12T00:00:00.000Z"},{"geonameid":2655071,"name":"Bowcombe","asciiname":"Bowcombe","alternatenames":"","latitude":"50.6825900","longitude":"-1.3347500","fclass":"P","fcode":"PPL","country":"GB","cc2":"","admin1":"ENG","admin2":"G2","admin3":"00MW030","admin4":"","population":0,"elevation":0,"gtopo30":73,"timezone":"Europe/London","moddate":"2015-07-12T00:00:00.000Z"},{"geonameid":2654990,"name":"Brading","asciiname":"Brading","alternatenames":"Brading,bradyng,برادینگ","latitude":"50.6799000","longitude":"-1.1457100","fclass":"P","fcode":"PPL","country":"GB","cc2":"","admin1":"ENG","admin2":"G2","admin3":"00MW003","admin4":"","population":1800,"elevation":0,"gtopo30":20,"timezone":"Europe/London","moddate":"2017-06-12T00:00:00.000Z"},{"geonameid":2654713,"name":"Brighstone","asciiname":"Brighstone","alternatenames":"Brighstone,Brightstone","latitude":"50.6426300","longitude":"-1.3947900","fclass":"P","fcode":"PPL","country":"GB","cc2":"GB","admin1":"ENG","admin2":"G2","admin3":"00MW004","admin4":"","population":1157,"elevation":0,"gtopo30":39,"timezone":"Europe/London","moddate":"2017-06-12T00:00:00.000Z"},{"geonameid":2654571,"name":"Brook","asciiname":"Brook","alternatenames":"","latitude":"50.6520200","longitude":"-1.4502000","fclass":"P","fcode":"PPL","country":"GB","cc2":"","admin1":"ENG","admin2":"G2","admin3":"00MW004","admin4":"","population":0,"elevation":0,"gtopo30":17,"timezone":"Europe/London","moddate":"2016-06-22T00:00:00.000Z"},{"geonameid":2654036,"name":"Calbourne","asciiname":"Calbourne","alternatenames":"Calbourne","latitude":"50.6786200","longitude":"-1.4024700","fclass":"P","fcode":"PPL","country":"GB","cc2":"","admin1":"ENG","admin2":"G2","admin3":"00MW005","admin4":"","population":0,"elevation":0,"gtopo30":51,"timezone":"Europe/London","moddate":"2015-07-12T00:00:00.000Z"},{"geonameid":2653789,"name":"Carisbrooke","asciiname":"Carisbrooke","alternatenames":"Carisbrook,Carisbrooke","latitude":"50.6927600","longitude":"-1.3175000","fclass":"P","fcode":"PPL","country":"GB","cc2":"","admin1":"ENG","admin2":"G2","admin3":"00MW030","admin4":"","population":0,"elevation":0,"gtopo30":38,"timezone":"Europe/London","moddate":"2011-02-17T00:00:00.000Z"},{"geonameid":2653396,"name":"Chale","asciiname":"Chale","alternatenames":"","latitude":"50.5956100","longitude":"-1.3183600","fclass":"P","fcode":"PPLA3","country":"GB","cc2":"","admin1":"ENG","admin2":"G2","admin3":"00MW006","admin4":"","population":0,"elevation":0,"gtopo30":84,"timezone":"Europe/London","moddate":"2011-07-31T00:00:00.000Z"},{"geonameid":2653395,"name":"Chalegreen","asciiname":"Chalegreen","alternatenames":"","latitude":"50.6190300","longitude":"-1.3209300","fclass":"P","fcode":"PPL","country":"GB","cc2":"","admin1":"ENG","admin2":"G2","admin3":"00MW006","admin4":"","population":0,"elevation":0,"gtopo30":73,"timezone":"Europe/London","moddate":"2011-02-17T00:00:00.000Z"},{"geonameid":2652204,"name":"Cowes","asciiname":"Cowes","alternatenames":"Cowes,Kaus,Kouz,West Cowes,kwwz,Каус,Коуз,کووز","latitude":"50.7630600","longitude":"-1.2977200","fclass":"P","fcode":"PPLA3","country":"GB","cc2":"","admin1":"ENG","admin2":"G2","admin3":"00MW007","admin4":"","population":21226,"elevation":0,"gtopo30":5,"timezone":"Europe/London","moddate":"2018-08-11T00:00:00.000Z"},{"geonameid":10376283,"name":"Cranmore","asciiname":"Cranmore","alternatenames":"","latitude":"50.7082000","longitude":"-1.4407500","fclass":"P","fcode":"PPL","country":"GB","cc2":"","admin1":"ENG","admin2":"G2","admin3":"00MW019","admin4":"","population":316,"elevation":0,"gtopo30":27,"timezone":"Europe/London","moddate":"2017-06-12T00:00:00.000Z"},{"geonameid":2651032,"name":"Downend","asciiname":"Downend","alternatenames":"","latitude":"50.6867800","longitude":"-1.2469500","fclass":"P","fcode":"PPL","country":"GB","cc2":"","admin1":"ENG","admin2":"G2","admin3":"00MW029","admin4":"","population":0,"elevation":0,"gtopo30":102,"timezone":"Europe/London","moddate":"2011-02-17T00:00:00.000Z"},{"geonameid":3234498,"name":"East Cowes","asciiname":"East Cowes","alternatenames":"East Cowes,Ist-Kaus,ayst kwwz,Ист-Каус,ایست کووز","latitude":"50.7577400","longitude":"-1.2881500","fclass":"P","fcode":"PPL","country":"GB","cc2":"","admin1":"ENG","admin2":"G2","admin3":"00MW027","admin4":"","population":6166,"elevation":0,"gtopo30":6,"timezone":"Europe/London","moddate":"2012-06-01T00:00:00.000Z"},{"geonameid":2649378,"name":"Fishbourne","asciiname":"Fishbourne","alternatenames":"","latitude":"50.7330300","longitude":"-1.2118400","fclass":"P","fcode":"PPL","country":"GB","cc2":"","admin1":"ENG","admin2":"G2","admin3":"00MW028","admin4":"","population":0,"elevation":0,"gtopo30":12,"timezone":"Europe/London","moddate":"2011-02-17T00:00:00.000Z"},{"geonameid":10376280,"name":"Five Houses","asciiname":"Five Houses","alternatenames":"","latitude":"50.6862900","longitude":"-1.3972400","fclass":"P","fcode":"PPL","country":"GB","cc2":"","admin1":"ENG","admin2":"G2","admin3":"00MW005","admin4":"","population":0,"elevation":0,"gtopo30":48,"timezone":"Europe/London","moddate":"2015-07-12T00:00:00.000Z"},{"geonameid":2649069,"name":"Freshwater","asciiname":"Freshwater","alternatenames":"","latitude":"50.6836500","longitude":"-1.5261600","fclass":"P","fcode":"PPLA3","country":"GB","cc2":"","admin1":"ENG","admin2":"G2","admin3":"00MW008","admin4":"","population":7829,"elevation":0,"gtopo30":12,"timezone":"Europe/London","moddate":"2017-06-12T00:00:00.000Z"},{"geonameid":2648365,"name":"Godshill","asciiname":"Godshill","alternatenames":"","latitude":"50.6330800","longitude":"-1.2547600","fclass":"P","fcode":"PPL","country":"GB","cc2":"","admin1":"ENG","admin2":"G2","admin3":"00MW010","admin4":"","population":1459,"elevation":0,"gtopo30":46,"timezone":"Europe/London","moddate":"2017-06-12T00:00:00.000Z"},{"geonameid":2647752,"name":"Gurnard","asciiname":"Gurnard","alternatenames":"Gurnard","latitude":"50.7605700","longitude":"-1.3241100","fclass":"P","fcode":"PPLA3","country":"GB","cc2":"","admin1":"ENG","admin2":"G2","admin3":"00MW011","admin4":"","population":0,"elevation":0,"gtopo30":7,"timezone":"Europe/London","moddate":"2011-07-31T00:00:00.000Z"},{"geonameid":10376282,"name":"Hamstead","asciiname":"Hamstead","alternatenames":"","latitude":"50.7203200","longitude":"-1.4380900","fclass":"P","fcode":"PPL","country":"GB","cc2":"","admin1":"ENG","admin2":"G2","admin3":"00MW019","admin4":"","population":0,"elevation":0,"gtopo30":49,"timezone":"Europe/London","moddate":"2015-07-12T00:00:00.000Z"},{"geonameid":2647312,"name":"Havenstreet","asciiname":"Havenstreet","alternatenames":"Haven Street,Havenstreet","latitude":"50.7111900","longitude":"-1.2054500","fclass":"P","fcode":"PPL","country":"GB","cc2":"","admin1":"ENG","admin2":"G2","admin3":"00MW029","admin4":"","population":432,"elevation":0,"gtopo30":45,"timezone":"Europe/London","moddate":"2017-06-12T00:00:00.000Z"},{"geonameid":2646577,"name":"Horringford","asciiname":"Horringford","alternatenames":"","latitude":"50.6599900","longitude":"-1.2312400","fclass":"P","fcode":"PPL","country":"GB","cc2":"","admin1":"ENG","admin2":"G2","admin3":"00MW001","admin4":"","population":0,"elevation":0,"gtopo30":21,"timezone":"Europe/London","moddate":"2015-01-04T00:00:00.000Z"},{"geonameid":2645439,"name":"Kingston","asciiname":"Kingston","alternatenames":"","latitude":"50.6300600","longitude":"-1.3234200","fclass":"P","fcode":"PPL","country":"GB","cc2":"","admin1":"ENG","admin2":"G2","admin3":"00MW021","admin4":"","population":0,"elevation":0,"gtopo30":64,"timezone":"Europe/London","moddate":"2011-02-17T00:00:00.000Z"},{"geonameid":2642709,"name":"Merstone","asciiname":"Merstone","alternatenames":"Merston,Merstone","latitude":"50.6653200","longitude":"-1.2590900","fclass":"P","fcode":"PPL","country":"GB","cc2":"GB","admin1":"ENG","admin2":"G2","admin3":"00MW001","admin4":"","population":324,"elevation":0,"gtopo30":29,"timezone":"Europe/London","moddate":"2017-06-12T00:00:00.000Z"},{"geonameid":2642132,"name":"Mottistone","asciiname":"Mottistone","alternatenames":"Mottistone","latitude":"50.6518100","longitude":"-1.4271200","fclass":"P","fcode":"PPL","country":"GB","cc2":"","admin1":"ENG","admin2":"G2","admin3":"00MW004","admin4":"","population":0,"elevation":0,"gtopo30":65,"timezone":"Europe/London","moddate":"2016-06-22T00:00:00.000Z"},{"geonameid":6252038,"name":"Nettlestone","asciiname":"Nettlestone","alternatenames":"","latitude":"50.7102100","longitude":"-1.1196200","fclass":"P","fcode":"PPL","country":"GB","cc2":"","admin1":"ENG","admin2":"G2","admin3":"00MW013","admin4":"","population":0,"elevation":0,"gtopo30":27,"timezone":"Europe/London","moddate":"2014-09-14T00:00:00.000Z"},{"geonameid":2641701,"name":"Newbridge","asciiname":"Newbridge","alternatenames":"","latitude":"50.6856400","longitude":"-1.4190400","fclass":"P","fcode":"PPL","country":"GB","cc2":"","admin1":"ENG","admin2":"G2","admin3":"00MW019","admin4":"","population":0,"elevation":0,"gtopo30":34,"timezone":"Europe/London","moddate":"2015-07-12T00:00:00.000Z"},{"geonameid":2641669,"name":"Newchurch","asciiname":"Newchurch","alternatenames":"","latitude":"50.6674400","longitude":"-1.2082800","fclass":"P","fcode":"PPLA3","country":"GB","cc2":"","admin1":"ENG","admin2":"G2","admin3":"00MW014","admin4":"","population":380,"elevation":0,"gtopo30":26,"timezone":"Europe/London","moddate":"2017-06-12T00:00:00.000Z"},{"geonameid":2641599,"name":"Newport","asciiname":"Newport","alternatenames":"N'juport,Newport (England),Newport pa Isle of Wight,Newport på Isle of Wight,niu bo te,nyupoteu,nyupoto,nywpwrt  jzyrh wayt,Ньюпорт,نیوپورت، جزیره وایت,ニューポート,紐波特,뉴포트","latitude":"50.7014600","longitude":"-1.2912400","fclass":"P","fcode":"PPLA2","country":"GB","cc2":"","admin1":"ENG","admin2":"G2","admin3":"00MW030","admin4":"","population":24884,"elevation":0,"gtopo30":6,"timezone":"Europe/London","moddate":"2019-09-19T00:00:00.000Z"},{"geonameid":2641525,"name":"Newtown","asciiname":"Newtown","alternatenames":"","latitude":"50.7158600","longitude":"-1.4025600","fclass":"P","fcode":"PPL","country":"GB","cc2":"","admin1":"ENG","admin2":"G2","admin3":"00MW005","admin4":"","population":0,"elevation":0,"gtopo30":4,"timezone":"Europe/London","moddate":"2015-07-12T00:00:00.000Z"},{"geonameid":10376281,"name":"Ningwood","asciiname":"Ningwood","alternatenames":"","latitude":"50.6970000","longitude":"-1.4357800","fclass":"P","fcode":"PPL","country":"GB","cc2":"","admin1":"ENG","admin2":"G2","admin3":"00MW019","admin4":"","population":0,"elevation":0,"gtopo30":16,"timezone":"Europe/London","moddate":"2015-07-12T00:00:00.000Z"},{"geonameid":2641480,"name":"Niton","asciiname":"Niton","alternatenames":"Najton,Niton,Найтон","latitude":"50.5870200","longitude":"-1.2848900","fclass":"P","fcode":"PPL","country":"GB","cc2":"","admin1":"ENG","admin2":"G2","admin3":"00MW015","admin4":"","population":1162,"elevation":0,"gtopo30":111,"timezone":"Europe/London","moddate":"2017-06-12T00:00:00.000Z"},{"geonameid":2641217,"name":"Northwood","asciiname":"Northwood","alternatenames":"","latitude":"50.7410200","longitude":"-1.3119200","fclass":"P","fcode":"PPLA3","country":"GB","cc2":"","admin1":"ENG","admin2":"G2","admin3":"00MW031","admin4":"","population":0,"elevation":0,"gtopo30":64,"timezone":"Europe/London","moddate":"2011-07-31T00:00:00.000Z"},{"geonameid":2640880,"name":"Osborne","asciiname":"Osborne","alternatenames":"","latitude":"50.7506900","longitude":"-1.2750100","fclass":"P","fcode":"PPL","country":"GB","cc2":"","admin1":"ENG","admin2":"G2","admin3":"00MW027","admin4":"","population":0,"elevation":0,"gtopo30":56,"timezone":"Europe/London","moddate":"2016-06-22T00:00:00.000Z"},{"geonameid":9883998,"name":"Queen's Bower","asciiname":"Queen's Bower","alternatenames":"","latitude":"50.6607200","longitude":"-1.1963100","fclass":"P","fcode":"PPL","country":"GB","cc2":"","admin1":"ENG","admin2":"G2","admin3":"00MW014","admin4":"","population":0,"elevation":0,"gtopo30":33,"timezone":"Europe/London","moddate":"2014-12-31T00:00:00.000Z"},{"geonameid":2639169,"name":"Rookley","asciiname":"Rookley","alternatenames":"Rookley","latitude":"50.6551200","longitude":"-1.2833400","fclass":"P","fcode":"PPL","country":"GB","cc2":"","admin1":"ENG","admin2":"G2","admin3":"00MW016","admin4":"","population":638,"elevation":0,"gtopo30":57,"timezone":"Europe/London","moddate":"2017-06-12T00:00:00.000Z"},{"geonameid":6947727,"name":"Rowridge","asciiname":"Rowridge","alternatenames":"","latitude":"50.6702500","longitude":"-1.3682300","fclass":"P","fcode":"PPLL","country":"GB","cc2":"","admin1":"ENG","admin2":"G2","admin3":"00MW030","admin4":"","population":0,"elevation":0,"gtopo30":157,"timezone":"Europe/London","moddate":"2015-07-12T00:00:00.000Z"},{"geonameid":2638911,"name":"Ryde","asciiname":"Ryde","alternatenames":"Rajd,rayd,Райд,راید","latitude":"50.7299900","longitude":"-1.1621000","fclass":"P","fcode":"PPL","country":"GB","cc2":"","admin1":"ENG","admin2":"G2","admin3":"00MW032","admin4":"","population":26082,"elevation":0,"gtopo30":31,"timezone":"Europe/London","moddate":"2017-06-12T00:00:00.000Z"},{"geonameid":2638761,"name":"Saint Lawrence","asciiname":"Saint Lawrence","alternatenames":"","latitude":"50.5893400","longitude":"-1.2322900","fclass":"P","fcode":"PPL","country":"GB","cc2":"","admin1":"ENG","admin2":"G2","admin3":"00MW023","admin4":"","population":0,"elevation":0,"gtopo30":39,"timezone":"Europe/London","moddate":"2011-02-17T00:00:00.000Z"},{"geonameid":2638568,"name":"Sandown","asciiname":"Sandown","alternatenames":"Sandaun,Sandown,sandwn,Сандаун,ساندون","latitude":"50.6515800","longitude":"-1.1610300","fclass":"P","fcode":"PPL","country":"GB","cc2":"","admin1":"ENG","admin2":"G2","admin3":"00MW018","admin4":"","population":20155,"elevation":0,"gtopo30":37,"timezone":"Europe/London","moddate":"2011-02-17T00:00:00.000Z"},{"geonameid":2638264,"name":"Seaview","asciiname":"Seaview","alternatenames":"","latitude":"50.7195600","longitude":"-1.1116400","fclass":"P","fcode":"PPL","country":"GB","cc2":"","admin1":"ENG","admin2":"G2","admin3":"00MW013","admin4":"","population":2337,"elevation":0,"gtopo30":22,"timezone":"Europe/London","moddate":"2012-01-31T00:00:00.000Z"},{"geonameid":2638151,"name":"Shalfleet","asciiname":"Shalfleet","alternatenames":"Shalfleet","latitude":"50.7011300","longitude":"-1.4200700","fclass":"P","fcode":"PPLA3","country":"GB","cc2":"","admin1":"ENG","admin2":"G2","admin3":"00MW019","admin4":"","population":605,"elevation":0,"gtopo30":20,"timezone":"Europe/London","moddate":"2017-06-12T00:00:00.000Z"},{"geonameid":2638138,"name":"Shanklin","asciiname":"Shanklin","alternatenames":"Shanklin,shanklyn,Шанклин,شانکلین","latitude":"50.6261300","longitude":"-1.1785000","fclass":"P","fcode":"PPL","country":"GB","cc2":"","admin1":"ENG","admin2":"G2","admin3":"00MW020","admin4":"","population":8055,"elevation":0,"gtopo30":47,"timezone":"Europe/London","moddate":"2012-03-29T00:00:00.000Z"},{"geonameid":2638001,"name":"Shide","asciiname":"Shide","alternatenames":"","latitude":"50.6918400","longitude":"-1.2917100","fclass":"P","fcode":"PPL","country":"GB","cc2":"","admin1":"ENG","admin2":"G2","admin3":"00MW030","admin4":"","population":0,"elevation":0,"gtopo30":17,"timezone":"Europe/London","moddate":"2011-02-17T00:00:00.000Z"},{"geonameid":2637911,"name":"Shorwell","asciiname":"Shorwell","alternatenames":"Shorwell","latitude":"50.6444800","longitude":"-1.3548800","fclass":"P","fcode":"PPL","country":"GB","cc2":"","admin1":"ENG","admin2":"G2","admin3":"00MW021","admin4":"","population":433,"elevation":0,"gtopo30":61,"timezone":"Europe/London","moddate":"2017-06-12T00:00:00.000Z"},{"geonameid":7932001,"name":"St Lawrence","asciiname":"St Lawrence","alternatenames":"","latitude":"50.5856500","longitude":"-1.2546700","fclass":"P","fcode":"PPL","country":"GB","cc2":"","admin1":"ENG","admin2":"G2","admin3":"00MW023","admin4":"","population":0,"elevation":0,"gtopo30":117,"timezone":"Europe/London","moddate":"2011-08-15T00:00:00.000Z"},{"geonameid":2638786,"name":"St. Helens","asciiname":"St. Helens","alternatenames":"Saint Helens,St Helens","latitude":"50.6968800","longitude":"-1.1115900","fclass":"P","fcode":"PPL","country":"GB","cc2":"","admin1":"ENG","admin2":"G2","admin3":"00MW017","admin4":"","population":1213,"elevation":0,"gtopo30":27,"timezone":"Europe/London","moddate":"2017-06-12T00:00:00.000Z"},{"geonameid":9538944,"name":"St. Helens, Ryde","asciiname":"St. Helens, Ryde","alternatenames":"","latitude":"50.6917000","longitude":"-1.1124100","fclass":"P","fcode":"PPL","country":"GB","cc2":"","admin1":"ENG","admin2":"G2","admin3":"00MW003","admin4":"","population":0,"elevation":0,"gtopo30":-2,"timezone":"Europe/London","moddate":"2014-09-14T00:00:00.000Z"},{"geonameid":2635613,"name":"Totland","asciiname":"Totland","alternatenames":"Totland","latitude":"50.6846600","longitude":"-1.5368800","fclass":"P","fcode":"PPLA3","country":"GB","cc2":"","admin1":"ENG","admin2":"G2","admin3":"00MW022","admin4":"","population":0,"elevation":0,"gtopo30":25,"timezone":"Europe/London","moddate":"2011-07-31T00:00:00.000Z"},{"geonameid":8031355,"name":"Totland Bay","asciiname":"Totland Bay","alternatenames":"","latitude":"50.6738700","longitude":"-1.5556000","fclass":"P","fcode":"PPL","country":"GB","cc2":"","admin1":"ENG","admin2":"G2","admin3":"00MW022","admin4":"","population":0,"elevation":0,"gtopo30":75,"timezone":"Europe/London","moddate":"2011-10-14T00:00:00.000Z"},{"geonameid":2634985,"name":"Ventnor","asciiname":"Ventnor","alternatenames":"Jentnor,Ventnor,wntnwr,Вентнор,ونتنور","latitude":"50.5944900","longitude":"-1.2067200","fclass":"P","fcode":"PPL","country":"GB","cc2":"","admin1":"ENG","admin2":"G2","admin3":"00MW023","admin4":"","population":5976,"elevation":0,"gtopo30":35,"timezone":"Europe/London","moddate":"2017-06-12T00:00:00.000Z"},{"geonameid":2634150,"name":"Whippingham","asciiname":"Whippingham","alternatenames":"Whippingham","latitude":"50.7374700","longitude":"-1.2686200","fclass":"P","fcode":"PPL","country":"GB","cc2":"","admin1":"ENG","admin2":"G2","admin3":"00MW033","admin4":"","population":0,"elevation":0,"gtopo30":48,"timezone":"Europe/London","moddate":"2011-02-17T00:00:00.000Z"},{"geonameid":2634002,"name":"Whitwell","asciiname":"Whitwell","alternatenames":"","latitude":"50.5984400","longitude":"-1.2642000","fclass":"P","fcode":"PPL","country":"GB","cc2":"","admin1":"ENG","admin2":"G2","admin3":"00MW015","admin4":"","population":619,"elevation":0,"gtopo30":77,"timezone":"Europe/London","moddate":"2017-06-12T00:00:00.000Z"},{"geonameid":2633578,"name":"Wootton","asciiname":"Wootton","alternatenames":"","latitude":"50.7284700","longitude":"-1.2353600","fclass":"P","fcode":"PPL","country":"GB","cc2":"","admin1":"ENG","admin2":"G2","admin3":"00MW024","admin4":"","population":4231,"elevation":0,"gtopo30":41,"timezone":"Europe/London","moddate":"2017-06-12T00:00:00.000Z"},{"geonameid":2633570,"name":"Wootton Bridge","asciiname":"Wootton Bridge","alternatenames":"","latitude":"50.7244500","longitude":"-1.2369100","fclass":"P","fcode":"PPL","country":"GB","cc2":"","admin1":"ENG","admin2":"G2","admin3":"00MW024","admin4":"","population":0,"elevation":0,"gtopo30":44,"timezone":"Europe/London","moddate":"2011-02-17T00:00:00.000Z"},{"geonameid":2633475,"name":"Wroxall","asciiname":"Wroxall","alternatenames":"","latitude":"50.6162500","longitude":"-1.2229200","fclass":"P","fcode":"PPL","country":"GB","cc2":"","admin1":"ENG","admin2":"G2","admin3":"00MW025","admin4":"","population":1753,"elevation":0,"gtopo30":88,"timezone":"Europe/London","moddate":"2017-06-12T00:00:00.000Z"},{"geonameid":2633414,"name":"Yarmouth","asciiname":"Yarmouth","alternatenames":"Jarmut,Yarmouth,Yarmouth pa Isle of Wight,Yarmouth på Isle of Wight,yameoseu,yarmwth  jzyrh wayt,Ярмут,یارموث، جزیره وایت,야머스","latitude":"50.7052900","longitude":"-1.4992900","fclass":"P","fcode":"PPLA3","country":"GB","cc2":"","admin1":"ENG","admin2":"G2","admin3":"00MW026","admin4":"","population":912,"elevation":0,"gtopo30":2,"timezone":"Europe/London","moddate":"2017-06-12T00:00:00.000Z"}],"admin3":[{"geonameid":7295843,"name":"Arreton","admin3":"00MW001"},{"geonameid":7295844,"name":"Bembridge","admin3":"00MW002"},{"geonameid":7293727,"name":"Brading","admin3":"00MW003"},{"geonameid":7298793,"name":"Brighstone","admin3":"00MW004"},{"geonameid":7293728,"name":"Calbourne","admin3":"00MW005"},{"geonameid":7298022,"name":"Chale","admin3":"00MW006"},{"geonameid":7295845,"name":"Cowes","admin3":"00MW007"},{"geonameid":7291461,"name":"East Cowes","admin3":"00MW027"},{"geonameid":7293722,"name":"Fishbourne","admin3":"00MW028"},{"geonameid":7295277,"name":"Freshwater","admin3":"00MW008"},{"geonameid":7293729,"name":"Gatcombe","admin3":"00MW009"},{"geonameid":7298794,"name":"Godshill","admin3":"00MW010"},{"geonameid":7293730,"name":"Gurnard","admin3":"00MW011"},{"geonameid":7291788,"name":"Havenstreet and Ashey","admin3":"00MW029"},{"geonameid":7299168,"name":"Lake","admin3":"00MW012"},{"geonameid":7297503,"name":"Nettlestone and Seaview","admin3":"00MW013"},{"geonameid":7291790,"name":"Newchurch","admin3":"00MW014"},{"geonameid":7301611,"name":"Newport","admin3":"00MW030"},{"geonameid":7291787,"name":"Niton and Whitwell","admin3":"00MW015"},{"geonameid":7291791,"name":"Northwood","admin3":"00MW031"},{"geonameid":7299169,"name":"Rookley","admin3":"00MW016"},{"geonameid":7299167,"name":"Ryde","admin3":"00MW032"},{"geonameid":7295275,"name":"Sandown","admin3":"00MW018"},{"geonameid":7295840,"name":"Shalfleet","admin3":"00MW019"},{"geonameid":7298788,"name":"Shanklin","admin3":"00MW020"},{"geonameid":7293723,"name":"Shorwell","admin3":"00MW021"},{"geonameid":7291462,"name":"St. Helens","admin3":"00MW017"},{"geonameid":7298789,"name":"Totland","admin3":"00MW022"},{"geonameid":7293726,"name":"Ventnor","admin3":"00MW023"},{"geonameid":7291789,"name":"Whippingham","admin3":"00MW033"},{"geonameid":7295276,"name":"Wootton Bridge","admin3":"00MW024"},{"geonameid":7295274,"name":"Wroxall","admin3":"00MW025"},{"geonameid":7291356,"name":"Yarmouth","admin3":"00MW026"}],"alternateNames":[{"alternatenameId":2254268,"geonameid":2646007,"isoLanguage":"en","alternateName":"Isle of Wight","isPreferredName":true,"isShortName":true,"isColloquial":false,"isHistoric":false},{"alternatenameId":1626647,"geonameid":6269131,"isoLanguage":"en","alternateName":"England","isPreferredName":true,"isShortName":true,"isColloquial":false,"isHistoric":false}]},"__N_SSG":true}