{"pageProps":{"locale":"ro","admin2":{"geonameid":679460,"name":"Comuna Deseşti","country":"RO","admin1":"25","admin2":"107975","admin3":"","latitude":"47.7700400","longitude":"23.8590000"},"admin1":{"geonameid":673887,"name":"Maramureş","admin1":"25"},"locations":[{"geonameid":679461,"name":"Deseşti","asciiname":"Desesti","alternatenames":"Desesti,Deseşti","latitude":"47.7666700","longitude":"23.8500000","fclass":"P","fcode":"PPLA2","country":"RO","cc2":"","admin1":"25","admin2":"107975","admin3":"","admin4":"","population":2580,"elevation":0,"gtopo30":444,"timezone":"Europe/Bucharest","moddate":"2012-06-12T00:00:00.000Z"},{"geonameid":676298,"name":"Hărnicești","asciiname":"Harnicesti","alternatenames":"","latitude":"47.7821300","longitude":"23.8865900","fclass":"P","fcode":"PPL","country":"RO","cc2":"","admin1":"25","admin2":"107975","admin3":"","admin4":"","population":709,"elevation":0,"gtopo30":387,"timezone":"Europe/Bucharest","moddate":"2013-04-21T00:00:00.000Z"},{"geonameid":673898,"name":"Mara","asciiname":"Mara","alternatenames":"Cracesti,Craceşti,Mara","latitude":"47.7555200","longitude":"23.8312600","fclass":"P","fcode":"PPL","country":"RO","cc2":"RO","admin1":"25","admin2":"107975","admin3":"","admin4":"","population":1117,"elevation":0,"gtopo30":461,"timezone":"Europe/Bucharest","moddate":"2013-04-21T00:00:00.000Z"},{"geonameid":8468701,"name":"Statiunea Izvoare","asciiname":"Statiunea Izvoare","alternatenames":"","latitude":"47.7543300","longitude":"23.7157100","fclass":"P","fcode":"PPL","country":"RO","cc2":"","admin1":"25","admin2":"107975","admin3":"","admin4":"","population":0,"elevation":0,"gtopo30":900,"timezone":"Europe/Bucharest","moddate":"2016-02-07T00:00:00.000Z"}],"admin3":[],"alternateNames":[]},"__N_SSG":true}