{"pageProps":{"locale":"ro","admin2":{"geonameid":670020,"name":"Comuna Poiana Teiului","country":"RO","admin1":"28","admin2":"123790","admin3":"","latitude":"47.1140300","longitude":"25.9251700"},"admin1":{"geonameid":672460,"name":"Neamţ","admin1":"28"},"locations":[{"geonameid":683670,"name":"Brânzeni","asciiname":"Branzeni","alternatenames":"Branzeni,Brinzeni,Brânzeni,Brînzeni","latitude":"47.1333300","longitude":"26.0000000","fclass":"P","fcode":"PPL","country":"RO","cc2":"RO","admin1":"28","admin2":"123790","admin3":"","admin4":"","population":0,"elevation":0,"gtopo30":633,"timezone":"Europe/Bucharest","moddate":"2020-03-08T00:00:00.000Z"},{"geonameid":682901,"name":"Călugăreni","asciiname":"Calugareni","alternatenames":"","latitude":"47.0742700","longitude":"25.9481600","fclass":"P","fcode":"PPL","country":"RO","cc2":"","admin1":"28","admin2":"123790","admin3":"","admin4":"","population":69,"elevation":0,"gtopo30":549,"timezone":"Europe/Bucharest","moddate":"2013-04-21T00:00:00.000Z"},{"geonameid":680685,"name":"Coroiu","asciiname":"Coroiu","alternatenames":"Coroiu,Coroiul","latitude":"47.1333300","longitude":"26.0000000","fclass":"P","fcode":"PPL","country":"RO","cc2":"","admin1":"28","admin2":"123790","admin3":"","admin4":"","population":0,"elevation":0,"gtopo30":633,"timezone":"Europe/Bucharest","moddate":"2016-02-07T00:00:00.000Z"},{"geonameid":678840,"name":"Dreptu","asciiname":"Dreptu","alternatenames":"Dreptu,Dreptu de Sus,Poiana Dreptului","latitude":"47.1272200","longitude":"25.8652700","fclass":"P","fcode":"PPL","country":"RO","cc2":"RO","admin1":"28","admin2":"123790","admin3":"","admin4":"","population":662,"elevation":0,"gtopo30":582,"timezone":"Europe/Bucharest","moddate":"2013-04-21T00:00:00.000Z"},{"geonameid":678839,"name":"Dreptu de Jos","asciiname":"Dreptu de Jos","alternatenames":"Dreptu,Dreptu de Jos,Dreptul","latitude":"47.1166700","longitude":"25.8500000","fclass":"P","fcode":"PPL","country":"RO","cc2":"","admin1":"28","admin2":"123790","admin3":"","admin4":"","population":0,"elevation":0,"gtopo30":634,"timezone":"Europe/Bucharest","moddate":"2016-02-07T00:00:00.000Z"},{"geonameid":677635,"name":"Galu","asciiname":"Galu","alternatenames":"Galu,Galul","latitude":"47.1252900","longitude":"25.9082900","fclass":"P","fcode":"PPL","country":"RO","cc2":"RO","admin1":"28","admin2":"123790","admin3":"","admin4":"","population":414,"elevation":0,"gtopo30":545,"timezone":"Europe/Bucharest","moddate":"2013-04-21T00:00:00.000Z"},{"geonameid":675016,"name":"Largu","asciiname":"Largu","alternatenames":"Largu,Largul","latitude":"47.1000000","longitude":"25.9833300","fclass":"P","fcode":"PPL","country":"RO","cc2":"","admin1":"28","admin2":"123790","admin3":"","admin4":"","population":0,"elevation":0,"gtopo30":594,"timezone":"Europe/Bucharest","moddate":"2016-02-07T00:00:00.000Z"},{"geonameid":670729,"name":"Pârâul Fagului","asciiname":"Paraul Fagului","alternatenames":"Piriul Fagului,Pîrîul Fagului","latitude":"47.1333300","longitude":"25.8833300","fclass":"P","fcode":"PPL","country":"RO","cc2":"","admin1":"28","admin2":"123790","admin3":"","admin4":"","population":242,"elevation":0,"gtopo30":672,"timezone":"Europe/Bucharest","moddate":"2015-12-18T00:00:00.000Z"},{"geonameid":670929,"name":"Petru Vodă","asciiname":"Petru Voda","alternatenames":"Galbezeni,Gălbezeni,Petru Voda,Petru Vodă,Valeni,Văleni","latitude":"47.1191300","longitude":"26.0011700","fclass":"P","fcode":"PPL","country":"RO","cc2":"RO","admin1":"28","admin2":"123790","admin3":"","admin4":"","population":1000,"elevation":0,"gtopo30":594,"timezone":"Europe/Bucharest","moddate":"2013-04-21T00:00:00.000Z"},{"geonameid":670073,"name":"Poiana Largului","asciiname":"Poiana Largului","alternatenames":"Poiana Largu,Poiana Largului","latitude":"47.0951900","longitude":"25.9783000","fclass":"P","fcode":"PPL","country":"RO","cc2":"RO","admin1":"28","admin2":"123790","admin3":"","admin4":"","population":756,"elevation":0,"gtopo30":520,"timezone":"Europe/Bucharest","moddate":"2013-04-21T00:00:00.000Z"},{"geonameid":670040,"name":"Poiana Răchiţii","asciiname":"Poiana Rachitii","alternatenames":"","latitude":"47.1166700","longitude":"25.9166700","fclass":"P","fcode":"PPL","country":"RO","cc2":"","admin1":"28","admin2":"123790","admin3":"","admin4":"","population":0,"elevation":0,"gtopo30":521,"timezone":"Europe/Bucharest","moddate":"2016-02-07T00:00:00.000Z"},{"geonameid":670021,"name":"Poiana Teiului","asciiname":"Poiana Teiului","alternatenames":"Poiana Teiului,Poiana Teului,Poiana-Teiuluui","latitude":"47.1000000","longitude":"25.9666700","fclass":"P","fcode":"PPLA2","country":"RO","cc2":"","admin1":"28","admin2":"123790","admin3":"","admin4":"","population":5145,"elevation":0,"gtopo30":664,"timezone":"Europe/Bucharest","moddate":"2012-06-12T00:00:00.000Z"},{"geonameid":668664,"name":"Roșeni","asciiname":"Roseni","alternatenames":"","latitude":"47.0950200","longitude":"25.9413700","fclass":"P","fcode":"PPL","country":"RO","cc2":"","admin1":"28","admin2":"123790","admin3":"","admin4":"","population":82,"elevation":0,"gtopo30":552,"timezone":"Europe/Bucharest","moddate":"2013-04-21T00:00:00.000Z"},{"geonameid":668406,"name":"Ruseni","asciiname":"Ruseni","alternatenames":"","latitude":"47.1198900","longitude":"25.9121000","fclass":"P","fcode":"PPL","country":"RO","cc2":"","admin1":"28","admin2":"123790","admin3":"","admin4":"","population":124,"elevation":0,"gtopo30":530,"timezone":"Europe/Bucharest","moddate":"2013-04-21T00:00:00.000Z"},{"geonameid":667750,"name":"Săvinești","asciiname":"Savinesti","alternatenames":"","latitude":"47.1355800","longitude":"25.8918800","fclass":"P","fcode":"PPL","country":"RO","cc2":"","admin1":"28","admin2":"123790","admin3":"","admin4":"","population":317,"elevation":0,"gtopo30":536,"timezone":"Europe/Bucharest","moddate":"2013-04-21T00:00:00.000Z"},{"geonameid":664740,"name":"Topoliceni","asciiname":"Topoliceni","alternatenames":"Topliceni,Topoliceni,Topoliceni de Jos,Topolicenii de Jos","latitude":"47.1102300","longitude":"25.9350900","fclass":"P","fcode":"PPL","country":"RO","cc2":"RO","admin1":"28","admin2":"123790","admin3":"","admin4":"","population":310,"elevation":0,"gtopo30":510,"timezone":"Europe/Bucharest","moddate":"2013-04-21T00:00:00.000Z"},{"geonameid":664741,"name":"Topoliceni","asciiname":"Topoliceni","alternatenames":"Topoliceni,Topolicenii de Sus","latitude":"47.1166700","longitude":"25.9000000","fclass":"P","fcode":"PPL","country":"RO","cc2":"","admin1":"28","admin2":"123790","admin3":"","admin4":"","population":0,"elevation":0,"gtopo30":664,"timezone":"Europe/Bucharest","moddate":"2016-02-07T00:00:00.000Z"}],"admin3":[],"alternateNames":[]},"__N_SSG":true}