{"pageProps":{"locale":"en","admin2":{"geonameid":2653940,"name":"Cambridgeshire","country":"GB","admin1":"ENG","admin2":"C3","admin3":"","latitude":"52.3333300","longitude":"0.0833300","localeAltName":"Cambridgeshire"},"admin1":{"geonameid":6269131,"name":"England","admin1":"ENG","localeAltName":"England"},"locations":[{"geonameid":2657861,"name":"Abbots Ripton","asciiname":"Abbots Ripton","alternatenames":"Abbots Ripton,Abbotts Ripton","latitude":"52.3861100","longitude":"-0.1921000","fclass":"P","fcode":"PPL","country":"GB","cc2":"","admin1":"ENG","admin2":"C3","admin3":"12UE","admin4":"12UE002","population":0,"elevation":0,"gtopo30":36,"timezone":"Europe/London","moddate":"2018-07-03T00:00:00.000Z"},{"geonameid":2657862,"name":"Abbotsley","asciiname":"Abbotsley","alternatenames":"Abbotsley","latitude":"52.1940300","longitude":"-0.2066400","fclass":"P","fcode":"PPL","country":"GB","cc2":"","admin1":"ENG","admin2":"C3","admin3":"12UE","admin4":"12UE001","population":446,"elevation":0,"gtopo30":41,"timezone":"Europe/London","moddate":"2018-07-03T00:00:00.000Z"},{"geonameid":2657565,"name":"Alconbury","asciiname":"Alconbury","alternatenames":"","latitude":"52.3690000","longitude":"-0.2600900","fclass":"P","fcode":"PPL","country":"GB","cc2":"","admin1":"ENG","admin2":"C3","admin3":"12UE","admin4":"12UE003","population":1569,"elevation":0,"gtopo30":21,"timezone":"Europe/London","moddate":"2018-07-03T00:00:00.000Z"},{"geonameid":2657382,"name":"Alwalton","asciiname":"Alwalton","alternatenames":"Alwalton","latitude":"52.5484200","longitude":"-0.3289100","fclass":"P","fcode":"PPL","country":"GB","cc2":"","admin1":"ENG","admin2":"C3","admin3":"12UE","admin4":"12UE005","population":0,"elevation":0,"gtopo30":26,"timezone":"Europe/London","moddate":"2018-07-03T00:00:00.000Z"},{"geonameid":10103874,"name":"Arbury","asciiname":"Arbury","alternatenames":"","latitude":"52.2218600","longitude":"0.1150600","fclass":"P","fcode":"PPLX","country":"GB","cc2":"","admin1":"ENG","admin2":"C3","admin3":"12UB","admin4":"","population":0,"elevation":0,"gtopo30":22,"timezone":"Europe/London","moddate":"2015-02-16T00:00:00.000Z"},{"geonameid":2657020,"name":"Arrington","asciiname":"Arrington","alternatenames":"Arrington","latitude":"52.1350200","longitude":"-0.0663900","fclass":"P","fcode":"PPL","country":"GB","cc2":"","admin1":"ENG","admin2":"C3","admin3":"12UG","admin4":"12UG002","population":0,"elevation":0,"gtopo30":60,"timezone":"Europe/London","moddate":"2018-07-03T00:00:00.000Z"},{"geonameid":2656940,"name":"Ashley","asciiname":"Ashley","alternatenames":"","latitude":"52.2264300","longitude":"0.4840900","fclass":"P","fcode":"PPL","country":"GB","cc2":"","admin1":"ENG","admin2":"C3","admin3":"2650488","admin4":"12UC001","population":749,"elevation":0,"gtopo30":94,"timezone":"Europe/London","moddate":"2018-07-03T00:00:00.000Z"},{"geonameid":2656686,"name":"Babraham","asciiname":"Babraham","alternatenames":"","latitude":"52.1321200","longitude":"0.2096000","fclass":"P","fcode":"PPL","country":"GB","cc2":"","admin1":"ENG","admin2":"C3","admin3":"12UG","admin4":"12UG003","population":276,"elevation":0,"gtopo30":29,"timezone":"Europe/London","moddate":"2018-07-03T00:00:00.000Z"},{"geonameid":2656433,"name":"Balsham","asciiname":"Balsham","alternatenames":"","latitude":"52.1323800","longitude":"0.3158600","fclass":"P","fcode":"PPL","country":"GB","cc2":"","admin1":"ENG","admin2":"C3","admin3":"12UG","admin4":"12UG004","population":1591,"elevation":0,"gtopo30":113,"timezone":"Europe/London","moddate":"2018-07-03T00:00:00.000Z"},{"geonameid":6284555,"name":"Bar Hill","asciiname":"Bar Hill","alternatenames":"Bar Hill","latitude":"52.2489900","longitude":"0.0288300","fclass":"P","fcode":"PPL","country":"GB","cc2":"","admin1":"ENG","admin2":"C3","admin3":"12UG","admin4":"12UG005","population":4032,"elevation":0,"gtopo30":41,"timezone":"Europe/London","moddate":"2018-07-03T00:00:00.000Z"},{"geonameid":2656255,"name":"Barrington","asciiname":"Barrington","alternatenames":"","latitude":"52.1294800","longitude":"0.0385800","fclass":"P","fcode":"PPL","country":"GB","cc2":"","admin1":"ENG","admin2":"C3","admin3":"12UG","admin4":"12UG006","population":0,"elevation":0,"gtopo30":22,"timezone":"Europe/London","moddate":"2018-07-03T00:00:00.000Z"},{"geonameid":2656222,"name":"Bartlow","asciiname":"Bartlow","alternatenames":"Bartlow","latitude":"52.0830700","longitude":"0.3107900","fclass":"P","fcode":"PPL","country":"GB","cc2":"","admin1":"ENG","admin2":"C3","admin3":"12UG","admin4":"12UG007","population":0,"elevation":0,"gtopo30":51,"timezone":"Europe/London","moddate":"2018-07-03T00:00:00.000Z"},{"geonameid":10103876,"name":"Barton","asciiname":"Barton","alternatenames":"","latitude":"52.1832500","longitude":"0.0578100","fclass":"P","fcode":"PPLA4","country":"GB","cc2":"","admin1":"ENG","admin2":"C3","admin3":"12UG","admin4":"12UG008","population":0,"elevation":0,"gtopo30":27,"timezone":"Europe/London","moddate":"2015-02-16T00:00:00.000Z"},{"geonameid":2656199,"name":"Barway","asciiname":"Barway","alternatenames":"Barraway,Barway","latitude":"52.3582000","longitude":"0.2680100","fclass":"P","fcode":"PPL","country":"GB","cc2":"","admin1":"ENG","admin2":"C3","admin3":"2650488","admin4":"12UC022","population":0,"elevation":0,"gtopo30":6,"timezone":"Europe/London","moddate":"2018-07-03T00:00:00.000Z"},{"geonameid":2656184,"name":"Bassingbourn","asciiname":"Bassingbourn","alternatenames":"","latitude":"52.0782100","longitude":"-0.0539000","fclass":"P","fcode":"PPL","country":"GB","cc2":"","admin1":"ENG","admin2":"C3","admin3":"12UG","admin4":"12UG009","population":2481,"elevation":0,"gtopo30":30,"timezone":"Europe/London","moddate":"2018-07-03T00:00:00.000Z"},{"geonameid":11592759,"name":"Benwick","asciiname":"Benwick","alternatenames":"","latitude":"52.4955800","longitude":"-0.0247200","fclass":"P","fcode":"PPL","country":"GB","cc2":"","admin1":"ENG","admin2":"C3","admin3":"12UD","admin4":"12UD001","population":0,"elevation":0,"gtopo30":5,"timezone":"Europe/London","moddate":"2017-06-19T00:00:00.000Z"},{"geonameid":2655320,"name":"Bluntisham","asciiname":"Bluntisham","alternatenames":"Bluntisham","latitude":"52.3547900","longitude":"0.0085400","fclass":"P","fcode":"PPL","country":"GB","cc2":"","admin1":"ENG","admin2":"C3","admin3":"12UE","admin4":"12UE007","population":2868,"elevation":0,"gtopo30":20,"timezone":"Europe/London","moddate":"2018-07-03T00:00:00.000Z"},{"geonameid":2655123,"name":"Bottisham","asciiname":"Bottisham","alternatenames":"Bottisham","latitude":"52.2228000","longitude":"0.2587800","fclass":"P","fcode":"PPL","country":"GB","cc2":"","admin1":"ENG","admin2":"C3","admin3":"2650488","admin4":"12UC002","population":2199,"elevation":0,"gtopo30":17,"timezone":"Europe/London","moddate":"2018-07-03T00:00:00.000Z"},{"geonameid":2655101,"name":"Bourn","asciiname":"Bourn","alternatenames":"","latitude":"52.1924600","longitude":"-0.0640300","fclass":"P","fcode":"PPL","country":"GB","cc2":"","admin1":"ENG","admin2":"C3","admin3":"12UG","admin4":"12UG010","population":669,"elevation":0,"gtopo30":40,"timezone":"Europe/London","moddate":"2018-07-03T00:00:00.000Z"},{"geonameid":2655036,"name":"Boxworth","asciiname":"Boxworth","alternatenames":"Boxworth","latitude":"52.2593300","longitude":"-0.0269500","fclass":"P","fcode":"PPL","country":"GB","cc2":"","admin1":"ENG","admin2":"C3","admin3":"12UG","admin4":"12UG011","population":0,"elevation":0,"gtopo30":44,"timezone":"Europe/London","moddate":"2018-07-03T00:00:00.000Z"},{"geonameid":2654919,"name":"Brampton","asciiname":"Brampton","alternatenames":"Brampton,Brauntone","latitude":"52.3203900","longitude":"-0.2200700","fclass":"P","fcode":"PPL","country":"GB","cc2":"","admin1":"ENG","admin2":"C3","admin3":"12UE","admin4":"12UE008","population":4862,"elevation":0,"gtopo30":14,"timezone":"Europe/London","moddate":"2018-07-03T00:00:00.000Z"},{"geonameid":2654684,"name":"Brinkley","asciiname":"Brinkley","alternatenames":"Brinkley","latitude":"52.1668000","longitude":"0.3819000","fclass":"P","fcode":"PPL","country":"GB","cc2":"","admin1":"ENG","admin2":"C3","admin3":"2650488","admin4":"12UC003","population":391,"elevation":0,"gtopo30":115,"timezone":"Europe/London","moddate":"2018-07-03T00:00:00.000Z"},{"geonameid":2654419,"name":"Buckden","asciiname":"Buckden","alternatenames":"bwkdn,بوكدن","latitude":"52.2941500","longitude":"-0.2491200","fclass":"P","fcode":"PPL","country":"GB","cc2":"","admin1":"ENG","admin2":"C3","admin3":"12UE","admin4":"12UE011","population":2677,"elevation":0,"gtopo30":26,"timezone":"Europe/London","moddate":"2018-07-03T00:00:00.000Z"},{"geonameid":7670881,"name":"Burrough Green","asciiname":"Burrough Green","alternatenames":"","latitude":"52.1731700","longitude":"0.3945200","fclass":"P","fcode":"PPL","country":"GB","cc2":"","admin1":"ENG","admin2":"C3","admin3":"12UG","admin4":"12UC004","population":0,"elevation":0,"gtopo30":113,"timezone":"Europe/London","moddate":"2019-10-07T00:00:00.000Z"},{"geonameid":2654195,"name":"Burwell","asciiname":"Burwell","alternatenames":"bwrwl,بورول","latitude":"52.2763200","longitude":"0.3273200","fclass":"P","fcode":"PPL","country":"GB","cc2":"","admin1":"ENG","admin2":"C3","admin3":"2650488","admin4":"12UC005","population":6309,"elevation":0,"gtopo30":15,"timezone":"Europe/London","moddate":"2018-07-03T00:00:00.000Z"},{"geonameid":2654188,"name":"Bury","asciiname":"Bury","alternatenames":"","latitude":"52.4358300","longitude":"-0.1067700","fclass":"P","fcode":"PPL","country":"GB","cc2":"","admin1":"ENG","admin2":"C3","admin3":"12UE","admin4":"12UE013","population":0,"elevation":0,"gtopo30":13,"timezone":"Europe/London","moddate":"2018-07-03T00:00:00.000Z"},{"geonameid":2654126,"name":"Bythorn","asciiname":"Bythorn","alternatenames":"Bythorn","latitude":"52.3707800","longitude":"-0.4481200","fclass":"P","fcode":"PPL","country":"GB","cc2":"","admin1":"ENG","admin2":"C3","admin3":"12UE","admin4":"12UE014","population":0,"elevation":0,"gtopo30":60,"timezone":"Europe/London","moddate":"2018-07-03T00:00:00.000Z"},{"geonameid":11592595,"name":"Caldecote","asciiname":"Caldecote","alternatenames":"","latitude":"52.2084000","longitude":"-0.0227900","fclass":"P","fcode":"PPL","country":"GB","cc2":"","admin1":"ENG","admin2":"C3","admin3":"12UG","admin4":"12UG012","population":0,"elevation":0,"gtopo30":69,"timezone":"Europe/London","moddate":"2017-06-18T00:00:00.000Z"},{"geonameid":9409226,"name":"Cambourne","asciiname":"Cambourne","alternatenames":"Kamburn,kmbwrn,Камбурн,كمبورن","latitude":"52.2211500","longitude":"-0.0702500","fclass":"P","fcode":"PPL","country":"GB","cc2":"","admin1":"ENG","admin2":"C3","admin3":"12UG","admin4":"12UG101","population":8186,"elevation":0,"gtopo30":69,"timezone":"Europe/London","moddate":"2017-06-12T00:00:00.000Z"},{"geonameid":2653941,"name":"Cambridge","asciiname":"Cambridge","alternatenames":"CBG,Caergrawnt,Cambridge,Cantabrigia,Grantanbrycg,Kambrij,Kejmbridzh,Kembric,Kembridz,Kembridza,Kembridzas,Kembridzh,Kembridža,Kembridžas,Kembrigo,Kembriĝo,Kembrydzh,Kempritz,Kiam-khiau,Kiam-khiâu,jian qiao,kambrydj,keimbeuliji,kembridj,kembrij,kembrija,kenburijji,khem bridc,kmbryj,kyamabrija,kymbrj,qyymbrydg',Κέμπριτζ,Кеймбридж,Кембридж,Кембриџ,Кембриҷ,Кембрыдж,Кембрідж,Քեմբրիջ,קיימברידג',كامبريدج,کمبریج,کیمبرج,केंब्रिज,ক্যামব্রিজ,ಕೇಂಬ್ರಿಜ್,കേംബ്രിഡ്ജ്,เคมบริดจ์,ကိန်းဘရစ်ချ်မြို့,კემბრიჯი,ケンブリッジ,劍橋,케임브리지","latitude":"52.2000000","longitude":"0.1166700","fclass":"P","fcode":"PPLA2","country":"GB","cc2":"","admin1":"ENG","admin2":"C3","admin3":"12UB","admin4":"","population":158434,"elevation":0,"gtopo30":12,"timezone":"Europe/London","moddate":"2019-09-05T00:00:00.000Z"},{"geonameid":10103875,"name":"Castle","asciiname":"Castle","alternatenames":"","latitude":"52.2208300","longitude":"0.1055300","fclass":"P","fcode":"PPLX","country":"GB","cc2":"","admin1":"ENG","admin2":"C3","admin3":"12UB","admin4":"","population":0,"elevation":0,"gtopo30":17,"timezone":"Europe/London","moddate":"2015-02-16T00:00:00.000Z"},{"geonameid":2653603,"name":"Castle Camps","asciiname":"Castle Camps","alternatenames":"Castle Camp,Castle Camps","latitude":"52.0633400","longitude":"0.3798900","fclass":"P","fcode":"PPL","country":"GB","cc2":"","admin1":"ENG","admin2":"C3","admin3":"12UG","admin4":"12UG014","population":684,"elevation":0,"gtopo30":125,"timezone":"Europe/London","moddate":"2018-07-03T00:00:00.000Z"},{"geonameid":2653489,"name":"Catworth","asciiname":"Catworth","alternatenames":"Catworth","latitude":"52.3465900","longitude":"-0.4074800","fclass":"P","fcode":"PPL","country":"GB","cc2":"","admin1":"ENG","admin2":"C3","admin3":"12UE","admin4":"12UE015","population":347,"elevation":0,"gtopo30":68,"timezone":"Europe/London","moddate":"2018-07-03T00:00:00.000Z"},{"geonameid":2653462,"name":"Caxton","asciiname":"Caxton","alternatenames":"","latitude":"52.2057500","longitude":"-0.0925500","fclass":"P","fcode":"PPL","country":"GB","cc2":"","admin1":"ENG","admin2":"C3","admin3":"12UG","admin4":"12UG015","population":572,"elevation":0,"gtopo30":50,"timezone":"Europe/London","moddate":"2018-07-03T00:00:00.000Z"},{"geonameid":2653298,"name":"Chatteris","asciiname":"Chatteris","alternatenames":"Caterisas,chatrys,Čaterisas,چاتریس","latitude":"52.4562400","longitude":"0.0523600","fclass":"P","fcode":"PPL","country":"GB","cc2":"","admin1":"ENG","admin2":"C3","admin3":"12UD","admin4":"12UD002","population":10298,"elevation":0,"gtopo30":11,"timezone":"Europe/London","moddate":"2018-07-03T00:00:00.000Z"},{"geonameid":2653242,"name":"Cherry Hinton","asciiname":"Cherry Hinton","alternatenames":"","latitude":"52.1900400","longitude":"0.1656500","fclass":"P","fcode":"PPLX","country":"GB","cc2":"","admin1":"ENG","admin2":"C3","admin3":"12UB","admin4":"","population":0,"elevation":0,"gtopo30":12,"timezone":"Europe/London","moddate":"2015-02-22T00:00:00.000Z"},{"geonameid":2653217,"name":"Chesterton","asciiname":"Chesterton","alternatenames":"Chesterton","latitude":"52.5333300","longitude":"-0.3333300","fclass":"P","fcode":"PPL","country":"GB","cc2":"","admin1":"ENG","admin2":"C3","admin3":"12UE","admin4":"12UE016","population":0,"elevation":0,"gtopo30":53,"timezone":"Europe/London","moddate":"2018-07-03T00:00:00.000Z"},{"geonameid":2653218,"name":"Chesterton","asciiname":"Chesterton","alternatenames":"Chesterton","latitude":"52.2215200","longitude":"0.1404200","fclass":"P","fcode":"PPL","country":"GB","cc2":"","admin1":"ENG","admin2":"C3","admin3":"12UB","admin4":"","population":0,"elevation":0,"gtopo30":10,"timezone":"Europe/London","moddate":"2015-02-16T00:00:00.000Z"},{"geonameid":2653211,"name":"Chettisham","asciiname":"Chettisham","alternatenames":"Chetisham,Chettisham","latitude":"52.4226300","longitude":"0.2756000","fclass":"P","fcode":"PPL","country":"GB","cc2":"","admin1":"ENG","admin2":"C3","admin3":"2650488","admin4":"12UC011","population":0,"elevation":0,"gtopo30":17,"timezone":"Europe/London","moddate":"2018-07-03T00:00:00.000Z"},{"geonameid":2653205,"name":"Cheveley","asciiname":"Cheveley","alternatenames":"Cheveley","latitude":"52.2204900","longitude":"0.4643000","fclass":"P","fcode":"PPL","country":"GB","cc2":"","admin1":"ENG","admin2":"C3","admin3":"2650488","admin4":"12UC006","population":884,"elevation":0,"gtopo30":97,"timezone":"Europe/London","moddate":"2018-07-03T00:00:00.000Z"},{"geonameid":2653143,"name":"Chippenham","asciiname":"Chippenham","alternatenames":"Chippenham","latitude":"52.3018400","longitude":"0.4363600","fclass":"P","fcode":"PPL","country":"GB","cc2":"","admin1":"ENG","admin2":"C3","admin3":"2650488","admin4":"12UC007","population":517,"elevation":0,"gtopo30":20,"timezone":"Europe/London","moddate":"2018-07-03T00:00:00.000Z"},{"geonameid":11593133,"name":"Christchurch","asciiname":"Christchurch","alternatenames":"","latitude":"52.5472100","longitude":"0.1999000","fclass":"P","fcode":"PPL","country":"GB","cc2":"","admin1":"ENG","admin2":"C3","admin3":"12UD","admin4":"12UD011","population":0,"elevation":0,"gtopo30":3,"timezone":"Europe/London","moddate":"2017-06-21T00:00:00.000Z"},{"geonameid":2652611,"name":"Coldham","asciiname":"Coldham","alternatenames":"","latitude":"52.6045100","longitude":"0.1169000","fclass":"P","fcode":"PPL","country":"GB","cc2":"","admin1":"ENG","admin2":"C3","admin3":"12UD","admin4":"12UD004","population":0,"elevation":0,"gtopo30":5,"timezone":"Europe/London","moddate":"2018-07-03T00:00:00.000Z"},{"geonameid":2652545,"name":"Colne","asciiname":"Colne","alternatenames":"Colne","latitude":"52.3666700","longitude":"0.0166700","fclass":"P","fcode":"PPL","country":"GB","cc2":"","admin1":"ENG","admin2":"C3","admin3":"12UE","admin4":"12UE017","population":0,"elevation":0,"gtopo30":10,"timezone":"Europe/London","moddate":"2018-07-03T00:00:00.000Z"},{"geonameid":2652502,"name":"Comberton","asciiname":"Comberton","alternatenames":"","latitude":"52.1870900","longitude":"0.0190500","fclass":"P","fcode":"PPL","country":"GB","cc2":"","admin1":"ENG","admin2":"C3","admin3":"12UG","admin4":"12UG017","population":2346,"elevation":0,"gtopo30":33,"timezone":"Europe/London","moddate":"2018-07-03T00:00:00.000Z"},{"geonameid":2652459,"name":"Conington","asciiname":"Conington","alternatenames":"Conington,Connington","latitude":"52.4583900","longitude":"-0.2707500","fclass":"P","fcode":"PPL","country":"GB","cc2":"","admin1":"ENG","admin2":"C3","admin3":"12UE","admin4":"12UE018","population":0,"elevation":0,"gtopo30":12,"timezone":"Europe/London","moddate":"2018-07-03T00:00:00.000Z"},{"geonameid":2652460,"name":"Conington","asciiname":"Conington","alternatenames":"","latitude":"52.2774300","longitude":"-0.0656200","fclass":"P","fcode":"PPL","country":"GB","cc2":"","admin1":"ENG","admin2":"C3","admin3":"12UG","admin4":"12UG018","population":0,"elevation":0,"gtopo30":21,"timezone":"Europe/London","moddate":"2018-07-03T00:00:00.000Z"},{"geonameid":2652391,"name":"Coppingford","asciiname":"Coppingford","alternatenames":"Coppingford","latitude":"52.4000000","longitude":"-0.2833300","fclass":"P","fcode":"PPL","country":"GB","cc2":"","admin1":"ENG","admin2":"C3","admin3":"12UE","admin4":"12UE075","population":0,"elevation":0,"gtopo30":53,"timezone":"Europe/London","moddate":"2018-07-03T00:00:00.000Z"},{"geonameid":2652275,"name":"Coton","asciiname":"Coton","alternatenames":"","latitude":"52.2105800","longitude":"0.0609400","fclass":"P","fcode":"PPL","country":"GB","cc2":"","admin1":"ENG","admin2":"C3","admin3":"12UG","admin4":"12UG019","population":910,"elevation":0,"gtopo30":36,"timezone":"Europe/London","moddate":"2018-07-03T00:00:00.000Z"},{"geonameid":2652269,"name":"Cottenham","asciiname":"Cottenham","alternatenames":"","latitude":"52.2874300","longitude":"0.1254000","fclass":"P","fcode":"PPL","country":"GB","cc2":"","admin1":"ENG","admin2":"C3","admin3":"12UG","admin4":"12UG020","population":5903,"elevation":0,"gtopo30":13,"timezone":"Europe/London","moddate":"2018-07-03T00:00:00.000Z"},{"geonameid":2652224,"name":"Coveney","asciiname":"Coveney","alternatenames":"Coveney","latitude":"52.4166600","longitude":"0.1884800","fclass":"P","fcode":"PPL","country":"GB","cc2":"","admin1":"ENG","admin2":"C3","admin3":"2650488","admin4":"","population":424,"elevation":0,"gtopo30":13,"timezone":"Europe/London","moddate":"2017-06-12T00:00:00.000Z"},{"geonameid":2651825,"name":"Croxton","asciiname":"Croxton","alternatenames":"","latitude":"52.2248600","longitude":"-0.1790400","fclass":"P","fcode":"PPL","country":"GB","cc2":"","admin1":"ENG","admin2":"C3","admin3":"12UG","admin4":"12UG021","population":0,"elevation":0,"gtopo30":58,"timezone":"Europe/London","moddate":"2018-07-03T00:00:00.000Z"},{"geonameid":7287971,"name":"Croydon","asciiname":"Croydon","alternatenames":"","latitude":"52.1286700","longitude":"-0.0798200","fclass":"P","fcode":"PPL","country":"GB","cc2":"","admin1":"ENG","admin2":"C3","admin3":"12UG","admin4":"12UG022","population":221,"elevation":0,"gtopo30":51,"timezone":"Europe/London","moddate":"2018-07-03T00:00:00.000Z"},{"geonameid":2651268,"name":"Diddington","asciiname":"Diddington","alternatenames":"Diddington","latitude":"52.2768800","longitude":"-0.2583900","fclass":"P","fcode":"PPL","country":"GB","cc2":"","admin1":"ENG","admin2":"C3","admin3":"12UE","admin4":"12UE021","population":0,"elevation":0,"gtopo30":30,"timezone":"Europe/London","moddate":"2018-07-03T00:00:00.000Z"},{"geonameid":2651181,"name":"Doddington","asciiname":"Doddington","alternatenames":"","latitude":"52.4967100","longitude":"0.0601700","fclass":"P","fcode":"PPL","country":"GB","cc2":"","admin1":"ENG","admin2":"C3","admin3":"12UD","admin4":"12UD003","population":3235,"elevation":0,"gtopo30":10,"timezone":"Europe/London","moddate":"2018-07-03T00:00:00.000Z"},{"geonameid":2651031,"name":"Downham","asciiname":"Downham","alternatenames":"","latitude":"52.4311600","longitude":"0.2401500","fclass":"P","fcode":"PPL","country":"GB","cc2":"","admin1":"ENG","admin2":"C3","admin3":"2650488","admin4":"12UC009","population":0,"elevation":0,"gtopo30":18,"timezone":"Europe/London","moddate":"2018-07-03T00:00:00.000Z"},{"geonameid":2650898,"name":"Dry Drayton","asciiname":"Dry Drayton","alternatenames":"","latitude":"52.2416800","longitude":"0.0180700","fclass":"P","fcode":"PPL","country":"GB","cc2":"","admin1":"ENG","admin2":"C3","admin3":"12UG","admin4":"12UG023","population":643,"elevation":0,"gtopo30":46,"timezone":"Europe/London","moddate":"2018-07-03T00:00:00.000Z"},{"geonameid":2650808,"name":"Dullingham","asciiname":"Dullingham","alternatenames":"Dullingham","latitude":"52.1949300","longitude":"0.3836600","fclass":"P","fcode":"PPL","country":"GB","cc2":"","admin1":"ENG","admin2":"C3","admin3":"2650488","admin4":"12UC010","population":0,"elevation":0,"gtopo30":82,"timezone":"Europe/London","moddate":"2018-07-03T00:00:00.000Z"},{"geonameid":2650605,"name":"Duxford","asciiname":"Duxford","alternatenames":"Duxford,QFO","latitude":"52.0939300","longitude":"0.1591700","fclass":"P","fcode":"PPL","country":"GB","cc2":"","admin1":"ENG","admin2":"C3","admin3":"12UG","admin4":"12UG024","population":2099,"elevation":0,"gtopo30":32,"timezone":"Europe/London","moddate":"2018-07-03T00:00:00.000Z"},{"geonameid":2650558,"name":"Earith","asciiname":"Earith","alternatenames":"Earith","latitude":"52.3542200","longitude":"0.0305600","fclass":"P","fcode":"PPL","country":"GB","cc2":"","admin1":"ENG","admin2":"C3","admin3":"12UE","admin4":"12UE022","population":1606,"elevation":0,"gtopo30":10,"timezone":"Europe/London","moddate":"2018-07-03T00:00:00.000Z"},{"geonameid":2650420,"name":"East Hatley","asciiname":"East Hatley","alternatenames":"","latitude":"52.1396800","longitude":"-0.1186800","fclass":"P","fcode":"PPL","country":"GB","cc2":"","admin1":"ENG","admin2":"C3","admin3":"12UG","admin4":"12UG046","population":0,"elevation":0,"gtopo30":80,"timezone":"Europe/London","moddate":"2018-07-03T00:00:00.000Z"},{"geonameid":2650365,"name":"Easton","asciiname":"Easton","alternatenames":"","latitude":"52.3305700","longitude":"-0.3299300","fclass":"P","fcode":"PPL","country":"GB","cc2":"","admin1":"ENG","admin2":"C3","admin3":"12UE","admin4":"12UE023","population":0,"elevation":0,"gtopo30":22,"timezone":"Europe/London","moddate":"2018-07-03T00:00:00.000Z"},{"geonameid":2650293,"name":"Eaton Socon","asciiname":"Eaton Socon","alternatenames":"Eaton Socon","latitude":"52.2175200","longitude":"-0.2892500","fclass":"P","fcode":"PPL","country":"GB","cc2":"","admin1":"ENG","admin2":"C3","admin3":"12UE","admin4":"12UE061","population":12712,"elevation":0,"gtopo30":24,"timezone":"Europe/London","moddate":"2018-07-03T00:00:00.000Z"},{"geonameid":2650092,"name":"Ellington","asciiname":"Ellington","alternatenames":"","latitude":"52.3325600","longitude":"-0.2993800","fclass":"P","fcode":"PPL","country":"GB","cc2":"","admin1":"ENG","admin2":"C3","admin3":"12UE","admin4":"12UE024","population":585,"elevation":0,"gtopo30":27,"timezone":"Europe/London","moddate":"2018-07-03T00:00:00.000Z"},{"geonameid":2650081,"name":"Elm","asciiname":"Elm","alternatenames":"","latitude":"52.6364500","longitude":"0.1709700","fclass":"P","fcode":"PPL","country":"GB","cc2":"","admin1":"ENG","admin2":"C3","admin3":"12UD","admin4":"12UD004","population":0,"elevation":0,"gtopo30":3,"timezone":"Europe/London","moddate":"2018-07-03T00:00:00.000Z"},{"geonameid":2650044,"name":"Elsworth","asciiname":"Elsworth","alternatenames":"","latitude":"52.2547000","longitude":"-0.0722500","fclass":"P","fcode":"PPL","country":"GB","cc2":"","admin1":"ENG","admin2":"C3","admin3":"12UG","admin4":"12UG025","population":566,"elevation":0,"gtopo30":27,"timezone":"Europe/London","moddate":"2018-07-03T00:00:00.000Z"},{"geonameid":2650041,"name":"Eltisley","asciiname":"Eltisley","alternatenames":"Eltisley","latitude":"52.2209400","longitude":"-0.1426900","fclass":"P","fcode":"PPL","country":"GB","cc2":"","admin1":"ENG","admin2":"C3","admin3":"12UG","admin4":"12UG026","population":401,"elevation":0,"gtopo30":66,"timezone":"Europe/London","moddate":"2018-07-03T00:00:00.000Z"},{"geonameid":2650039,"name":"Elton","asciiname":"Elton","alternatenames":"","latitude":"52.5313400","longitude":"-0.3953400","fclass":"P","fcode":"PPL","country":"GB","cc2":"","admin1":"ENG","admin2":"C3","admin3":"12UE","admin4":"12UE025","population":679,"elevation":0,"gtopo30":32,"timezone":"Europe/London","moddate":"2018-07-03T00:00:00.000Z"},{"geonameid":2650023,"name":"Ely","asciiname":"Ely","alternatenames":"Elig,Ely,Ili,Ilis,alayy,aly  kmryjshayr,ayly,ayly  kymbrjshayr,illi,iri,yi li,Ілі,Или,Իլի,إيلي,الائی,الی، کمبریج‌شایر,الی، کمریجشایر,ایلی، کیمبرجشائر,イーリー,伊利,일리","latitude":"52.3996400","longitude":"0.2619600","fclass":"P","fcode":"PPL","country":"GB","cc2":"","admin1":"ENG","admin2":"C3","admin3":"2650488","admin4":"12UC011","population":19090,"elevation":0,"gtopo30":21,"timezone":"Europe/London","moddate":"2018-07-03T00:00:00.000Z"},{"geonameid":2649839,"name":"Eversden","asciiname":"Eversden","alternatenames":"","latitude":"52.1611400","longitude":"0.0000900","fclass":"P","fcode":"PPL","country":"GB","cc2":"","admin1":"ENG","admin2":"C3","admin3":"12UG","admin4":"12UG038","population":0,"elevation":0,"gtopo30":33,"timezone":"Europe/London","moddate":"2018-07-03T00:00:00.000Z"},{"geonameid":2649694,"name":"Farcet","asciiname":"Farcet","alternatenames":"Farcet","latitude":"52.5362700","longitude":"-0.2288200","fclass":"P","fcode":"PPL","country":"GB","cc2":"","admin1":"ENG","admin2":"C3","admin3":"12UE","admin4":"12UE027","population":0,"elevation":0,"gtopo30":18,"timezone":"Europe/London","moddate":"2018-07-03T00:00:00.000Z"},{"geonameid":11887938,"name":"Fen Ditton","asciiname":"Fen Ditton","alternatenames":"","latitude":"52.2202900","longitude":"0.1727300","fclass":"P","fcode":"PPL","country":"GB","cc2":"","admin1":"ENG","admin2":"C3","admin3":"12UG","admin4":"12UG027","population":0,"elevation":0,"gtopo30":40,"timezone":"Europe/London","moddate":"2018-06-29T00:00:00.000Z"},{"geonameid":11592809,"name":"Fen Drayton","asciiname":"Fen Drayton","alternatenames":"","latitude":"52.2959900","longitude":"-0.0388000","fclass":"P","fcode":"PPL","country":"GB","cc2":"","admin1":"ENG","admin2":"C3","admin3":"12UG","admin4":"12UG028","population":0,"elevation":0,"gtopo30":10,"timezone":"Europe/London","moddate":"2017-06-19T00:00:00.000Z"},{"geonameid":2649549,"name":"Fenstanton","asciiname":"Fenstanton","alternatenames":"","latitude":"52.2990300","longitude":"-0.0671200","fclass":"P","fcode":"PPL","country":"GB","cc2":"","admin1":"ENG","admin2":"C3","admin3":"12UE","admin4":"12UE028","population":2639,"elevation":0,"gtopo30":16,"timezone":"Europe/London","moddate":"2018-07-03T00:00:00.000Z"},{"geonameid":2649255,"name":"Folksworth","asciiname":"Folksworth","alternatenames":"Folksworth","latitude":"52.4953700","longitude":"-0.3127800","fclass":"P","fcode":"PPL","country":"GB","cc2":"","admin1":"ENG","admin2":"C3","admin3":"12UE","admin4":"12UE029","population":881,"elevation":0,"gtopo30":40,"timezone":"Europe/London","moddate":"2018-07-03T00:00:00.000Z"},{"geonameid":2649229,"name":"Fordham","asciiname":"Fordham","alternatenames":"","latitude":"52.3112900","longitude":"0.3905700","fclass":"P","fcode":"PPL","country":"GB","cc2":"","admin1":"ENG","admin2":"C3","admin3":"2650488","admin4":"12UC012","population":2712,"elevation":0,"gtopo30":12,"timezone":"Europe/London","moddate":"2018-07-03T00:00:00.000Z"},{"geonameid":2649122,"name":"Fowlmere","asciiname":"Fowlmere","alternatenames":"Foulmere,Fowlmere","latitude":"52.0934300","longitude":"0.0743300","fclass":"P","fcode":"PPL","country":"GB","cc2":"","admin1":"ENG","admin2":"C3","admin3":"12UG","admin4":"12UG029","population":1206,"elevation":0,"gtopo30":27,"timezone":"Europe/London","moddate":"2018-07-03T00:00:00.000Z"},{"geonameid":2649116,"name":"Foxton","asciiname":"Foxton","alternatenames":"","latitude":"52.1151000","longitude":"0.0586200","fclass":"P","fcode":"PPL","country":"GB","cc2":"","admin1":"ENG","admin2":"C3","admin3":"12UG","admin4":"12UG030","population":0,"elevation":0,"gtopo30":20,"timezone":"Europe/London","moddate":"2018-07-03T00:00:00.000Z"},{"geonameid":2649000,"name":"Fulbourn","asciiname":"Fulbourn","alternatenames":"Fulbourn,Fulbourne","latitude":"52.1828300","longitude":"0.2204600","fclass":"P","fcode":"PPLA4","country":"GB","cc2":"","admin1":"ENG","admin2":"C3","admin3":"12UG","admin4":"12UG031","population":3725,"elevation":0,"gtopo30":19,"timezone":"Europe/London","moddate":"2015-02-22T00:00:00.000Z"},{"geonameid":2648899,"name":"Gamlingay","asciiname":"Gamlingay","alternatenames":"ghmlynghy,غملينغي","latitude":"52.1556100","longitude":"-0.1930300","fclass":"P","fcode":"PPL","country":"GB","cc2":"","admin1":"ENG","admin2":"C3","admin3":"12UG","admin4":"12UG032","population":3247,"elevation":0,"gtopo30":55,"timezone":"Europe/London","moddate":"2018-07-03T00:00:00.000Z"},{"geonameid":2648627,"name":"Girton","asciiname":"Girton","alternatenames":"Girton","latitude":"52.2333300","longitude":"0.0833300","fclass":"P","fcode":"PPL","country":"GB","cc2":"","admin1":"ENG","admin2":"C3","admin3":"12UG","admin4":"12UG033","population":3836,"elevation":0,"gtopo30":22,"timezone":"Europe/London","moddate":"2018-07-03T00:00:00.000Z"},{"geonameid":2648556,"name":"Glatton","asciiname":"Glatton","alternatenames":"Glatton","latitude":"52.4603600","longitude":"-0.3025100","fclass":"P","fcode":"PPL","country":"GB","cc2":"","admin1":"ENG","admin2":"C3","admin3":"12UE","admin4":"12UE030","population":308,"elevation":0,"gtopo30":27,"timezone":"Europe/London","moddate":"2018-07-03T00:00:00.000Z"},{"geonameid":2648370,"name":"Godmanchester","asciiname":"Godmanchester","alternatenames":"Durolipons,Godmanchester,Godmundesceaster,gwdmnchstr,گودمنچستر","latitude":"52.3193900","longitude":"-0.1750900","fclass":"P","fcode":"PPL","country":"GB","cc2":"","admin1":"ENG","admin2":"C3","admin3":"12UE","admin4":"12UE031","population":6506,"elevation":0,"gtopo30":12,"timezone":"Europe/London","moddate":"2018-07-03T00:00:00.000Z"},{"geonameid":2648303,"name":"Gorfield","asciiname":"Gorfield","alternatenames":"Gorefield","latitude":"52.6871500","longitude":"0.0952700","fclass":"P","fcode":"PPL","country":"GB","cc2":"","admin1":"ENG","admin2":"C3","admin3":"12UD","admin4":"12UD016","population":0,"elevation":0,"gtopo30":5,"timezone":"Europe/London","moddate":"2018-07-03T00:00:00.000Z"},{"geonameid":2648242,"name":"Grafham","asciiname":"Grafham","alternatenames":"Graffham,Grafham","latitude":"52.3080100","longitude":"-0.2975700","fclass":"P","fcode":"PPL","country":"GB","cc2":"","admin1":"ENG","admin2":"C3","admin3":"12UE","admin4":"12UE032","population":0,"elevation":0,"gtopo30":59,"timezone":"Europe/London","moddate":"2018-07-03T00:00:00.000Z"},{"geonameid":10103877,"name":"Grantchester","asciiname":"Grantchester","alternatenames":"","latitude":"52.1809300","longitude":"0.0907200","fclass":"P","fcode":"PPLA4","country":"GB","cc2":"","admin1":"ENG","admin2":"C3","admin3":"12UG","admin4":"12UG034","population":540,"elevation":0,"gtopo30":21,"timezone":"Europe/London","moddate":"2017-06-12T00:00:00.000Z"},{"geonameid":2648194,"name":"Graveley","asciiname":"Graveley","alternatenames":"","latitude":"52.2604900","longitude":"-0.1729500","fclass":"P","fcode":"PPL","country":"GB","cc2":"","admin1":"ENG","admin2":"C3","admin3":"12UG","admin4":"12UG035","population":289,"elevation":0,"gtopo30":51,"timezone":"Europe/London","moddate":"2018-07-03T00:00:00.000Z"},{"geonameid":2648135,"name":"Great Chishill","asciiname":"Great Chishill","alternatenames":"","latitude":"52.0297400","longitude":"0.0719300","fclass":"P","fcode":"PPL","country":"GB","cc2":"","admin1":"ENG","admin2":"C3","admin3":"12UG","admin4":"12UG037","population":921,"elevation":0,"gtopo30":137,"timezone":"Europe/London","moddate":"2018-07-03T00:00:00.000Z"},{"geonameid":11593288,"name":"Great Eversden","asciiname":"Great Eversden","alternatenames":"","latitude":"52.1629300","longitude":"-0.0086300","fclass":"P","fcode":"PPL","country":"GB","cc2":"","admin1":"ENG","admin2":"C3","admin3":"12UG","admin4":"12UG038","population":0,"elevation":0,"gtopo30":34,"timezone":"Europe/London","moddate":"2017-06-22T00:00:00.000Z"},{"geonameid":2648100,"name":"Great Gidding","asciiname":"Great Gidding","alternatenames":"Gidding,Great Gidding","latitude":"52.4332500","longitude":"-0.3587300","fclass":"P","fcode":"PPL","country":"GB","cc2":"","admin1":"ENG","admin2":"C3","admin3":"12UE","admin4":"12UE033","population":363,"elevation":0,"gtopo30":47,"timezone":"Europe/London","moddate":"2018-07-03T00:00:00.000Z"},{"geonameid":2648095,"name":"Great Gransden","asciiname":"Great Gransden","alternatenames":"Gransden,Great Gransden","latitude":"52.1854600","longitude":"-0.1457400","fclass":"P","fcode":"PPL","country":"GB","cc2":"","admin1":"ENG","admin2":"C3","admin3":"12UE","admin4":"12UE034","population":1319,"elevation":0,"gtopo30":54,"timezone":"Europe/London","moddate":"2018-07-03T00:00:00.000Z"},{"geonameid":2648038,"name":"Great Paxton","asciiname":"Great Paxton","alternatenames":"Great Paxton","latitude":"52.2605700","longitude":"-0.2281800","fclass":"P","fcode":"PPL","country":"GB","cc2":"","admin1":"ENG","admin2":"C3","admin3":"12UE","admin4":"12UE035","population":1007,"elevation":0,"gtopo30":30,"timezone":"Europe/London","moddate":"2018-07-03T00:00:00.000Z"},{"geonameid":7287968,"name":"Great Shelford","asciiname":"Great Shelford","alternatenames":"","latitude":"52.1503400","longitude":"0.1362100","fclass":"P","fcode":"PPL","country":"GB","cc2":"","admin1":"ENG","admin2":"C3","admin3":"12UG","admin4":"12UG039","population":0,"elevation":0,"gtopo30":19,"timezone":"Europe/London","moddate":"2018-07-03T00:00:00.000Z"},{"geonameid":2648014,"name":"Great Staughton","asciiname":"Great Staughton","alternatenames":"Great Staughton","latitude":"52.2676300","longitude":"-0.3411800","fclass":"P","fcode":"PPL","country":"GB","cc2":"","admin1":"ENG","admin2":"C3","admin3":"12UE","admin4":"12UE036","population":896,"elevation":0,"gtopo30":28,"timezone":"Europe/London","moddate":"2018-07-03T00:00:00.000Z"},{"geonameid":2648010,"name":"Great Stukeley","asciiname":"Great Stukeley","alternatenames":"","latitude":"52.3565700","longitude":"-0.2107100","fclass":"P","fcode":"PPL","country":"GB","cc2":"","admin1":"ENG","admin2":"C3","admin3":"12UE","admin4":"12UE072","population":720,"elevation":0,"gtopo30":42,"timezone":"Europe/London","moddate":"2018-07-03T00:00:00.000Z"},{"geonameid":2647992,"name":"Great Wilbraham","asciiname":"Great Wilbraham","alternatenames":"Great Wilbraham,Wilbraham","latitude":"52.1934600","longitude":"0.2669800","fclass":"P","fcode":"PPL","country":"GB","cc2":"","admin1":"ENG","admin2":"C3","admin3":"12UG","admin4":"12UG040","population":654,"elevation":0,"gtopo30":21,"timezone":"Europe/London","moddate":"2018-07-03T00:00:00.000Z"},{"geonameid":2647794,"name":"Guilden Morden","asciiname":"Guilden Morden","alternatenames":"Guilden Morden","latitude":"52.0808000","longitude":"-0.1330400","fclass":"P","fcode":"PPL","country":"GB","cc2":"","admin1":"ENG","admin2":"C3","admin3":"12UG","admin4":"12UG041","population":986,"elevation":0,"gtopo30":44,"timezone":"Europe/London","moddate":"2018-07-03T00:00:00.000Z"},{"geonameid":2647742,"name":"Guyhirn","asciiname":"Guyhirn","alternatenames":"Guyhirn,Guyhirne","latitude":"52.6087300","longitude":"0.0594800","fclass":"P","fcode":"PPL","country":"GB","cc2":"","admin1":"ENG","admin2":"C3","admin3":"12UD","admin4":"12UD015","population":333,"elevation":0,"gtopo30":1,"timezone":"Europe/London","moddate":"2018-07-03T00:00:00.000Z"},{"geonameid":2647687,"name":"Haddenham","asciiname":"Haddenham","alternatenames":"","latitude":"52.3578900","longitude":"0.1482700","fclass":"P","fcode":"PPL","country":"GB","cc2":"","admin1":"ENG","admin2":"C3","admin3":"2650488","admin4":"12UC013","population":2937,"elevation":0,"gtopo30":37,"timezone":"Europe/London","moddate":"2018-07-03T00:00:00.000Z"},{"geonameid":2647682,"name":"Haddon","asciiname":"Haddon","alternatenames":"Haddon","latitude":"52.5203500","longitude":"-0.3283900","fclass":"P","fcode":"PPL","country":"GB","cc2":"","admin1":"ENG","admin2":"C3","admin3":"12UE","admin4":"12UE037","population":0,"elevation":0,"gtopo30":34,"timezone":"Europe/London","moddate":"2018-07-03T00:00:00.000Z"},{"geonameid":2647654,"name":"Hail Weston","asciiname":"Hail Weston","alternatenames":"Hail Weston","latitude":"52.2454100","longitude":"-0.2943100","fclass":"P","fcode":"PPL","country":"GB","cc2":"","admin1":"ENG","admin2":"C3","admin3":"12UE","admin4":"12UE038","population":610,"elevation":0,"gtopo30":32,"timezone":"Europe/London","moddate":"2018-07-03T00:00:00.000Z"},{"geonameid":2647573,"name":"Hamerton","asciiname":"Hamerton","alternatenames":"Hamerton","latitude":"52.4027300","longitude":"-0.3318600","fclass":"P","fcode":"PPL","country":"GB","cc2":"","admin1":"ENG","admin2":"C3","admin3":"12UE","admin4":"12UE086","population":0,"elevation":0,"gtopo30":34,"timezone":"Europe/London","moddate":"2018-07-03T00:00:00.000Z"},{"geonameid":2647492,"name":"Hardwick","asciiname":"Hardwick","alternatenames":"Hardwick,Hardwicke","latitude":"52.2088200","longitude":"0.0081500","fclass":"P","fcode":"PPL","country":"GB","cc2":"","admin1":"ENG","admin2":"C3","admin3":"12UG","admin4":"12UG042","population":0,"elevation":0,"gtopo30":66,"timezone":"Europe/London","moddate":"2018-07-03T00:00:00.000Z"},{"geonameid":11592811,"name":"Harlton","asciiname":"Harlton","alternatenames":"","latitude":"52.1525000","longitude":"0.0263900","fclass":"P","fcode":"PPL","country":"GB","cc2":"","admin1":"ENG","admin2":"C3","admin3":"12UG","admin4":"12UG043","population":0,"elevation":0,"gtopo30":36,"timezone":"Europe/London","moddate":"2017-06-19T00:00:00.000Z"},{"geonameid":2647419,"name":"Harston","asciiname":"Harston","alternatenames":"","latitude":"52.1369100","longitude":"0.0799900","fclass":"P","fcode":"PPL","country":"GB","cc2":"","admin1":"ENG","admin2":"C3","admin3":"12UG","admin4":"12UG044","population":1729,"elevation":0,"gtopo30":17,"timezone":"Europe/London","moddate":"2018-07-03T00:00:00.000Z"},{"geonameid":2647410,"name":"Hartford","asciiname":"Hartford","alternatenames":"Hartford","latitude":"52.3380700","longitude":"-0.1577600","fclass":"P","fcode":"PPL","country":"GB","cc2":"","admin1":"ENG","admin2":"C3","admin3":"12UE","admin4":"12UE046","population":0,"elevation":0,"gtopo30":14,"timezone":"Europe/London","moddate":"2018-07-03T00:00:00.000Z"},{"geonameid":2647362,"name":"Haslingfield","asciiname":"Haslingfield","alternatenames":"Haslingfield","latitude":"52.1501600","longitude":"0.0557900","fclass":"P","fcode":"PPL","country":"GB","cc2":"","admin1":"ENG","admin2":"C3","admin3":"12UG","admin4":"12UG045","population":1507,"elevation":0,"gtopo30":24,"timezone":"Europe/London","moddate":"2018-07-03T00:00:00.000Z"},{"geonameid":2647337,"name":"Hatley Saint George","asciiname":"Hatley Saint George","alternatenames":"Hatley,Hatley Saint George","latitude":"52.1425500","longitude":"-0.1387900","fclass":"P","fcode":"PPL","country":"GB","cc2":"","admin1":"ENG","admin2":"C3","admin3":"12UG","admin4":"12UG046","population":0,"elevation":0,"gtopo30":80,"timezone":"Europe/London","moddate":"2018-07-03T00:00:00.000Z"},{"geonameid":2647318,"name":"Hauxton","asciiname":"Hauxton","alternatenames":"Hauxton","latitude":"52.1489200","longitude":"0.1018000","fclass":"P","fcode":"PPL","country":"GB","cc2":"","admin1":"ENG","admin2":"C3","admin3":"12UG","admin4":"12UG047","population":673,"elevation":0,"gtopo30":16,"timezone":"Europe/London","moddate":"2018-07-03T00:00:00.000Z"},{"geonameid":2647134,"name":"Hemingford Abbots","asciiname":"Hemingford Abbots","alternatenames":"Hemingford Abbots,West Hemingford","latitude":"52.3227500","longitude":"-0.1193900","fclass":"P","fcode":"PPL","country":"GB","cc2":"","admin1":"ENG","admin2":"C3","admin3":"12UE","admin4":"12UE040","population":635,"elevation":0,"gtopo30":13,"timezone":"Europe/London","moddate":"2018-07-03T00:00:00.000Z"},{"geonameid":2647133,"name":"Hemingford Grey","asciiname":"Hemingford Grey","alternatenames":"Hemingford,Hemingford Grey","latitude":"52.3175600","longitude":"-0.1002900","fclass":"P","fcode":"PPL","country":"GB","cc2":"","admin1":"ENG","admin2":"C3","admin3":"12UE","admin4":"12UE041","population":3163,"elevation":0,"gtopo30":10,"timezone":"Europe/London","moddate":"2018-07-03T00:00:00.000Z"},{"geonameid":2647004,"name":"Heydon","asciiname":"Heydon","alternatenames":"","latitude":"52.0403500","longitude":"0.0868600","fclass":"P","fcode":"PPL","country":"GB","cc2":"","admin1":"ENG","admin2":"C3","admin3":"12UG","admin4":"12UG048","population":0,"elevation":0,"gtopo30":141,"timezone":"Europe/London","moddate":"2018-07-03T00:00:00.000Z"},{"geonameid":2646905,"name":"Hildersham","asciiname":"Hildersham","alternatenames":"","latitude":"52.1125700","longitude":"0.2531100","fclass":"P","fcode":"PPL","country":"GB","cc2":"","admin1":"ENG","admin2":"C3","admin3":"12UG","admin4":"12UG049","population":0,"elevation":0,"gtopo30":35,"timezone":"Europe/London","moddate":"2018-07-03T00:00:00.000Z"},{"geonameid":2646875,"name":"Hilton","asciiname":"Hilton","alternatenames":"Hilton","latitude":"52.2790800","longitude":"-0.1122200","fclass":"P","fcode":"PPL","country":"GB","cc2":"","admin1":"ENG","admin2":"C3","admin3":"12UE","admin4":"12UE042","population":1052,"elevation":0,"gtopo30":17,"timezone":"Europe/London","moddate":"2018-07-03T00:00:00.000Z"},{"geonameid":2646840,"name":"Hinxton","asciiname":"Hinxton","alternatenames":"Hinxton","latitude":"52.0852900","longitude":"0.1819800","fclass":"P","fcode":"PPL","country":"GB","cc2":"","admin1":"ENG","admin2":"C3","admin3":"12UG","admin4":"12UG050","population":0,"elevation":0,"gtopo30":39,"timezone":"Europe/London","moddate":"2018-07-03T00:00:00.000Z"},{"geonameid":2646828,"name":"Histon","asciiname":"Histon","alternatenames":"","latitude":"52.2516600","longitude":"0.1064300","fclass":"P","fcode":"PPL","country":"GB","cc2":"","admin1":"ENG","admin2":"C3","admin3":"12UG","admin4":"12UG051","population":7592,"elevation":0,"gtopo30":14,"timezone":"Europe/London","moddate":"2018-07-03T00:00:00.000Z"},{"geonameid":2646731,"name":"Holme","asciiname":"Holme","alternatenames":"","latitude":"52.4758500","longitude":"-0.2453500","fclass":"P","fcode":"PPL","country":"GB","cc2":"","admin1":"ENG","admin2":"C3","admin3":"12UE","admin4":"12UE043","population":636,"elevation":0,"gtopo30":8,"timezone":"Europe/London","moddate":"2018-07-03T00:00:00.000Z"},{"geonameid":2646674,"name":"Holywell","asciiname":"Holywell","alternatenames":"Holywell","latitude":"52.3166700","longitude":"-0.0333300","fclass":"P","fcode":"PPL","country":"GB","cc2":"","admin1":"ENG","admin2":"C3","admin3":"12UE","admin4":"12UE044","population":326,"elevation":0,"gtopo30":10,"timezone":"Europe/London","moddate":"2018-07-03T00:00:00.000Z"},{"geonameid":7670879,"name":"Horningsea","asciiname":"Horningsea","alternatenames":"","latitude":"52.2399500","longitude":"0.1855200","fclass":"P","fcode":"PPL","country":"GB","cc2":"","admin1":"ENG","admin2":"C3","admin3":"12UG","admin4":"12UG052","population":378,"elevation":0,"gtopo30":13,"timezone":"Europe/London","moddate":"2017-06-12T00:00:00.000Z"},{"geonameid":6690256,"name":"Horseheath","asciiname":"Horseheath","alternatenames":"","latitude":"52.0997600","longitude":"0.3522500","fclass":"P","fcode":"PPL","country":"GB","cc2":"","admin1":"ENG","admin2":"C3","admin3":"12UG","admin4":"12UG053","population":369,"elevation":0,"gtopo30":94,"timezone":"Europe/London","moddate":"2018-07-03T00:00:00.000Z"},{"geonameid":10109510,"name":"Horseway","asciiname":"Horseway","alternatenames":"","latitude":"52.4611900","longitude":"0.0975500","fclass":"P","fcode":"PPLX","country":"GB","cc2":"","admin1":"ENG","admin2":"C3","admin3":"12UD","admin4":"12UD002","population":0,"elevation":0,"gtopo30":5,"timezone":"Europe/London","moddate":"2015-02-21T00:00:00.000Z"},{"geonameid":11153730,"name":"Houghton","asciiname":"Houghton","alternatenames":"","latitude":"52.3328200","longitude":"-0.1206800","fclass":"P","fcode":"PPL","country":"GB","cc2":"","admin1":"ENG","admin2":"C3","admin3":"12UE","admin4":"12UE045","population":1391,"elevation":0,"gtopo30":12,"timezone":"Europe/London","moddate":"2017-06-12T00:00:00.000Z"},{"geonameid":2646393,"name":"Huntingdon","asciiname":"Huntingdon","alternatenames":"Gantingdon,Huntandun,Huntandūn,Huntingdon,Huntingtonia,Khuntingdun,The Huntingdon,XHU,hantindon,hantyngdwn,heng ting deng,heontingdeon,Гантінгдон,Хънтингдън,هانتینگدون,ہنٹنگڈن,ハンティンドン,亨廷登,헌팅던","latitude":"52.3304900","longitude":"-0.1865100","fclass":"P","fcode":"PPL","country":"GB","cc2":"","admin1":"ENG","admin2":"C3","admin3":"12UE","admin4":"12UE046","population":23937,"elevation":0,"gtopo30":18,"timezone":"Europe/London","moddate":"2017-06-12T00:00:00.000Z"},{"geonameid":2646303,"name":"Ickleton","asciiname":"Ickleton","alternatenames":"aykltwn,ايكلتون","latitude":"52.0722800","longitude":"0.1773700","fclass":"P","fcode":"PPL","country":"GB","cc2":"","admin1":"ENG","admin2":"C3","admin3":"12UG","admin4":"12UG054","population":709,"elevation":0,"gtopo30":40,"timezone":"Europe/London","moddate":"2018-07-03T00:00:00.000Z"},{"geonameid":2646012,"name":"Isleham","asciiname":"Isleham","alternatenames":"","latitude":"52.3428900","longitude":"0.4121200","fclass":"P","fcode":"PPL","country":"GB","cc2":"","admin1":"ENG","admin2":"C3","admin3":"2650488","admin4":"12UC014","population":2228,"elevation":0,"gtopo30":12,"timezone":"Europe/London","moddate":"2018-07-03T00:00:00.000Z"},{"geonameid":2645806,"name":"Kennett","asciiname":"Kennett","alternatenames":"Kennet,Kennett","latitude":"52.2849600","longitude":"0.4875600","fclass":"P","fcode":"PPL","country":"GB","cc2":"","admin1":"ENG","admin2":"C3","admin3":"2650488","admin4":"12UC015","population":0,"elevation":0,"gtopo30":32,"timezone":"Europe/London","moddate":"2018-07-03T00:00:00.000Z"},{"geonameid":2645731,"name":"Keyston","asciiname":"Keyston","alternatenames":"Keyston","latitude":"52.3662700","longitude":"-0.4688100","fclass":"P","fcode":"PPL","country":"GB","cc2":"","admin1":"ENG","admin2":"C3","admin3":"12UE","admin4":"12UE014","population":0,"elevation":0,"gtopo30":58,"timezone":"Europe/London","moddate":"2018-07-03T00:00:00.000Z"},{"geonameid":2645536,"name":"Kimbolton","asciiname":"Kimbolton","alternatenames":"","latitude":"52.2970400","longitude":"-0.3891600","fclass":"P","fcode":"PPL","country":"GB","cc2":"","admin1":"ENG","admin2":"C3","admin3":"12UE","admin4":"12UE047","population":1103,"elevation":0,"gtopo30":37,"timezone":"Europe/London","moddate":"2018-07-03T00:00:00.000Z"},{"geonameid":2645434,"name":"Kingston","asciiname":"Kingston","alternatenames":"","latitude":"52.1782000","longitude":"-0.0330000","fclass":"P","fcode":"PPL","country":"GB","cc2":"","admin1":"ENG","admin2":"C3","admin3":"12UG","admin4":"12UG056","population":214,"elevation":0,"gtopo30":47,"timezone":"Europe/London","moddate":"2018-07-03T00:00:00.000Z"},{"geonameid":2645187,"name":"Kirtling","asciiname":"Kirtling","alternatenames":"Kirtling","latitude":"52.1861900","longitude":"0.4725000","fclass":"P","fcode":"PPL","country":"GB","cc2":"","admin1":"ENG","admin2":"C3","admin3":"2650488","admin4":"12UC016","population":0,"elevation":0,"gtopo30":82,"timezone":"Europe/London","moddate":"2018-07-03T00:00:00.000Z"},{"geonameid":6284113,"name":"Landbeach","asciiname":"Landbeach","alternatenames":"Landbeach","latitude":"52.2644800","longitude":"0.1622600","fclass":"P","fcode":"PPL","country":"GB","cc2":"","admin1":"ENG","admin2":"C3","admin3":"12UG","admin4":"12UG058","population":0,"elevation":0,"gtopo30":8,"timezone":"Europe/London","moddate":"2018-07-03T00:00:00.000Z"},{"geonameid":2644653,"name":"Leighton Bromswold","asciiname":"Leighton Bromswold","alternatenames":"Leighton,Leighton Bromswold,lytwn brmswld,ليتون برمسولد","latitude":"52.3666700","longitude":"-0.3666700","fclass":"P","fcode":"PPL","country":"GB","cc2":"GB","admin1":"ENG","admin2":"C3","admin3":"12UE","admin4":"12UE049","population":0,"elevation":0,"gtopo30":62,"timezone":"Europe/London","moddate":"2018-07-03T00:00:00.000Z"},{"geonameid":2644566,"name":"Leverington","asciiname":"Leverington","alternatenames":"","latitude":"52.6821100","longitude":"0.1367300","fclass":"P","fcode":"PPL","country":"GB","cc2":"","admin1":"ENG","admin2":"C3","admin3":"12UD","admin4":"12UD005","population":0,"elevation":0,"gtopo30":3,"timezone":"Europe/London","moddate":"2018-07-03T00:00:00.000Z"},{"geonameid":2644434,"name":"Linton","asciiname":"Linton","alternatenames":"","latitude":"52.0978300","longitude":"0.2767200","fclass":"P","fcode":"PPLA4","country":"GB","cc2":"","admin1":"ENG","admin2":"C3","admin3":"12UG","admin4":"12UG059","population":4525,"elevation":0,"gtopo30":42,"timezone":"Europe/London","moddate":"2017-06-12T00:00:00.000Z"},{"geonameid":2644382,"name":"Litlington","asciiname":"Litlington","alternatenames":"","latitude":"52.0671900","longitude":"-0.0884500","fclass":"P","fcode":"PPL","country":"GB","cc2":"","admin1":"ENG","admin2":"C3","admin3":"12UG","admin4":"12UG060","population":877,"elevation":0,"gtopo30":35,"timezone":"Europe/London","moddate":"2018-07-03T00:00:00.000Z"},{"geonameid":11592812,"name":"Little Eversden","asciiname":"Little Eversden","alternatenames":"","latitude":"52.1598000","longitude":"0.0035600","fclass":"P","fcode":"PPL","country":"GB","cc2":"","admin1":"ENG","admin2":"C3","admin3":"12UG","admin4":"12UG062","population":0,"elevation":0,"gtopo30":34,"timezone":"Europe/London","moddate":"2017-06-19T00:00:00.000Z"},{"geonameid":2644271,"name":"Little Paxton","asciiname":"Little Paxton","alternatenames":"Little Paxton","latitude":"52.2504500","longitude":"-0.2580100","fclass":"P","fcode":"PPL","country":"GB","cc2":"","admin1":"ENG","admin2":"C3","admin3":"12UE","admin4":"12UE051","population":3244,"elevation":0,"gtopo30":16,"timezone":"Europe/London","moddate":"2018-07-03T00:00:00.000Z"},{"geonameid":2644266,"name":"Little Raveley","asciiname":"Little Raveley","alternatenames":"Little Raveley,Raveley","latitude":"52.4029400","longitude":"-0.1550500","fclass":"P","fcode":"PPL","country":"GB","cc2":"GB","admin1":"ENG","admin2":"C3","admin3":"12UE","admin4":"12UE076","population":0,"elevation":0,"gtopo30":37,"timezone":"Europe/London","moddate":"2018-07-03T00:00:00.000Z"},{"geonameid":10109506,"name":"Little Street","asciiname":"Little Street","alternatenames":"","latitude":"52.4277300","longitude":"0.2493400","fclass":"P","fcode":"PPLX","country":"GB","cc2":"","admin1":"ENG","admin2":"C3","admin3":"2650488","admin4":"12UC009","population":0,"elevation":0,"gtopo30":9,"timezone":"Europe/London","moddate":"2016-06-22T00:00:00.000Z"},{"geonameid":2644239,"name":"Little Stukeley","asciiname":"Little Stukeley","alternatenames":"Little Stukeley,Stukeley","latitude":"52.3646500","longitude":"-0.2262500","fclass":"P","fcode":"PPL","country":"GB","cc2":"","admin1":"ENG","admin2":"C3","admin3":"12UE","admin4":"12UE072","population":0,"elevation":0,"gtopo30":38,"timezone":"Europe/London","moddate":"2018-07-03T00:00:00.000Z"},{"geonameid":11594611,"name":"Little Thetford","asciiname":"Little Thetford","alternatenames":"","latitude":"52.3631800","longitude":"0.2481800","fclass":"P","fcode":"PPL","country":"GB","cc2":"","admin1":"ENG","admin2":"C3","admin3":"","admin4":"12UC028","population":0,"elevation":0,"gtopo30":8,"timezone":"Europe/London","moddate":"2017-07-04T00:00:00.000Z"},{"geonameid":2644220,"name":"Little Wilbraham","asciiname":"Little Wilbraham","alternatenames":"","latitude":"52.2036600","longitude":"0.2569800","fclass":"P","fcode":"PPL","country":"GB","cc2":"","admin1":"ENG","admin2":"C3","admin3":"12UG","admin4":"12UG065","population":0,"elevation":0,"gtopo30":18,"timezone":"Europe/London","moddate":"2018-07-03T00:00:00.000Z"},{"geonameid":2644268,"name":"Littleport","asciiname":"Littleport","alternatenames":"","latitude":"52.4578400","longitude":"0.3060300","fclass":"P","fcode":"PPL","country":"GB","cc2":"","admin1":"ENG","admin2":"C3","admin3":"2650488","admin4":"12UC017","population":7935,"elevation":0,"gtopo30":7,"timezone":"Europe/London","moddate":"2018-07-03T00:00:00.000Z"},{"geonameid":7670885,"name":"Lode","asciiname":"Lode","alternatenames":"Lod,Лод","latitude":"52.2412200","longitude":"0.2443800","fclass":"P","fcode":"PPL","country":"GB","cc2":"","admin1":"ENG","admin2":"C3","admin3":"2650488","admin4":"12UC018","population":704,"elevation":0,"gtopo30":8,"timezone":"Europe/London","moddate":"2017-06-12T00:00:00.000Z"},{"geonameid":2643752,"name":"Lolworth","asciiname":"Lolworth","alternatenames":"Lolworth","latitude":"52.2578900","longitude":"0.0008600","fclass":"P","fcode":"PPL","country":"GB","cc2":"","admin1":"ENG","admin2":"C3","admin3":"12UG","admin4":"12UG066","population":0,"elevation":0,"gtopo30":47,"timezone":"Europe/London","moddate":"2018-07-03T00:00:00.000Z"},{"geonameid":2643630,"name":"Long Stow","asciiname":"Long Stow","alternatenames":"Long Stow,Stow","latitude":"52.3256600","longitude":"-0.3749500","fclass":"P","fcode":"PPL","country":"GB","cc2":"","admin1":"ENG","admin2":"C3","admin3":"12UE","admin4":"12UE070","population":0,"elevation":0,"gtopo30":74,"timezone":"Europe/London","moddate":"2018-07-03T00:00:00.000Z"},{"geonameid":2643629,"name":"Long Stowe","asciiname":"Long Stowe","alternatenames":"","latitude":"52.1666700","longitude":"-0.0833300","fclass":"P","fcode":"PPL","country":"GB","cc2":"","admin1":"ENG","admin2":"C3","admin3":"12UG","admin4":"12UG068","population":0,"elevation":0,"gtopo30":75,"timezone":"Europe/London","moddate":"2018-07-03T00:00:00.000Z"},{"geonameid":2643634,"name":"Longstanton","asciiname":"Longstanton","alternatenames":"Long Stanton,Longstanton","latitude":"52.2807600","longitude":"0.0455800","fclass":"P","fcode":"PPL","country":"GB","cc2":"","admin1":"ENG","admin2":"C3","admin3":"12UG","admin4":"12UG067","population":2294,"elevation":0,"gtopo30":10,"timezone":"Europe/London","moddate":"2018-07-03T00:00:00.000Z"},{"geonameid":2643231,"name":"Madingley","asciiname":"Madingley","alternatenames":"","latitude":"52.2235100","longitude":"0.0406000","fclass":"P","fcode":"PPL","country":"GB","cc2":"","admin1":"ENG","admin2":"C3","admin3":"12UG","admin4":"12UG069","population":0,"elevation":0,"gtopo30":48,"timezone":"Europe/London","moddate":"2018-07-03T00:00:00.000Z"},{"geonameid":2643121,"name":"Manea","asciiname":"Manea","alternatenames":"","latitude":"52.4848700","longitude":"0.1793000","fclass":"P","fcode":"PPL","country":"GB","cc2":"","admin1":"ENG","admin2":"C3","admin3":"12UD","admin4":"12UD006","population":2088,"elevation":0,"gtopo30":4,"timezone":"Europe/London","moddate":"2018-07-03T00:00:00.000Z"},{"geonameid":2643071,"name":"March","asciiname":"March","alternatenames":"Marcas,March,March i Cambridgeshire,Marčas,Марч,مارچ، کمبریج‌شر","latitude":"52.5513100","longitude":"0.0882800","fclass":"P","fcode":"PPL","country":"GB","cc2":"","admin1":"ENG","admin2":"C3","admin3":"12UD","admin4":"12UD007","population":21051,"elevation":0,"gtopo30":3,"timezone":"Europe/London","moddate":"2018-07-03T00:00:00.000Z"},{"geonameid":2642802,"name":"Melbourn","asciiname":"Melbourn","alternatenames":"Melborn,Melbourn","latitude":"52.0812800","longitude":"0.0151400","fclass":"P","fcode":"PPL","country":"GB","cc2":"","admin1":"ENG","admin2":"C3","admin3":"12UG","admin4":"12UG070","population":4689,"elevation":0,"gtopo30":27,"timezone":"Europe/London","moddate":"2018-07-03T00:00:00.000Z"},{"geonameid":2642792,"name":"Meldreth","asciiname":"Meldreth","alternatenames":"","latitude":"52.0939600","longitude":"0.0080700","fclass":"P","fcode":"PPL","country":"GB","cc2":"","admin1":"ENG","admin2":"C3","admin3":"12UG","admin4":"12UG071","population":1783,"elevation":0,"gtopo30":24,"timezone":"Europe/London","moddate":"2018-07-03T00:00:00.000Z"},{"geonameid":2642732,"name":"Mepal","asciiname":"Mepal","alternatenames":"Mepal","latitude":"52.4042500","longitude":"0.1151400","fclass":"P","fcode":"PPL","country":"GB","cc2":"","admin1":"ENG","admin2":"C3","admin3":"2650488","admin4":"12UC019","population":982,"elevation":0,"gtopo30":8,"timezone":"Europe/London","moddate":"2018-07-03T00:00:00.000Z"},{"geonameid":2642476,"name":"Milton","asciiname":"Milton","alternatenames":"Milton","latitude":"52.2333300","longitude":"0.1500000","fclass":"P","fcode":"PPL","country":"GB","cc2":"","admin1":"ENG","admin2":"C3","admin3":"12UG","admin4":"12UG072","population":0,"elevation":0,"gtopo30":11,"timezone":"Europe/London","moddate":"2018-07-03T00:00:00.000Z"},{"geonameid":2642368,"name":"Molesworth","asciiname":"Molesworth","alternatenames":"Molesworth","latitude":"52.3717700","longitude":"-0.4261100","fclass":"P","fcode":"PPL","country":"GB","cc2":"","admin1":"ENG","admin2":"C3","admin3":"12UE","admin4":"12UE009","population":0,"elevation":0,"gtopo30":48,"timezone":"Europe/London","moddate":"2018-07-03T00:00:00.000Z"},{"geonameid":2642238,"name":"Morborne","asciiname":"Morborne","alternatenames":"Morborne","latitude":"52.5099300","longitude":"-0.3210100","fclass":"P","fcode":"PPL","country":"GB","cc2":"","admin1":"ENG","admin2":"C3","admin3":"12UE","admin4":"12UE052","population":0,"elevation":0,"gtopo30":30,"timezone":"Europe/London","moddate":"2018-07-03T00:00:00.000Z"},{"geonameid":2641951,"name":"Murrow","asciiname":"Murrow","alternatenames":"Murrow","latitude":"52.6425700","longitude":"0.0273800","fclass":"P","fcode":"PPL","country":"GB","cc2":"","admin1":"ENG","admin2":"C3","admin3":"12UD","admin4":"12UD015","population":792,"elevation":0,"gtopo30":1,"timezone":"Europe/London","moddate":"2018-07-03T00:00:00.000Z"},{"geonameid":2641827,"name":"Needingworth","asciiname":"Needingworth","alternatenames":"Needingworth","latitude":"52.3305100","longitude":"-0.0311600","fclass":"P","fcode":"PPL","country":"GB","cc2":"","admin1":"ENG","admin2":"C3","admin3":"12UE","admin4":"12UE044","population":2191,"elevation":0,"gtopo30":15,"timezone":"Europe/London","moddate":"2018-07-03T00:00:00.000Z"},{"geonameid":11592740,"name":"Newton","asciiname":"Newton","alternatenames":"","latitude":"52.1238500","longitude":"0.1011900","fclass":"P","fcode":"PPL","country":"GB","cc2":"","admin1":"ENG","admin2":"C3","admin3":"12UG","admin4":"12UG073","population":0,"elevation":0,"gtopo30":20,"timezone":"Europe/London","moddate":"2017-06-19T00:00:00.000Z"},{"geonameid":2641564,"name":"Newton","asciiname":"Newton","alternatenames":"","latitude":"52.7095700","longitude":"0.1251400","fclass":"P","fcode":"PPL","country":"GB","cc2":"","admin1":"ENG","admin2":"C3","admin3":"12UD","admin4":"12UD008","population":0,"elevation":0,"gtopo30":6,"timezone":"Europe/London","moddate":"2018-07-03T00:00:00.000Z"},{"geonameid":6693667,"name":"Norman Cross","asciiname":"Norman Cross","alternatenames":"","latitude":"52.5040200","longitude":"-0.2917800","fclass":"P","fcode":"PPL","country":"GB","cc2":"","admin1":"ENG","admin2":"C3","admin3":"12UE","admin4":"12UE084","population":0,"elevation":0,"gtopo30":36,"timezone":"Europe/London","moddate":"2018-07-03T00:00:00.000Z"},{"geonameid":12041525,"name":"Northstowe","asciiname":"Northstowe","alternatenames":"","latitude":"52.2877000","longitude":"0.0581200","fclass":"P","fcode":"PPL","country":"GB","cc2":"","admin1":"ENG","admin2":"C3","admin3":"12UG","admin4":"12UG067","population":0,"elevation":0,"gtopo30":30,"timezone":"Europe/London","moddate":"2019-04-24T00:00:00.000Z"},{"geonameid":2641125,"name":"Oakington","asciiname":"Oakington","alternatenames":"","latitude":"52.2604400","longitude":"0.0684900","fclass":"P","fcode":"PPL","country":"GB","cc2":"","admin1":"ENG","admin2":"C3","admin3":"12UG","admin4":"12UG074","population":1527,"elevation":0,"gtopo30":11,"timezone":"Europe/London","moddate":"2018-07-03T00:00:00.000Z"},{"geonameid":2641068,"name":"Offord Cluny","asciiname":"Offord Cluny","alternatenames":"Offord,Offord Cluny","latitude":"52.2888500","longitude":"-0.2135500","fclass":"P","fcode":"PPL","country":"GB","cc2":"","admin1":"ENG","admin2":"C3","admin3":"12UE","admin4":"12UE087","population":0,"elevation":0,"gtopo30":17,"timezone":"Europe/London","moddate":"2018-07-03T00:00:00.000Z"},{"geonameid":2641067,"name":"Offord D’Arcy","asciiname":"Offord D'Arcy","alternatenames":"","latitude":"52.2818100","longitude":"-0.2144900","fclass":"P","fcode":"PPL","country":"GB","cc2":"","admin1":"ENG","admin2":"C3","admin3":"12UE","admin4":"12UE087","population":0,"elevation":0,"gtopo30":17,"timezone":"Europe/London","moddate":"2018-07-03T00:00:00.000Z"},{"geonameid":2641017,"name":"Old Hurst","asciiname":"Old Hurst","alternatenames":"","latitude":"52.3764900","longitude":"-0.0920500","fclass":"P","fcode":"PPL","country":"GB","cc2":"","admin1":"ENG","admin2":"C3","admin3":"12UE","admin4":"12UE055","population":0,"elevation":0,"gtopo30":37,"timezone":"Europe/London","moddate":"2018-07-03T00:00:00.000Z"},{"geonameid":2640983,"name":"Old Weston","asciiname":"Old Weston","alternatenames":"Old Weston","latitude":"52.3825700","longitude":"-0.3872700","fclass":"P","fcode":"PPL","country":"GB","cc2":"","admin1":"ENG","admin2":"C3","admin3":"12UE","admin4":"12UE056","population":0,"elevation":0,"gtopo30":56,"timezone":"Europe/London","moddate":"2018-07-03T00:00:00.000Z"},{"geonameid":2640883,"name":"Orwell","asciiname":"Orwell","alternatenames":"Orwell","latitude":"52.1356000","longitude":"-0.0109900","fclass":"P","fcode":"PPL","country":"GB","cc2":"","admin1":"ENG","admin2":"C3","admin3":"12UG","admin4":"12UG075","population":1035,"elevation":0,"gtopo30":38,"timezone":"Europe/London","moddate":"2018-07-03T00:00:00.000Z"},{"geonameid":2640778,"name":"Over","asciiname":"Over","alternatenames":"Over","latitude":"52.3166700","longitude":"0.0166700","fclass":"P","fcode":"PPL","country":"GB","cc2":"","admin1":"ENG","admin2":"C3","admin3":"12UG","admin4":"12UG076","population":2862,"elevation":0,"gtopo30":10,"timezone":"Europe/London","moddate":"2018-07-03T00:00:00.000Z"},{"geonameid":2640663,"name":"Pampisford","asciiname":"Pampisford","alternatenames":"Pampisford","latitude":"52.1108000","longitude":"0.1847900","fclass":"P","fcode":"PPL","country":"GB","cc2":"","admin1":"ENG","admin2":"C3","admin3":"12UG","admin4":"12UG077","population":0,"elevation":0,"gtopo30":30,"timezone":"Europe/London","moddate":"2018-07-03T00:00:00.000Z"},{"geonameid":2640624,"name":"Papworth Everard","asciiname":"Papworth Everard","alternatenames":"Papworth,Papworth Everard","latitude":"52.2489300","longitude":"-0.1182700","fclass":"P","fcode":"PPL","country":"GB","cc2":"","admin1":"ENG","admin2":"C3","admin3":"12UG","admin4":"12UG078","population":2880,"elevation":0,"gtopo30":40,"timezone":"Europe/London","moddate":"2018-07-03T00:00:00.000Z"},{"geonameid":7670883,"name":"Parson Drove","asciiname":"Parson Drove","alternatenames":"","latitude":"52.6565000","longitude":"0.0237800","fclass":"P","fcode":"PPL","country":"GB","cc2":"","admin1":"ENG","admin2":"C3","admin3":"12UD","admin4":"12UD009","population":828,"elevation":0,"gtopo30":5,"timezone":"Europe/London","moddate":"2017-06-12T00:00:00.000Z"},{"geonameid":2640584,"name":"Paston","asciiname":"Paston","alternatenames":"","latitude":"52.6000000","longitude":"-0.2500000","fclass":"P","fcode":"PPL","country":"GB","cc2":"","admin1":"ENG","admin2":"C3","admin3":"","admin4":"","population":0,"elevation":0,"gtopo30":11,"timezone":"Europe/London","moddate":"2007-06-15T00:00:00.000Z"},{"geonameid":12022223,"name":"Perry","asciiname":"Perry","alternatenames":"","latitude":"52.2878300","longitude":"-0.3180500","fclass":"P","fcode":"PPL","country":"GB","cc2":"","admin1":"ENG","admin2":"C3","admin3":"12UE","admin4":"12UE057","population":0,"elevation":0,"gtopo30":47,"timezone":"Europe/London","moddate":"2019-01-24T00:00:00.000Z"},{"geonameid":10103873,"name":"Petersfield","asciiname":"Petersfield","alternatenames":"","latitude":"52.2029500","longitude":"0.1305500","fclass":"P","fcode":"PPLX","country":"GB","cc2":"","admin1":"ENG","admin2":"C3","admin3":"12UB","admin4":"","population":0,"elevation":0,"gtopo30":17,"timezone":"Europe/London","moddate":"2015-02-16T00:00:00.000Z"},{"geonameid":6355171,"name":"Pidley","asciiname":"Pidley","alternatenames":"","latitude":"52.3819900","longitude":"-0.0441200","fclass":"P","fcode":"PPL","country":"GB","cc2":"","admin1":"ENG","admin2":"C3","admin3":"12UE","admin4":"12UE058","population":0,"elevation":0,"gtopo30":35,"timezone":"Europe/London","moddate":"2018-07-03T00:00:00.000Z"},{"geonameid":2639895,"name":"Prickwillow","asciiname":"Prickwillow","alternatenames":"","latitude":"52.4168600","longitude":"0.3459600","fclass":"P","fcode":"PPL","country":"GB","cc2":"","admin1":"ENG","admin2":"C3","admin3":"2650488","admin4":"12UC011","population":354,"elevation":0,"gtopo30":2,"timezone":"Europe/London","moddate":"2018-07-03T00:00:00.000Z"},{"geonameid":10109515,"name":"Purls Bridge","asciiname":"Purls Bridge","alternatenames":"","latitude":"52.4638500","longitude":"0.1726900","fclass":"P","fcode":"PPLX","country":"GB","cc2":"","admin1":"ENG","admin2":"C3","admin3":"12UD","admin4":"12UD006","population":0,"elevation":0,"gtopo30":-3,"timezone":"Europe/London","moddate":"2015-02-21T00:00:00.000Z"},{"geonameid":8629563,"name":"Queen Adelaide","asciiname":"Queen Adelaide","alternatenames":"","latitude":"52.4093600","longitude":"0.2937100","fclass":"P","fcode":"PPL","country":"GB","cc2":"","admin1":"ENG","admin2":"C3","admin3":"2650488","admin4":"12UC011","population":0,"elevation":0,"gtopo30":3,"timezone":"Europe/London","moddate":"2016-06-22T00:00:00.000Z"},{"geonameid":11592594,"name":"Rampton","asciiname":"Rampton","alternatenames":"","latitude":"52.2920800","longitude":"0.0903400","fclass":"P","fcode":"PPL","country":"GB","cc2":"","admin1":"ENG","admin2":"C3","admin3":"12UG","admin4":"12UG080","population":0,"elevation":0,"gtopo30":9,"timezone":"Europe/London","moddate":"2017-06-18T00:00:00.000Z"},{"geonameid":2639664,"name":"Ramsey","asciiname":"Ramsey","alternatenames":"Hramesige on Huntadunscire,Hramesige on Huntadūnscīre,rymsy  kymbrjshayr,رمزی، کمبریج‌شر,ریمسی، کیمبرجشائر","latitude":"52.4505800","longitude":"-0.1093200","fclass":"P","fcode":"PPL","country":"GB","cc2":"","admin1":"ENG","admin2":"C3","admin3":"12UE","admin4":"12UE059","population":7829,"elevation":0,"gtopo30":5,"timezone":"Europe/London","moddate":"2018-07-03T00:00:00.000Z"},{"geonameid":6545292,"name":"Ramsey Heights","asciiname":"Ramsey Heights","alternatenames":"","latitude":"52.4520900","longitude":"-0.1580100","fclass":"P","fcode":"PPL","country":"GB","cc2":"","admin1":"ENG","admin2":"C3","admin3":"12UE","admin4":"12UE059","population":0,"elevation":0,"gtopo30":2,"timezone":"Europe/London","moddate":"2018-07-03T00:00:00.000Z"},{"geonameid":2639662,"name":"Ramsey Saint Marys","asciiname":"Ramsey Saint Marys","alternatenames":"Ramsey Saint Marys,Ramsey St Marys,Saint Marys","latitude":"52.4797000","longitude":"-0.1517500","fclass":"P","fcode":"PPL","country":"GB","cc2":"","admin1":"ENG","admin2":"C3","admin3":"12UE","admin4":"12UE059","population":0,"elevation":0,"gtopo30":1,"timezone":"Europe/London","moddate":"2018-07-03T00:00:00.000Z"},{"geonameid":11592813,"name":"Reach","asciiname":"Reach","alternatenames":"","latitude":"52.2723600","longitude":"0.2975300","fclass":"P","fcode":"PPL","country":"GB","cc2":"","admin1":"ENG","admin2":"C3","admin3":"","admin4":"12UC020","population":0,"elevation":0,"gtopo30":6,"timezone":"Europe/London","moddate":"2017-06-19T00:00:00.000Z"},{"geonameid":2638776,"name":"Saint Ives","asciiname":"Saint Ives","alternatenames":"St Ives","latitude":"52.3325100","longitude":"-0.0765600","fclass":"P","fcode":"PPL","country":"GB","cc2":"","admin1":"ENG","admin2":"C3","admin3":"12UE","admin4":"12UE060","population":0,"elevation":0,"gtopo30":12,"timezone":"Europe/London","moddate":"2018-07-03T00:00:00.000Z"},{"geonameid":2638717,"name":"Saint Neots","asciiname":"Saint Neots","alternatenames":"Saint Neots,St Neots,St. Neots","latitude":"52.2166700","longitude":"-0.2666700","fclass":"P","fcode":"PPL","country":"GB","cc2":"","admin1":"ENG","admin2":"C3","admin3":"12UE","admin4":"12UE061","population":30811,"elevation":0,"gtopo30":18,"timezone":"Europe/London","moddate":"2021-02-20T00:00:00.000Z"},{"geonameid":2638474,"name":"Sawston","asciiname":"Sawston","alternatenames":"swstwn,سوستون","latitude":"52.1208900","longitude":"0.1694300","fclass":"P","fcode":"PPL","country":"GB","cc2":"","admin1":"ENG","admin2":"C3","admin3":"12UG","admin4":"12UG081","population":7275,"elevation":0,"gtopo30":27,"timezone":"Europe/London","moddate":"2018-07-03T00:00:00.000Z"},{"geonameid":2638473,"name":"Sawtry","asciiname":"Sawtry","alternatenames":"Sawtry","latitude":"52.4398400","longitude":"-0.2842200","fclass":"P","fcode":"PPL","country":"GB","cc2":"","admin1":"ENG","admin2":"C3","admin3":"12UE","admin4":"12UE063","population":5252,"elevation":0,"gtopo30":15,"timezone":"Europe/London","moddate":"2018-07-03T00:00:00.000Z"},{"geonameid":2638069,"name":"Shelford","asciiname":"Shelford","alternatenames":"","latitude":"52.1418100","longitude":"0.1242800","fclass":"P","fcode":"PPL","country":"GB","cc2":"","admin1":"ENG","admin2":"C3","admin3":"12UG","admin4":"12UG064","population":0,"elevation":0,"gtopo30":20,"timezone":"Europe/London","moddate":"2018-07-03T00:00:00.000Z"},{"geonameid":2638037,"name":"Shepreth","asciiname":"Shepreth","alternatenames":"","latitude":"52.1124100","longitude":"0.0325300","fclass":"P","fcode":"PPL","country":"GB","cc2":"","admin1":"ENG","admin2":"C3","admin3":"12UG","admin4":"12UG082","population":594,"elevation":0,"gtopo30":21,"timezone":"Europe/London","moddate":"2018-07-03T00:00:00.000Z"},{"geonameid":2637967,"name":"Shingay","asciiname":"Shingay","alternatenames":"Shingay","latitude":"52.1000000","longitude":"-0.0833300","fclass":"P","fcode":"PPL","country":"GB","cc2":"","admin1":"ENG","admin2":"C3","admin3":"12UG","admin4":"12UG083","population":0,"elevation":0,"gtopo30":23,"timezone":"Europe/London","moddate":"2018-07-03T00:00:00.000Z"},{"geonameid":2637886,"name":"Shudy Camps","asciiname":"Shudy Camps","alternatenames":"Shudy Camps","latitude":"52.0750200","longitude":"0.3633200","fclass":"P","fcode":"PPL","country":"GB","cc2":"","admin1":"ENG","admin2":"C3","admin3":"12UG","admin4":"12UG084","population":338,"elevation":0,"gtopo30":117,"timezone":"Europe/London","moddate":"2018-07-03T00:00:00.000Z"},{"geonameid":2637800,"name":"Six Mile Bottom","asciiname":"Six Mile Bottom","alternatenames":"","latitude":"52.1881900","longitude":"0.3067200","fclass":"P","fcode":"PPL","country":"GB","cc2":"","admin1":"ENG","admin2":"C3","admin3":"12UG","admin4":"12UG065","population":0,"elevation":0,"gtopo30":35,"timezone":"Europe/London","moddate":"2018-07-03T00:00:00.000Z"},{"geonameid":2637601,"name":"Snailwell","asciiname":"Snailwell","alternatenames":"","latitude":"52.2809200","longitude":"0.4089800","fclass":"P","fcode":"PPL","country":"GB","cc2":"","admin1":"ENG","admin2":"C3","admin3":"2650488","admin4":"12UC021","population":0,"elevation":0,"gtopo30":29,"timezone":"Europe/London","moddate":"2018-07-03T00:00:00.000Z"},{"geonameid":2637554,"name":"Soham","asciiname":"Soham","alternatenames":"swham,سوهام","latitude":"52.3354300","longitude":"0.3365400","fclass":"P","fcode":"PPL","country":"GB","cc2":"","admin1":"ENG","admin2":"C3","admin3":"2650488","admin4":"12UC022","population":9834,"elevation":0,"gtopo30":10,"timezone":"Europe/London","moddate":"2018-07-03T00:00:00.000Z"},{"geonameid":10277694,"name":"Soham Cotes","asciiname":"Soham Cotes","alternatenames":"","latitude":"52.3528000","longitude":"0.3045300","fclass":"P","fcode":"PPLX","country":"GB","cc2":"","admin1":"ENG","admin2":"C3","admin3":"2650488","admin4":"12UC022","population":0,"elevation":0,"gtopo30":-1,"timezone":"Europe/London","moddate":"2016-06-22T00:00:00.000Z"},{"geonameid":2637528,"name":"Somersham","asciiname":"Somersham","alternatenames":"Somersham","latitude":"52.3833300","longitude":"0.0000000","fclass":"P","fcode":"PPL","country":"GB","cc2":"","admin1":"ENG","admin2":"C3","admin3":"12UE","admin4":"12UE065","population":3524,"elevation":0,"gtopo30":12,"timezone":"Europe/London","moddate":"2018-07-03T00:00:00.000Z"},{"geonameid":2637354,"name":"Southoe","asciiname":"Southoe","alternatenames":"Southoe","latitude":"52.2654800","longitude":"-0.2674500","fclass":"P","fcode":"PPL","country":"GB","cc2":"","admin1":"ENG","admin2":"C3","admin3":"12UE","admin4":"12UE066","population":0,"elevation":0,"gtopo30":21,"timezone":"Europe/London","moddate":"2018-07-03T00:00:00.000Z"},{"geonameid":2637262,"name":"Spaldwick","asciiname":"Spaldwick","alternatenames":"Spaldwick","latitude":"52.3417900","longitude":"-0.3443500","fclass":"P","fcode":"PPL","country":"GB","cc2":"","admin1":"ENG","admin2":"C3","admin3":"12UE","admin4":"12UE067","population":631,"elevation":0,"gtopo30":26,"timezone":"Europe/London","moddate":"2018-07-03T00:00:00.000Z"},{"geonameid":7287969,"name":"Stapleford","asciiname":"Stapleford","alternatenames":"","latitude":"52.1508200","longitude":"0.1674600","fclass":"P","fcode":"PPL","country":"GB","cc2":"","admin1":"ENG","admin2":"C3","admin3":"12UG","admin4":"12UG085","population":0,"elevation":0,"gtopo30":41,"timezone":"Europe/London","moddate":"2018-07-03T00:00:00.000Z"},{"geonameid":2636965,"name":"Steeple Morden","asciiname":"Steeple Morden","alternatenames":"Steeple Morden","latitude":"52.0664800","longitude":"-0.1248000","fclass":"P","fcode":"PPL","country":"GB","cc2":"","admin1":"ENG","admin2":"C3","admin3":"12UG","admin4":"12UG086","population":852,"elevation":0,"gtopo30":49,"timezone":"Europe/London","moddate":"2018-07-03T00:00:00.000Z"},{"geonameid":2636941,"name":"Stetchworth","asciiname":"Stetchworth","alternatenames":"Stetchworth","latitude":"52.2000000","longitude":"0.4000000","fclass":"P","fcode":"PPL","country":"GB","cc2":"","admin1":"ENG","admin2":"C3","admin3":"2650488","admin4":"12UC023","population":0,"elevation":0,"gtopo30":108,"timezone":"Europe/London","moddate":"2018-07-03T00:00:00.000Z"},{"geonameid":11979581,"name":"Stibbington","asciiname":"Stibbington","alternatenames":"","latitude":"52.5750700","longitude":"-0.3974500","fclass":"P","fcode":"PPL","country":"GB","cc2":"","admin1":"ENG","admin2":"C3","admin3":"12UE","admin4":"12UE064","population":0,"elevation":0,"gtopo30":34,"timezone":"Europe/London","moddate":"2018-11-29T00:00:00.000Z"},{"geonameid":2636914,"name":"Stilton","asciiname":"Stilton","alternatenames":"Stilton","latitude":"52.4878800","longitude":"-0.2889400","fclass":"P","fcode":"PPL","country":"GB","cc2":"","admin1":"ENG","admin2":"C3","admin3":"12UE","admin4":"12UE069","population":2455,"elevation":0,"gtopo30":19,"timezone":"Europe/London","moddate":"2018-07-03T00:00:00.000Z"},{"geonameid":12023507,"name":"Stonely","asciiname":"Stonely","alternatenames":"","latitude":"52.2898500","longitude":"-0.3748500","fclass":"P","fcode":"PPL","country":"GB","cc2":"","admin1":"ENG","admin2":"C3","admin3":"12UE","admin4":"12UE047","population":0,"elevation":0,"gtopo30":55,"timezone":"Europe/London","moddate":"2019-02-19T00:00:00.000Z"},{"geonameid":2636756,"name":"Stow cum Quy","asciiname":"Stow cum Quy","alternatenames":"","latitude":"52.2231700","longitude":"0.2252200","fclass":"P","fcode":"PPL","country":"GB","cc2":"","admin1":"ENG","admin2":"C3","admin3":"12UG","admin4":"12UG087","population":544,"elevation":0,"gtopo30":12,"timezone":"Europe/London","moddate":"2018-07-03T00:00:00.000Z"},{"geonameid":2636661,"name":"Stretham","asciiname":"Stretham","alternatenames":"Stretham,strtham,سترتهام","latitude":"52.3470900","longitude":"0.2185200","fclass":"P","fcode":"PPL","country":"GB","cc2":"","admin1":"ENG","admin2":"C3","admin3":"2650488","admin4":"12UC024","population":1831,"elevation":0,"gtopo30":8,"timezone":"Europe/London","moddate":"2018-07-03T00:00:00.000Z"},{"geonameid":2636587,"name":"Stuntney","asciiname":"Stuntney","alternatenames":"Stuntney","latitude":"52.3807200","longitude":"0.2839500","fclass":"P","fcode":"PPL","country":"GB","cc2":"","admin1":"ENG","admin2":"C3","admin3":"2650488","admin4":"12UC011","population":0,"elevation":0,"gtopo30":8,"timezone":"Europe/London","moddate":"2018-07-03T00:00:00.000Z"},{"geonameid":2636497,"name":"Sutton","asciiname":"Sutton","alternatenames":"","latitude":"52.5766600","longitude":"-0.3819900","fclass":"P","fcode":"PPL","country":"GB","cc2":"","admin1":"ENG","admin2":"C3","admin3":"12UE","admin4":"","population":0,"elevation":0,"gtopo30":22,"timezone":"Europe/London","moddate":"2010-06-13T00:00:00.000Z"},{"geonameid":2636498,"name":"Sutton","asciiname":"Sutton","alternatenames":"","latitude":"52.3880400","longitude":"0.1186600","fclass":"P","fcode":"PPL","country":"GB","cc2":"","admin1":"ENG","admin2":"C3","admin3":"2650488","admin4":"12UC025","population":3816,"elevation":0,"gtopo30":25,"timezone":"Europe/London","moddate":"2018-07-03T00:00:00.000Z"},{"geonameid":2636463,"name":"Swaffham Bulbeck","asciiname":"Swaffham Bulbeck","alternatenames":"","latitude":"52.2382100","longitude":"0.2769800","fclass":"P","fcode":"PPL","country":"GB","cc2":"","admin1":"ENG","admin2":"C3","admin3":"2650488","admin4":"12UC026","population":708,"elevation":0,"gtopo30":13,"timezone":"Europe/London","moddate":"2018-07-03T00:00:00.000Z"},{"geonameid":2636462,"name":"Swaffham Prior","asciiname":"Swaffham Prior","alternatenames":"","latitude":"52.2538900","longitude":"0.2963300","fclass":"P","fcode":"PPL","country":"GB","cc2":"","admin1":"ENG","admin2":"C3","admin3":"2650488","admin4":"12UC027","population":841,"elevation":0,"gtopo30":16,"timezone":"Europe/London","moddate":"2018-07-03T00:00:00.000Z"},{"geonameid":2636409,"name":"Swavesey","asciiname":"Swavesey","alternatenames":"","latitude":"52.3015500","longitude":"-0.0047600","fclass":"P","fcode":"PPL","country":"GB","cc2":"","admin1":"ENG","admin2":"C3","admin3":"12UG","admin4":"12UG088","population":2463,"elevation":0,"gtopo30":10,"timezone":"Europe/London","moddate":"2018-07-03T00:00:00.000Z"},{"geonameid":10171176,"name":"Tetworth","asciiname":"Tetworth","alternatenames":"","latitude":"52.1651400","longitude":"-0.2230300","fclass":"P","fcode":"PPL","country":"GB","cc2":"","admin1":"ENG","admin2":"C3","admin3":"12UE","admin4":"12UE088","population":0,"elevation":0,"gtopo30":34,"timezone":"Europe/London","moddate":"2015-03-12T00:00:00.000Z"},{"geonameid":2636076,"name":"Teversham","asciiname":"Teversham","alternatenames":"Teversham","latitude":"52.2031900","longitude":"0.1896900","fclass":"P","fcode":"PPL","country":"GB","cc2":"","admin1":"ENG","admin2":"C3","admin3":"12UG","admin4":"12UG090","population":0,"elevation":0,"gtopo30":13,"timezone":"Europe/London","moddate":"2018-07-03T00:00:00.000Z"},{"geonameid":2635917,"name":"Thriplow","asciiname":"Thriplow","alternatenames":"Thriplow","latitude":"52.0996400","longitude":"0.0964100","fclass":"P","fcode":"PPL","country":"GB","cc2":"","admin1":"ENG","admin2":"C3","admin3":"12UG","admin4":"12UG091","population":488,"elevation":0,"gtopo30":25,"timezone":"Europe/London","moddate":"2018-07-03T00:00:00.000Z"},{"geonameid":2635837,"name":"Tilbrook","asciiname":"Tilbrook","alternatenames":"Tilbrook","latitude":"52.3083500","longitude":"-0.4178700","fclass":"P","fcode":"PPL","country":"GB","cc2":"","admin1":"ENG","admin2":"C3","admin3":"12UE","admin4":"12UE073","population":370,"elevation":0,"gtopo30":44,"timezone":"Europe/London","moddate":"2018-07-03T00:00:00.000Z"},{"geonameid":2635740,"name":"Toft","asciiname":"Toft","alternatenames":"","latitude":"52.1871900","longitude":"-0.0121900","fclass":"P","fcode":"PPL","country":"GB","cc2":"","admin1":"ENG","admin2":"C3","admin3":"12UG","admin4":"12UG092","population":503,"elevation":0,"gtopo30":41,"timezone":"Europe/London","moddate":"2018-07-03T00:00:00.000Z"},{"geonameid":2635414,"name":"Trumpington","asciiname":"Trumpington","alternatenames":"Trumpington","latitude":"52.1721400","longitude":"0.1126100","fclass":"P","fcode":"PPL","country":"GB","cc2":"","admin1":"ENG","admin2":"C3","admin3":"12UB","admin4":"","population":0,"elevation":0,"gtopo30":21,"timezone":"Europe/London","moddate":"2010-08-03T00:00:00.000Z"},{"geonameid":7870482,"name":"Turves","asciiname":"Turves","alternatenames":"","latitude":"52.5532500","longitude":"-0.0241400","fclass":"P","fcode":"PPLL","country":"GB","cc2":"","admin1":"ENG","admin2":"C3","admin3":"12UD","admin4":"12UD012","population":0,"elevation":0,"gtopo30":0,"timezone":"Europe/London","moddate":"2011-06-14T00:00:00.000Z"},{"geonameid":2635284,"name":"Tydd Saint Giles","asciiname":"Tydd Saint Giles","alternatenames":"","latitude":"52.7281800","longitude":"0.1110600","fclass":"P","fcode":"PPL","country":"GB","cc2":"","admin1":"ENG","admin2":"C3","admin3":"12UD","admin4":"12UD010","population":0,"elevation":0,"gtopo30":8,"timezone":"Europe/London","moddate":"2018-07-03T00:00:00.000Z"},{"geonameid":2635096,"name":"Upton","asciiname":"Upton","alternatenames":"","latitude":"52.3918700","longitude":"-0.2749600","fclass":"P","fcode":"PPL","country":"GB","cc2":"","admin1":"ENG","admin2":"C3","admin3":"12UE","admin4":"12UE075","population":0,"elevation":0,"gtopo30":52,"timezone":"Europe/London","moddate":"2018-07-03T00:00:00.000Z"},{"geonameid":2635076,"name":"Upwood","asciiname":"Upwood","alternatenames":"Upwood","latitude":"52.4260800","longitude":"-0.1490900","fclass":"P","fcode":"PPL","country":"GB","cc2":"","admin1":"ENG","admin2":"C3","admin3":"12UE","admin4":"12UE076","population":390,"elevation":0,"gtopo30":24,"timezone":"Europe/London","moddate":"2018-07-03T00:00:00.000Z"},{"geonameid":2634834,"name":"Walton","asciiname":"Walton","alternatenames":"","latitude":"52.6000000","longitude":"-0.2666700","fclass":"P","fcode":"PPL","country":"GB","cc2":"","admin1":"ENG","admin2":"C3","admin3":"","admin4":"","population":0,"elevation":0,"gtopo30":18,"timezone":"Europe/London","moddate":"2007-06-15T00:00:00.000Z"},{"geonameid":2634796,"name":"Warboys","asciiname":"Warboys","alternatenames":"Warboys","latitude":"52.4035200","longitude":"-0.0793100","fclass":"P","fcode":"PPL","country":"GB","cc2":"","admin1":"ENG","admin2":"C3","admin3":"12UE","admin4":"12UE077","population":3825,"elevation":0,"gtopo30":32,"timezone":"Europe/London","moddate":"2018-07-03T00:00:00.000Z"},{"geonameid":2634774,"name":"Waresley","asciiname":"Waresley","alternatenames":"Waresley","latitude":"52.1750900","longitude":"-0.1740600","fclass":"P","fcode":"PPL","country":"GB","cc2":"","admin1":"ENG","admin2":"C3","admin3":"12UE","admin4":"12UE088","population":279,"elevation":0,"gtopo30":61,"timezone":"Europe/London","moddate":"2018-07-03T00:00:00.000Z"},{"geonameid":2634683,"name":"Water Newton","asciiname":"Water Newton","alternatenames":"Water Newton","latitude":"52.5610600","longitude":"-0.3643500","fclass":"P","fcode":"PPL","country":"GB","cc2":"","admin1":"ENG","admin2":"C3","admin3":"12UE","admin4":"12UE079","population":0,"elevation":0,"gtopo30":16,"timezone":"Europe/London","moddate":"2018-07-03T00:00:00.000Z"},{"geonameid":2634701,"name":"Waterbeach","asciiname":"Waterbeach","alternatenames":"","latitude":"52.2655300","longitude":"0.1912300","fclass":"P","fcode":"PPL","country":"GB","cc2":"","admin1":"ENG","admin2":"C3","admin3":"12UG","admin4":"12UG093","population":5795,"elevation":0,"gtopo30":10,"timezone":"Europe/London","moddate":"2018-07-03T00:00:00.000Z"},{"geonameid":10109508,"name":"Welch's Dam","asciiname":"Welch's Dam","alternatenames":"","latitude":"52.4520100","longitude":"0.1609300","fclass":"P","fcode":"PPL","country":"GB","cc2":"","admin1":"ENG","admin2":"C3","admin3":"12UD","admin4":"12UD006","population":0,"elevation":0,"gtopo30":0,"timezone":"Europe/London","moddate":"2015-02-21T00:00:00.000Z"},{"geonameid":2634536,"name":"Wendy","asciiname":"Wendy","alternatenames":"Wendy","latitude":"52.1115400","longitude":"-0.0691800","fclass":"P","fcode":"PPL","country":"GB","cc2":"","admin1":"ENG","admin2":"C3","admin3":"12UG","admin4":"12UG083","population":0,"elevation":0,"gtopo30":24,"timezone":"Europe/London","moddate":"2018-07-03T00:00:00.000Z"},{"geonameid":11902774,"name":"Wentworth","asciiname":"Wentworth","alternatenames":"","latitude":"52.3852600","longitude":"0.1745200","fclass":"P","fcode":"PPLA4","country":"GB","cc2":"","admin1":"ENG","admin2":"C3","admin3":"2650488","admin4":"12UC029","population":0,"elevation":0,"gtopo30":25,"timezone":"Europe/London","moddate":"2018-07-08T00:00:00.000Z"},{"geonameid":2634520,"name":"Werrington","asciiname":"Werrington","alternatenames":"","latitude":"52.6140500","longitude":"-0.2723400","fclass":"P","fcode":"PPL","country":"GB","cc2":"","admin1":"ENG","admin2":"C3","admin3":"","admin4":"","population":0,"elevation":0,"gtopo30":13,"timezone":"Europe/London","moddate":"2011-02-13T00:00:00.000Z"},{"geonameid":2634233,"name":"West Wickham","asciiname":"West Wickham","alternatenames":"","latitude":"52.1171500","longitude":"0.3543500","fclass":"P","fcode":"PPL","country":"GB","cc2":"","admin1":"ENG","admin2":"C3","admin3":"12UG","admin4":"12UG095","population":0,"elevation":0,"gtopo30":104,"timezone":"Europe/London","moddate":"2018-07-03T00:00:00.000Z"},{"geonameid":2634221,"name":"West Wratting","asciiname":"West Wratting","alternatenames":"","latitude":"52.1426500","longitude":"0.3467600","fclass":"P","fcode":"PPL","country":"GB","cc2":"","admin1":"ENG","admin2":"C3","admin3":"12UG","admin4":"12UG096","population":502,"elevation":0,"gtopo30":120,"timezone":"Europe/London","moddate":"2018-07-03T00:00:00.000Z"},{"geonameid":2634362,"name":"Westley Waterless","asciiname":"Westley Waterless","alternatenames":"","latitude":"52.1818300","longitude":"0.3667100","fclass":"P","fcode":"PPL","country":"GB","cc2":"","admin1":"ENG","admin2":"C3","admin3":"2650488","admin4":"12UC030","population":0,"elevation":0,"gtopo30":92,"timezone":"Europe/London","moddate":"2018-07-03T00:00:00.000Z"},{"geonameid":2634199,"name":"Whaddon","asciiname":"Whaddon","alternatenames":"","latitude":"52.1010500","longitude":"-0.0344200","fclass":"P","fcode":"PPLA4","country":"GB","cc2":"","admin1":"ENG","admin2":"C3","admin3":"12UG","admin4":"12UG097","population":0,"elevation":0,"gtopo30":22,"timezone":"Europe/London","moddate":"2018-07-03T00:00:00.000Z"},{"geonameid":2634010,"name":"Whittlesey","asciiname":"Whittlesey","alternatenames":"Whittlesea,Whittlesey,wytlsy,ویتلسی","latitude":"52.5580400","longitude":"-0.1301600","fclass":"P","fcode":"PPL","country":"GB","cc2":"","admin1":"ENG","admin2":"C3","admin3":"12UD","admin4":"12UD012","population":12745,"elevation":0,"gtopo30":8,"timezone":"Europe/London","moddate":"2018-07-03T00:00:00.000Z"},{"geonameid":2634009,"name":"Whittlesford","asciiname":"Whittlesford","alternatenames":"Whittlesford","latitude":"52.1134500","longitude":"0.1496900","fclass":"P","fcode":"PPL","country":"GB","cc2":"","admin1":"ENG","admin2":"C3","admin3":"12UG","admin4":"12UG098","population":1536,"elevation":0,"gtopo30":28,"timezone":"Europe/London","moddate":"2018-07-03T00:00:00.000Z"},{"geonameid":2633980,"name":"Wicken","asciiname":"Wicken","alternatenames":"","latitude":"52.3127800","longitude":"0.2971900","fclass":"P","fcode":"PPL","country":"GB","cc2":"","admin1":"ENG","admin2":"C3","admin3":"2650488","admin4":"12UC031","population":698,"elevation":0,"gtopo30":11,"timezone":"Europe/London","moddate":"2018-07-03T00:00:00.000Z"},{"geonameid":2633925,"name":"Wilburton","asciiname":"Wilburton","alternatenames":"","latitude":"52.3519100","longitude":"0.1767300","fclass":"P","fcode":"PPL","country":"GB","cc2":"","admin1":"ENG","admin2":"C3","admin3":"2650488","admin4":"12UC032","population":1013,"elevation":0,"gtopo30":24,"timezone":"Europe/London","moddate":"2018-07-03T00:00:00.000Z"},{"geonameid":2633900,"name":"Willingham","asciiname":"Willingham","alternatenames":"","latitude":"52.3140400","longitude":"0.0577600","fclass":"P","fcode":"PPL","country":"GB","cc2":"","admin1":"ENG","admin2":"C3","admin3":"12UG","admin4":"12UG099","population":4015,"elevation":0,"gtopo30":9,"timezone":"Europe/London","moddate":"2018-07-03T00:00:00.000Z"},{"geonameid":2633864,"name":"Wimblington","asciiname":"Wimblington","alternatenames":"Wimblington","latitude":"52.5092500","longitude":"0.0841600","fclass":"P","fcode":"PPL","country":"GB","cc2":"","admin1":"ENG","admin2":"C3","admin3":"12UD","admin4":"12UD013","population":4239,"elevation":0,"gtopo30":7,"timezone":"Europe/London","moddate":"2018-07-03T00:00:00.000Z"},{"geonameid":10104024,"name":"Wimpole","asciiname":"Wimpole","alternatenames":"","latitude":"52.1307700","longitude":"-0.0339000","fclass":"P","fcode":"PPLA4","country":"GB","cc2":"","admin1":"ENG","admin2":"C3","admin3":"12UG","admin4":"12UG100","population":0,"elevation":0,"gtopo30":29,"timezone":"Europe/London","moddate":"2015-02-17T00:00:00.000Z"},{"geonameid":2633776,"name":"Winwick","asciiname":"Winwick","alternatenames":"","latitude":"52.4130200","longitude":"-0.3777400","fclass":"P","fcode":"PPL","country":"GB","cc2":"","admin1":"ENG","admin2":"C3","admin3":"12UE","admin4":"12UE080","population":0,"elevation":0,"gtopo30":67,"timezone":"Europe/London","moddate":"2018-07-03T00:00:00.000Z"},{"geonameid":2633771,"name":"Wisbech","asciiname":"Wisbech","alternatenames":"Uisbijch,Visbicas,Visbičas,Vizbich,Wisbech,wysbch,Визбич,Уисбийч,ویسبچ","latitude":"52.6662200","longitude":"0.1593800","fclass":"P","fcode":"PPL","country":"GB","cc2":"","admin1":"ENG","admin2":"C3","admin3":"12UD","admin4":"12UD014","population":32489,"elevation":0,"gtopo30":6,"timezone":"Europe/London","moddate":"2018-07-03T00:00:00.000Z"},{"geonameid":2633768,"name":"Wisbech Saint Mary","asciiname":"Wisbech Saint Mary","alternatenames":"Wisbech Saint Mary","latitude":"52.6521800","longitude":"0.0976800","fclass":"P","fcode":"PPL","country":"GB","cc2":"","admin1":"ENG","admin2":"C3","admin3":"12UD","admin4":"12UD015","population":0,"elevation":0,"gtopo30":4,"timezone":"Europe/London","moddate":"2018-07-03T00:00:00.000Z"},{"geonameid":2633755,"name":"Wistow","asciiname":"Wistow","alternatenames":"","latitude":"52.4120000","longitude":"-0.1219700","fclass":"P","fcode":"PPL","country":"GB","cc2":"","admin1":"ENG","admin2":"C3","admin3":"12UE","admin4":"12UE081","population":522,"elevation":0,"gtopo30":16,"timezone":"Europe/London","moddate":"2018-07-03T00:00:00.000Z"},{"geonameid":2633753,"name":"Witcham","asciiname":"Witcham","alternatenames":"","latitude":"52.3984400","longitude":"0.1493500","fclass":"P","fcode":"PPL","country":"GB","cc2":"","admin1":"ENG","admin2":"C3","admin3":"2650488","admin4":"12UC033","population":429,"elevation":0,"gtopo30":20,"timezone":"Europe/London","moddate":"2018-07-03T00:00:00.000Z"},{"geonameid":2633751,"name":"Witchford","asciiname":"Witchford","alternatenames":"","latitude":"52.3869900","longitude":"0.2060200","fclass":"P","fcode":"PPL","country":"GB","cc2":"","admin1":"ENG","admin2":"C3","admin3":"2650488","admin4":"12UC034","population":2385,"elevation":0,"gtopo30":10,"timezone":"Europe/London","moddate":"2018-07-03T00:00:00.000Z"},{"geonameid":2633614,"name":"Wood Walton","asciiname":"Wood Walton","alternatenames":"","latitude":"52.4122600","longitude":"-0.2156900","fclass":"P","fcode":"PPL","country":"GB","cc2":"","admin1":"ENG","admin2":"C3","admin3":"12UE","admin4":"12UE083","population":0,"elevation":0,"gtopo30":19,"timezone":"Europe/London","moddate":"2018-07-03T00:00:00.000Z"},{"geonameid":7670880,"name":"Woodditton","asciiname":"Woodditton","alternatenames":"","latitude":"52.1973600","longitude":"0.4293300","fclass":"P","fcode":"PPL","country":"GB","cc2":"","admin1":"ENG","admin2":"C3","admin3":"2650488","admin4":"12UC035","population":0,"elevation":0,"gtopo30":114,"timezone":"Europe/London","moddate":"2016-06-22T00:00:00.000Z"},{"geonameid":2633638,"name":"Woodhurst","asciiname":"Woodhurst","alternatenames":"Woodhurst","latitude":"52.3666700","longitude":"-0.0666700","fclass":"P","fcode":"PPL","country":"GB","cc2":"","admin1":"ENG","admin2":"C3","admin3":"12UE","admin4":"12UE082","population":379,"elevation":0,"gtopo30":42,"timezone":"Europe/London","moddate":"2018-07-03T00:00:00.000Z"},{"geonameid":2633431,"name":"Wyton","asciiname":"Wyton","alternatenames":"Wyton","latitude":"52.3333300","longitude":"-0.1166700","fclass":"P","fcode":"PPL","country":"GB","cc2":"","admin1":"ENG","admin2":"C3","admin3":"12UE","admin4":"12UE045","population":0,"elevation":0,"gtopo30":12,"timezone":"Europe/London","moddate":"2018-07-04T00:00:00.000Z"},{"geonameid":2633399,"name":"Yaxley","asciiname":"Yaxley","alternatenames":"Yaxley","latitude":"52.5176800","longitude":"-0.2585200","fclass":"P","fcode":"PPL","country":"GB","cc2":"","admin1":"ENG","admin2":"C3","admin3":"12UE","admin4":"12UE084","population":9174,"elevation":0,"gtopo30":23,"timezone":"Europe/London","moddate":"2018-07-03T00:00:00.000Z"},{"geonameid":2633385,"name":"Yelling","asciiname":"Yelling","alternatenames":"Yelling","latitude":"52.2462000","longitude":"-0.1532100","fclass":"P","fcode":"PPL","country":"GB","cc2":"","admin1":"ENG","admin2":"C3","admin3":"12UE","admin4":"12UE085","population":411,"elevation":0,"gtopo30":51,"timezone":"Europe/London","moddate":"2021-02-24T00:00:00.000Z"}],"admin3":[{"geonameid":7290660,"name":"Cambridge District","admin3":"12UB"},{"geonameid":2650488,"name":"East Cambridgeshire","admin3":"2650488"},{"geonameid":2649556,"name":"Fenland District","admin3":"12UD"},{"geonameid":2646390,"name":"Huntingdonshire","admin3":"12UE"},{"geonameid":7290661,"name":"South Cambridgeshire District","admin3":"12UG"}],"alternateNames":[{"alternatenameId":8666551,"geonameid":2653940,"isoLanguage":"en","alternateName":"Cambridgeshire","isPreferredName":true,"isShortName":true,"isColloquial":false,"isHistoric":false},{"alternatenameId":1626647,"geonameid":6269131,"isoLanguage":"en","alternateName":"England","isPreferredName":true,"isShortName":true,"isColloquial":false,"isHistoric":false}]},"__N_SSG":true}