{"pageProps":{"locale":"ro","admin2":{"geonameid":666333,"name":"Comuna Şpring","country":"RO","admin1":"01","admin2":"7945","admin3":"","latitude":"45.9683300","longitude":"23.7344900"},"admin1":{"geonameid":686581,"name":"Alba","admin1":"01"},"locations":[{"geonameid":682671,"name":"Carpen","asciiname":"Carpen","alternatenames":"","latitude":"45.9663100","longitude":"23.7087200","fclass":"P","fcode":"PPL","country":"RO","cc2":"","admin1":"01","admin2":"7945","admin3":"","admin4":"","population":227,"elevation":0,"gtopo30":370,"timezone":"Europe/Bucharest","moddate":"2013-04-21T00:00:00.000Z"},{"geonameid":682669,"name":"Carpenii de Sus","asciiname":"Carpenii de Sus","alternatenames":"Carpen,Carpenii de Sus","latitude":"45.9927700","longitude":"23.7076800","fclass":"P","fcode":"PPL","country":"RO","cc2":"RO","admin1":"01","admin2":"7945","admin3":"","admin4":"","population":4,"elevation":0,"gtopo30":398,"timezone":"Europe/Bucharest","moddate":"2013-04-21T00:00:00.000Z"},{"geonameid":679955,"name":"Cunța","asciiname":"Cunta","alternatenames":"","latitude":"45.9250600","longitude":"23.7228000","fclass":"P","fcode":"PPL","country":"RO","cc2":"","admin1":"01","admin2":"7945","admin3":"","admin4":"","population":597,"elevation":0,"gtopo30":278,"timezone":"Europe/Bucharest","moddate":"2013-04-21T00:00:00.000Z"},{"geonameid":678851,"name":"Drașov","asciiname":"Drasov","alternatenames":"","latitude":"45.9382600","longitude":"23.7432300","fclass":"P","fcode":"PPL","country":"RO","cc2":"","admin1":"01","admin2":"7945","admin3":"","admin4":"","population":573,"elevation":0,"gtopo30":284,"timezone":"Europe/Bucharest","moddate":"2013-04-21T00:00:00.000Z"},{"geonameid":666334,"name":"Şpring","asciiname":"Spring","alternatenames":"Spring,Şpring","latitude":"45.9666700","longitude":"23.7833300","fclass":"P","fcode":"PPLA2","country":"RO","cc2":"","admin1":"01","admin2":"7945","admin3":"","admin4":"","population":2492,"elevation":0,"gtopo30":415,"timezone":"Europe/Bucharest","moddate":"2012-06-12T00:00:00.000Z"},{"geonameid":662809,"name":"Vingard","asciiname":"Vingard","alternatenames":"","latitude":"46.0131700","longitude":"23.7469600","fclass":"P","fcode":"PPL","country":"RO","cc2":"","admin1":"01","admin2":"7945","admin3":"","admin4":"","population":696,"elevation":0,"gtopo30":375,"timezone":"Europe/Bucharest","moddate":"2013-04-20T00:00:00.000Z"}],"admin3":[],"alternateNames":[]},"__N_SSG":true}