{"pageProps":{"locale":"ro","admin2":{"geonameid":667231,"name":"Comuna Şieuţ","country":"RO","admin1":"06","admin2":"34850","admin3":"","latitude":"46.9988000","longitude":"24.6793500"},"admin1":{"geonameid":684647,"name":"Bistriţa-Năsăud","admin1":"06"},"locations":[{"geonameid":674465,"name":"Lunca","asciiname":"Lunca","alternatenames":"","latitude":"47.0184700","longitude":"24.6809000","fclass":"P","fcode":"PPL","country":"RO","cc2":"","admin1":"06","admin2":"34850","admin3":"","admin4":"","population":436,"elevation":0,"gtopo30":590,"timezone":"Europe/Bucharest","moddate":"2013-04-21T00:00:00.000Z"},{"geonameid":668372,"name":"Ruștior","asciiname":"Rustior","alternatenames":"","latitude":"46.9931700","longitude":"24.6708000","fclass":"P","fcode":"PPL","country":"RO","cc2":"","admin1":"06","admin2":"34850","admin3":"","admin4":"","population":654,"elevation":0,"gtopo30":498,"timezone":"Europe/Bucharest","moddate":"2013-04-21T00:00:00.000Z"},{"geonameid":667513,"name":"Sebiș","asciiname":"Sebis","alternatenames":"Sebes,Sebeş,Sebis,Sebiş","latitude":"47.0065300","longitude":"24.7166200","fclass":"P","fcode":"PPL","country":"RO","cc2":"RO","admin1":"06","admin2":"34850","admin3":"","admin4":"","population":973,"elevation":0,"gtopo30":627,"timezone":"Europe/Bucharest","moddate":"2013-04-21T00:00:00.000Z"},{"geonameid":667232,"name":"Şieuţ","asciiname":"Sieut","alternatenames":"Sieu,Sieut,Şieuţ","latitude":"46.9833300","longitude":"24.6500000","fclass":"P","fcode":"PPLA2","country":"RO","cc2":"","admin1":"06","admin2":"34850","admin3":"","admin4":"","population":2754,"elevation":0,"gtopo30":497,"timezone":"Europe/Bucharest","moddate":"2012-06-12T00:00:00.000Z"}],"admin3":[],"alternateNames":[]},"__N_SSG":true}