{"pageProps":{"locale":"ro","admin2":{"geonameid":680088,"name":"Comuna Crucea","country":"RO","admin1":"14","admin2":"61559","admin3":"","latitude":"44.5504600","longitude":"28.2059200"},"admin1":{"geonameid":680962,"name":"Constanța","admin1":"14","localeAltName":"Constanța"},"locations":[{"geonameid":685567,"name":"Băltăgești","asciiname":"Baltagesti","alternatenames":"","latitude":"44.4830200","longitude":"28.1935800","fclass":"P","fcode":"PPL","country":"RO","cc2":"","admin1":"14","admin2":"61559","admin3":"","admin4":"","population":508,"elevation":0,"gtopo30":38,"timezone":"Europe/Bucharest","moddate":"2013-04-21T00:00:00.000Z"},{"geonameid":680204,"name":"Crișan","asciiname":"Crisan","alternatenames":"Capuci,Capugi,Capugii,Crisan,Crisana,Crişan,Crişana","latitude":"44.6026200","longitude":"28.1785900","fclass":"P","fcode":"PPL","country":"RO","cc2":"RO","admin1":"14","admin2":"61559","admin3":"","admin4":"","population":467,"elevation":0,"gtopo30":79,"timezone":"Europe/Bucharest","moddate":"2013-04-21T00:00:00.000Z"},{"geonameid":680092,"name":"Crucea","asciiname":"Crucea","alternatenames":"Crucea,Satischioi,Satişchioi","latitude":"44.5333300","longitude":"28.2333300","fclass":"P","fcode":"PPLA2","country":"RO","cc2":"","admin1":"14","admin2":"61559","admin3":"","admin4":"","population":3413,"elevation":0,"gtopo30":90,"timezone":"Europe/Bucharest","moddate":"2012-06-12T00:00:00.000Z"},{"geonameid":677669,"name":"Gălbiori","asciiname":"Galbiori","alternatenames":"Galbiori,Gălbiori,Saragea","latitude":"44.4929100","longitude":"28.2588400","fclass":"P","fcode":"PPL","country":"RO","cc2":"RO","admin1":"14","admin2":"61559","admin3":"","admin4":"","population":276,"elevation":0,"gtopo30":89,"timezone":"Europe/Bucharest","moddate":"2013-04-21T00:00:00.000Z"},{"geonameid":666813,"name":"Șiriu","asciiname":"Siriu","alternatenames":"Siriu,Siriul,Sublocotenent Mandiou,Sublocotenent Măndiou,Şiriul","latitude":"44.6291200","longitude":"28.1879400","fclass":"P","fcode":"PPL","country":"RO","cc2":"RO","admin1":"14","admin2":"61559","admin3":"","admin4":"","population":297,"elevation":0,"gtopo30":83,"timezone":"Europe/Bucharest","moddate":"2013-04-21T00:00:00.000Z"},{"geonameid":665893,"name":"Stupina","asciiname":"Stupina","alternatenames":"Erchesec,Erkesek,Stupina","latitude":"44.5642700","longitude":"28.1817100","fclass":"P","fcode":"PPL","country":"RO","cc2":"RO","admin1":"14","admin2":"61559","admin3":"","admin4":"","population":790,"elevation":0,"gtopo30":112,"timezone":"Europe/Bucharest","moddate":"2013-04-21T00:00:00.000Z"}],"admin3":[],"alternateNames":[{"alternatenameId":402149,"geonameid":680962,"isoLanguage":"ro","alternateName":"Constanța","isPreferredName":true,"isShortName":true,"isColloquial":false,"isHistoric":false}]},"__N_SSG":true}