{"pageProps":{"locale":"ro","admin2":{"geonameid":684265,"name":"Oraş Bolintin-Vale","country":"RO","admin1":"42","admin2":"101190","admin3":"","latitude":"44.4435600","longitude":"25.7393000"},"admin1":{"geonameid":677104,"name":"Giurgiu","admin1":"42"},"locations":[{"geonameid":684266,"name":"Bolintin Vale","asciiname":"Bolintin Vale","alternatenames":"Bolintin Vale,Bolintin-Vale,Bolintin-din-Vale,Bolintineanu,Bolintinu-din-Vale,Bolintinul-din-Vale,Болинтин-Вале","latitude":"44.4488900","longitude":"25.7577800","fclass":"P","fcode":"PPLA2","country":"RO","cc2":"","admin1":"42","admin2":"101190","admin3":"","admin4":"","population":11700,"elevation":0,"gtopo30":106,"timezone":"Europe/Bucharest","moddate":"2012-06-12T00:00:00.000Z"},{"geonameid":684270,"name":"Bolintin-Băleanu","asciiname":"Bolintin-Baleanu","alternatenames":"","latitude":"44.4500000","longitude":"25.7500000","fclass":"P","fcode":"PPLX","country":"RO","cc2":"","admin1":"42","admin2":"101190","admin3":"","admin4":"","population":0,"elevation":0,"gtopo30":107,"timezone":"Europe/Bucharest","moddate":"2016-02-07T00:00:00.000Z"},{"geonameid":680125,"name":"Crivina","asciiname":"Crivina","alternatenames":"","latitude":"44.4313000","longitude":"25.7861700","fclass":"P","fcode":"PPL","country":"RO","cc2":"","admin1":"42","admin2":"101190","admin3":"","admin4":"","population":928,"elevation":0,"gtopo30":102,"timezone":"Europe/Bucharest","moddate":"2013-04-21T00:00:00.000Z"},{"geonameid":673966,"name":"Malu Spart","asciiname":"Malu Spart","alternatenames":"Malu Spart,Malul-Spart","latitude":"44.4439100","longitude":"25.7175800","fclass":"P","fcode":"PPL","country":"RO","cc2":"RO","admin1":"42","admin2":"101190","admin3":"","admin4":"","population":2961,"elevation":0,"gtopo30":111,"timezone":"Europe/Bucharest","moddate":"2013-04-21T00:00:00.000Z"},{"geonameid":665701,"name":"Suseni","asciiname":"Suseni","alternatenames":"","latitude":"44.4513900","longitude":"25.6956200","fclass":"P","fcode":"PPL","country":"RO","cc2":"","admin1":"42","admin2":"101190","admin3":"","admin4":"","population":604,"elevation":0,"gtopo30":115,"timezone":"Europe/Bucharest","moddate":"2013-04-21T00:00:00.000Z"}],"admin3":[],"alternateNames":[]},"__N_SSG":true}