{"pageProps":{"locale":"ro","admin2":{"geonameid":668984,"name":"Comuna Remetea","country":"RO","admin1":"20","admin2":"85412","admin3":"","latitude":"46.8190800","longitude":"25.4228600"},"admin1":{"geonameid":676309,"name":"Harghita","admin1":"20"},"locations":[{"geonameid":684892,"name":"Bicu Mic","asciiname":"Bicu Mic","alternatenames":"Bicu Mic","latitude":"46.7833300","longitude":"25.4500000","fclass":"P","fcode":"PPLX","country":"RO","cc2":"","admin1":"20","admin2":"85412","admin3":"","admin4":"","population":0,"elevation":0,"gtopo30":724,"timezone":"Europe/Bucharest","moddate":"2018-07-04T00:00:00.000Z"},{"geonameid":683768,"name":"Brazii","asciiname":"Brazii","alternatenames":"","latitude":"46.7833300","longitude":"25.4500000","fclass":"P","fcode":"PPL","country":"RO","cc2":"","admin1":"20","admin2":"85412","admin3":"","admin4":"","population":0,"elevation":0,"gtopo30":724,"timezone":"Europe/Bucharest","moddate":"2016-02-07T00:00:00.000Z"},{"geonameid":681360,"name":"Ciutac","asciiname":"Ciutac","alternatenames":"Ciutac,Csutakfalva","latitude":"46.8000000","longitude":"25.4166700","fclass":"P","fcode":"PPL","country":"RO","cc2":"","admin1":"20","admin2":"85412","admin3":"","admin4":"","population":0,"elevation":0,"gtopo30":744,"timezone":"Europe/Bucharest","moddate":"2016-02-07T00:00:00.000Z"},{"geonameid":678527,"name":"Eşeneu","asciiname":"Eseneu","alternatenames":"","latitude":"46.7833300","longitude":"25.4500000","fclass":"P","fcode":"PPLX","country":"RO","cc2":"","admin1":"20","admin2":"85412","admin3":"","admin4":"","population":0,"elevation":0,"gtopo30":724,"timezone":"Europe/Bucharest","moddate":"2016-02-07T00:00:00.000Z"},{"geonameid":678482,"name":"Făgețel","asciiname":"Fagetel","alternatenames":"Fagetel,Făgeţel,Kicsibukk,Kicsibükk","latitude":"46.8368400","longitude":"25.3843200","fclass":"P","fcode":"PPL","country":"RO","cc2":"RO","admin1":"20","admin2":"85412","admin3":"","admin4":"","population":19,"elevation":0,"gtopo30":836,"timezone":"Europe/Bucharest","moddate":"2013-04-21T00:00:00.000Z"},{"geonameid":673728,"name":"Martonca","asciiname":"Martonca","alternatenames":"Martonca,Martonka,Màrtonka","latitude":"46.8312300","longitude":"25.4376000","fclass":"P","fcode":"PPL","country":"RO","cc2":"RO","admin1":"20","admin2":"85412","admin3":"","admin4":"","population":0,"elevation":0,"gtopo30":724,"timezone":"Europe/Bucharest","moddate":"2013-04-21T00:00:00.000Z"},{"geonameid":668986,"name":"Remetea","asciiname":"Remetea","alternatenames":"Gyergyoremete,Gyergyóremete,Remete,Remetea","latitude":"46.7833300","longitude":"25.4500000","fclass":"P","fcode":"PPLA2","country":"RO","cc2":"","admin1":"20","admin2":"85412","admin3":"","admin4":"","population":6225,"elevation":0,"gtopo30":724,"timezone":"Europe/Bucharest","moddate":"2012-06-12T00:00:00.000Z"},{"geonameid":667039,"name":"Sineu","asciiname":"Sineu","alternatenames":"Besineu,Beşineu,Eszenyo,Eszenyö,Sineu,Şineu","latitude":"46.8146900","longitude":"25.4192600","fclass":"P","fcode":"PPL","country":"RO","cc2":"RO","admin1":"20","admin2":"85412","admin3":"","admin4":"","population":65,"elevation":0,"gtopo30":759,"timezone":"Europe/Bucharest","moddate":"2013-04-21T00:00:00.000Z"}],"admin3":[],"alternateNames":[]},"__N_SSG":true}