{"pageProps":{"locale":"ro","admin2":{"geonameid":662398,"name":"Comuna Vultureni","country":"RO","admin1":"13","admin2":"60099","admin3":"","latitude":"46.9559700","longitude":"23.5676200"},"admin1":{"geonameid":681291,"name":"Cluj","admin1":"13"},"locations":[{"geonameid":685957,"name":"Băbuțiu","asciiname":"Babutiu","alternatenames":"","latitude":"46.9403000","longitude":"23.5310200","fclass":"P","fcode":"PPL","country":"RO","cc2":"","admin1":"13","admin2":"60099","admin3":"","admin4":"","population":212,"elevation":0,"gtopo30":385,"timezone":"Europe/Bucharest","moddate":"2013-04-21T00:00:00.000Z"},{"geonameid":685902,"name":"Bădești","asciiname":"Badesti","alternatenames":"","latitude":"46.9702600","longitude":"23.6379900","fclass":"P","fcode":"PPL","country":"RO","cc2":"","admin1":"13","admin2":"60099","admin3":"","admin4":"","population":181,"elevation":0,"gtopo30":367,"timezone":"Europe/Bucharest","moddate":"2013-04-21T00:00:00.000Z"},{"geonameid":682140,"name":"Chidea","asciiname":"Chidea","alternatenames":"","latitude":"46.9774800","longitude":"23.6006800","fclass":"P","fcode":"PPL","country":"RO","cc2":"","admin1":"13","admin2":"60099","admin3":"","admin4":"","population":225,"elevation":0,"gtopo30":407,"timezone":"Europe/Bucharest","moddate":"2013-04-21T00:00:00.000Z"},{"geonameid":678386,"name":"Făureni","asciiname":"Faureni","alternatenames":"","latitude":"46.9284100","longitude":"23.5456200","fclass":"P","fcode":"PPL","country":"RO","cc2":"","admin1":"13","admin2":"60099","admin3":"","admin4":"","population":296,"elevation":0,"gtopo30":384,"timezone":"Europe/Bucharest","moddate":"2013-04-21T00:00:00.000Z"},{"geonameid":666530,"name":"Șoimeni","asciiname":"Soimeni","alternatenames":"","latitude":"46.9584500","longitude":"23.5333900","fclass":"P","fcode":"PPL","country":"RO","cc2":"","admin1":"13","admin2":"60099","admin3":"","admin4":"","population":450,"elevation":0,"gtopo30":421,"timezone":"Europe/Bucharest","moddate":"2013-04-21T00:00:00.000Z"},{"geonameid":662400,"name":"Vultureni","asciiname":"Vultureni","alternatenames":"Borsaujfalu,Borsaújfalu,Vultureni","latitude":"46.9666700","longitude":"23.5666700","fclass":"P","fcode":"PPLA2","country":"RO","cc2":"","admin1":"13","admin2":"60099","admin3":"","admin4":"","population":1551,"elevation":0,"gtopo30":423,"timezone":"Europe/Bucharest","moddate":"2019-09-12T00:00:00.000Z"}],"admin3":[],"alternateNames":[]},"__N_SSG":true}