{"pageProps":{"locale":"ro","admin2":{"geonameid":667963,"name":"Comuna Sarmizegetusa","country":"RO","admin1":"21","admin2":"91054","admin3":"","latitude":"45.5099600","longitude":"22.7695500"},"admin1":{"geonameid":675917,"name":"Hunedoara","admin1":"21"},"locations":[{"geonameid":683748,"name":"Breazova","asciiname":"Breazova","alternatenames":"","latitude":"45.5284200","longitude":"22.7936400","fclass":"P","fcode":"PPL","country":"RO","cc2":"","admin1":"21","admin2":"91054","admin3":"","admin4":"","population":183,"elevation":0,"gtopo30":464,"timezone":"Europe/Bucharest","moddate":"2013-04-21T00:00:00.000Z"},{"geonameid":676128,"name":"Hobiţa Mică","asciiname":"Hobita Mica","alternatenames":"","latitude":"45.5166700","longitude":"22.7833300","fclass":"P","fcode":"PPL","country":"RO","cc2":"","admin1":"21","admin2":"91054","admin3":"","admin4":"","population":0,"elevation":0,"gtopo30":489,"timezone":"Europe/Bucharest","moddate":"2016-02-07T00:00:00.000Z"},{"geonameid":676129,"name":"Hobița-Grădiște","asciiname":"Hobita-Gradiste","alternatenames":"","latitude":"45.4975000","longitude":"22.7893000","fclass":"P","fcode":"PPL","country":"RO","cc2":"","admin1":"21","admin2":"91054","admin3":"","admin4":"","population":180,"elevation":0,"gtopo30":599,"timezone":"Europe/Bucharest","moddate":"2013-04-21T00:00:00.000Z"},{"geonameid":671239,"name":"Păucinești","asciiname":"Paucinesti","alternatenames":"","latitude":"45.5063800","longitude":"22.7548500","fclass":"P","fcode":"PPL","country":"RO","cc2":"","admin1":"21","admin2":"91054","admin3":"","admin4":"","population":241,"elevation":0,"gtopo30":560,"timezone":"Europe/Bucharest","moddate":"2013-04-21T00:00:00.000Z"},{"geonameid":667964,"name":"Sarmizegetusa","asciiname":"Sarmizegetusa","alternatenames":"Gradiste,Grădişte,Sarmisegethuza,Sarmisegetuza,Sarmizegetusa,Sarmizegetuza","latitude":"45.5166700","longitude":"22.7833300","fclass":"P","fcode":"PPLA2","country":"RO","cc2":"","admin1":"21","admin2":"91054","admin3":"","admin4":"","population":1369,"elevation":0,"gtopo30":489,"timezone":"Europe/Bucharest","moddate":"2014-06-04T00:00:00.000Z"},{"geonameid":662230,"name":"Zeicani","asciiname":"Zeicani","alternatenames":"","latitude":"45.5019900","longitude":"22.7284300","fclass":"P","fcode":"PPL","country":"RO","cc2":"","admin1":"21","admin2":"91054","admin3":"","admin4":"","population":225,"elevation":0,"gtopo30":594,"timezone":"Europe/Bucharest","moddate":"2013-04-20T00:00:00.000Z"}],"admin3":[],"alternateNames":[]},"__N_SSG":true}