{"pageProps":{"locale":"ro","admin2":{"geonameid":683729,"name":"Comuna Brebu","country":"RO","admin1":"30","admin2":"132404","admin3":"","latitude":"45.1940600","longitude":"25.7773700"},"admin1":{"geonameid":669737,"name":"Prahova","admin1":"30"},"locations":[{"geonameid":683725,"name":"Brebu Mânăstirei","asciiname":"Brebu Manastirei","alternatenames":"Brebu,Brebu Manastirei,Brebu Minastirei,Brebu Mânăstirei,Brebu Mînăstirei,Brebu-Manastirei,Brebu-Monastire,Brebu-Mânăstirei,Brebul,Brebul-Manastirei,Brebul-Mânăstirei","latitude":"45.1833300","longitude":"25.7666700","fclass":"P","fcode":"PPL","country":"RO","cc2":"","admin1":"30","admin2":"132404","admin3":"","admin4":"","population":7591,"elevation":0,"gtopo30":525,"timezone":"Europe/Bucharest","moddate":"2020-03-08T00:00:00.000Z"},{"geonameid":683726,"name":"Brebu Megieșesc","asciiname":"Brebu Megiesesc","alternatenames":"Brebu Megiesesc,Brebu Megieşesc,Magiesese,Magieşese","latitude":"45.1677400","longitude":"25.7747400","fclass":"P","fcode":"PPL","country":"RO","cc2":"RO","admin1":"30","admin2":"132404","admin3":"","admin4":"","population":2877,"elevation":0,"gtopo30":496,"timezone":"Europe/Bucharest","moddate":"2013-04-21T00:00:00.000Z"},{"geonameid":670977,"name":"Pietriceaua","asciiname":"Pietriceaua","alternatenames":"Petriceaua,Pietricea","latitude":"45.2191000","longitude":"25.8085900","fclass":"P","fcode":"PPL","country":"RO","cc2":"RO","admin1":"30","admin2":"132404","admin3":"","admin4":"","population":1395,"elevation":0,"gtopo30":671,"timezone":"Europe/Bucharest","moddate":"2013-04-21T00:00:00.000Z"},{"geonameid":670328,"name":"Podiacu","asciiname":"Podiacu","alternatenames":"Podiacu,Podiacul","latitude":"45.1833300","longitude":"25.7666700","fclass":"P","fcode":"PPLX","country":"RO","cc2":"","admin1":"30","admin2":"132404","admin3":"","admin4":"","population":0,"elevation":0,"gtopo30":525,"timezone":"Europe/Bucharest","moddate":"2016-02-07T00:00:00.000Z"},{"geonameid":670311,"name":"Podu Cheii","asciiname":"Podu Cheii","alternatenames":"Podu Cheii,Podul Cheii","latitude":"45.2082600","longitude":"25.7545800","fclass":"P","fcode":"PPL","country":"RO","cc2":"RO","admin1":"30","admin2":"132404","admin3":"","admin4":"","population":224,"elevation":0,"gtopo30":582,"timezone":"Europe/Bucharest","moddate":"2013-04-21T00:00:00.000Z"},{"geonameid":667489,"name":"Seci","asciiname":"Seci","alternatenames":"","latitude":"45.1833300","longitude":"25.7666700","fclass":"P","fcode":"PPLX","country":"RO","cc2":"","admin1":"30","admin2":"132404","admin3":"","admin4":"","population":0,"elevation":0,"gtopo30":525,"timezone":"Europe/Bucharest","moddate":"2016-02-07T00:00:00.000Z"}],"admin3":[],"alternateNames":[{"alternatenameId":8326236,"geonameid":669737,"isoLanguage":"en","alternateName":"Prahova","isPreferredName":true,"isShortName":true,"isColloquial":false,"isHistoric":false}]},"__N_SSG":true}