{"pageProps":{"locale":"ro","admin2":{"geonameid":686309,"name":"Comuna Aninoasa","country":"RO","admin1":"19","admin2":"78604","admin3":"","latitude":"44.7483600","longitude":"23.4737200"},"admin1":{"geonameid":676898,"name":"Gorj","admin1":"19"},"locations":[{"geonameid":686319,"name":"Aninoasa","asciiname":"Aninoasa","alternatenames":"Aninoasa","latitude":"44.7500000","longitude":"23.4833300","fclass":"P","fcode":"PPLA2","country":"RO","cc2":"","admin1":"19","admin2":"78604","admin3":"","admin4":"","population":4288,"elevation":0,"gtopo30":155,"timezone":"Europe/Bucharest","moddate":"2012-06-12T00:00:00.000Z"},{"geonameid":684548,"name":"Bobaia","asciiname":"Bobaia","alternatenames":"","latitude":"44.7538300","longitude":"23.5201600","fclass":"P","fcode":"PPL","country":"RO","cc2":"","admin1":"19","admin2":"78604","admin3":"","admin4":"","population":328,"elevation":0,"gtopo30":176,"timezone":"Europe/Bucharest","moddate":"2013-04-21T00:00:00.000Z"},{"geonameid":680734,"name":"Cornişani","asciiname":"Cornisani","alternatenames":"","latitude":"44.7333300","longitude":"23.4833300","fclass":"P","fcode":"PPL","country":"RO","cc2":"","admin1":"19","admin2":"78604","admin3":"","admin4":"","population":0,"elevation":0,"gtopo30":167,"timezone":"Europe/Bucharest","moddate":"2016-02-07T00:00:00.000Z"},{"geonameid":680580,"name":"Costești","asciiname":"Costesti","alternatenames":"","latitude":"44.7326400","longitude":"23.4449100","fclass":"P","fcode":"PPL","country":"RO","cc2":"","admin1":"19","admin2":"78604","admin3":"","admin4":"","population":1096,"elevation":0,"gtopo30":190,"timezone":"Europe/Bucharest","moddate":"2013-04-21T00:00:00.000Z"},{"geonameid":679821,"name":"Daia","asciiname":"Daia","alternatenames":"","latitude":"44.7500000","longitude":"23.4166700","fclass":"P","fcode":"PPL","country":"RO","cc2":"","admin1":"19","admin2":"78604","admin3":"","admin4":"","population":0,"elevation":0,"gtopo30":203,"timezone":"Europe/Bucharest","moddate":"2016-02-07T00:00:00.000Z"},{"geonameid":676661,"name":"Groșerea","asciiname":"Groserea","alternatenames":"","latitude":"44.7203200","longitude":"23.4813500","fclass":"P","fcode":"PPL","country":"RO","cc2":"","admin1":"19","admin2":"78604","admin3":"","admin4":"","population":777,"elevation":0,"gtopo30":141,"timezone":"Europe/Bucharest","moddate":"2013-04-21T00:00:00.000Z"},{"geonameid":670221,"name":"Poeni","asciiname":"Poeni","alternatenames":"Poeni,Poenile,Poiana","latitude":"44.7500000","longitude":"23.4833300","fclass":"P","fcode":"PPL","country":"RO","cc2":"","admin1":"19","admin2":"78604","admin3":"","admin4":"","population":0,"elevation":0,"gtopo30":155,"timezone":"Europe/Bucharest","moddate":"2016-02-07T00:00:00.000Z"},{"geonameid":666158,"name":"Sterpoaia","asciiname":"Sterpoaia","alternatenames":"","latitude":"44.7905800","longitude":"23.4360100","fclass":"P","fcode":"PPL","country":"RO","cc2":"","admin1":"19","admin2":"78604","admin3":"","admin4":"","population":1051,"elevation":0,"gtopo30":211,"timezone":"Europe/Bucharest","moddate":"2013-04-21T00:00:00.000Z"}],"admin3":[],"alternateNames":[]},"__N_SSG":true}