{"pageProps":{"locale":"ro","admin2":{"geonameid":669113,"name":"Comuna Răteşti","country":"RO","admin1":"03","admin2":"18331","admin3":"","latitude":"44.7169000","longitude":"25.1585800"},"admin1":{"geonameid":686192,"name":"Argeş","admin1":"03"},"locations":[{"geonameid":681412,"name":"Ciupa-Mănciulescu","asciiname":"Ciupa-Manciulescu","alternatenames":"","latitude":"44.7018000","longitude":"25.1591500","fclass":"P","fcode":"PPL","country":"RO","cc2":"","admin1":"03","admin2":"18331","admin3":"","admin4":"","population":355,"elevation":0,"gtopo30":212,"timezone":"Europe/Bucharest","moddate":"2013-04-21T00:00:00.000Z"},{"geonameid":677764,"name":"Furduești","asciiname":"Furduesti","alternatenames":"Funduesti,Fundueşti,Furduesti,Furdueşti","latitude":"44.7241600","longitude":"25.1055600","fclass":"P","fcode":"PPL","country":"RO","cc2":"RO","admin1":"03","admin2":"18331","admin3":"","admin4":"","population":598,"elevation":0,"gtopo30":228,"timezone":"Europe/Bucharest","moddate":"2013-04-21T00:00:00.000Z"},{"geonameid":673655,"name":"Mavrodolu","asciiname":"Mavrodolu","alternatenames":"Ciupa Mavrodolul,Ciupa-Mavrodolu,Mavrodolu","latitude":"44.6917300","longitude":"25.2182800","fclass":"P","fcode":"PPL","country":"RO","cc2":"RO","admin1":"03","admin2":"18331","admin3":"","admin4":"","population":262,"elevation":0,"gtopo30":201,"timezone":"Europe/Bucharest","moddate":"2013-04-21T00:00:00.000Z"},{"geonameid":672328,"name":"Nejlovelu","asciiname":"Nejlovelu","alternatenames":"Ciupa Lagarul,Ciupa Lagărul,Ciupa-Lagaru,Ciupa-Lagăru,Lagar,Lagarul,Lagăr,Lagărul,Nejlovelu","latitude":"44.6890100","longitude":"25.1772700","fclass":"P","fcode":"PPL","country":"RO","cc2":"RO","admin1":"03","admin2":"18331","admin3":"","admin4":"","population":358,"elevation":0,"gtopo30":207,"timezone":"Europe/Bucharest","moddate":"2013-04-21T00:00:00.000Z"},{"geonameid":671246,"name":"Pătuleni","asciiname":"Patuleni","alternatenames":"","latitude":"44.7324700","longitude":"25.1649500","fclass":"P","fcode":"PPL","country":"RO","cc2":"","admin1":"03","admin2":"18331","admin3":"","admin4":"","population":1062,"elevation":0,"gtopo30":214,"timezone":"Europe/Bucharest","moddate":"2013-04-21T00:00:00.000Z"},{"geonameid":669116,"name":"Răteşti","asciiname":"Ratesti","alternatenames":"","latitude":"44.7333300","longitude":"25.1333300","fclass":"P","fcode":"PPLA2","country":"RO","cc2":"","admin1":"03","admin2":"18331","admin3":"","admin4":"","population":3368,"elevation":0,"gtopo30":226,"timezone":"Europe/Bucharest","moddate":"2012-06-12T00:00:00.000Z"},{"geonameid":669111,"name":"Răteşti-Ticveni","asciiname":"Ratesti-Ticveni","alternatenames":"Ratesti-Ticveni,Ratesti-Tigveni,Răteşti-Ticveni,Răteşti-Tigveni","latitude":"44.7333300","longitude":"25.1333300","fclass":"P","fcode":"PPLX","country":"RO","cc2":"","admin1":"03","admin2":"18331","admin3":"","admin4":"","population":0,"elevation":0,"gtopo30":226,"timezone":"Europe/Bucharest","moddate":"2016-02-07T00:00:00.000Z"},{"geonameid":667156,"name":"Silivistrianca","asciiname":"Silivistrianca","alternatenames":"Silivistrianca,Silvestreanca","latitude":"44.6833300","longitude":"25.1833300","fclass":"P","fcode":"PPLX","country":"RO","cc2":"","admin1":"03","admin2":"18331","admin3":"","admin4":"","population":0,"elevation":0,"gtopo30":202,"timezone":"Europe/Bucharest","moddate":"2016-02-07T00:00:00.000Z"},{"geonameid":665152,"name":"Tigveni","asciiname":"Tigveni","alternatenames":"Ticveni,Tigveni","latitude":"44.7360800","longitude":"25.1525600","fclass":"P","fcode":"PPL","country":"RO","cc2":"RO","admin1":"03","admin2":"18331","admin3":"","admin4":"","population":555,"elevation":0,"gtopo30":222,"timezone":"Europe/Bucharest","moddate":"2013-04-21T00:00:00.000Z"}],"admin3":[],"alternateNames":[]},"__N_SSG":true}