{"pageProps":{"locale":"ro","admin2":{"geonameid":666275,"name":"Comuna Stăniţa","country":"RO","admin1":"28","admin2":"124331","admin3":"","latitude":"47.0121600","longitude":"27.1370400"},"admin1":{"geonameid":672460,"name":"Neamţ","admin1":"28"},"locations":[{"geonameid":682151,"name":"Chicerea","asciiname":"Chicerea","alternatenames":"","latitude":"46.9762100","longitude":"27.1324900","fclass":"P","fcode":"PPL","country":"RO","cc2":"","admin1":"28","admin2":"124331","admin3":"","admin4":"","population":333,"elevation":0,"gtopo30":275,"timezone":"Europe/Bucharest","moddate":"2013-04-21T00:00:00.000Z"},{"geonameid":677405,"name":"Ghidion","asciiname":"Ghidion","alternatenames":"Ghidion,Ghidioni","latitude":"47.0406200","longitude":"27.1562800","fclass":"P","fcode":"PPL","country":"RO","cc2":"RO","admin1":"28","admin2":"124331","admin3":"","admin4":"","population":478,"elevation":0,"gtopo30":348,"timezone":"Europe/Bucharest","moddate":"2013-04-21T00:00:00.000Z"},{"geonameid":670203,"name":"Poienile Oancei","asciiname":"Poienile Oancei","alternatenames":"Poenele Oancei,Poenile Oancei","latitude":"47.0304400","longitude":"27.1110100","fclass":"P","fcode":"PPL","country":"RO","cc2":"RO","admin1":"28","admin2":"124331","admin3":"","admin4":"","population":302,"elevation":0,"gtopo30":272,"timezone":"Europe/Bucharest","moddate":"2013-04-21T00:00:00.000Z"},{"geonameid":666276,"name":"Stăniţa","asciiname":"Stanita","alternatenames":"Molfanesti,Molfăneşti,Stanita,Stăniţa","latitude":"47.0166700","longitude":"27.1000000","fclass":"P","fcode":"PPLA2","country":"RO","cc2":"","admin1":"28","admin2":"124331","admin3":"","admin4":"","population":2203,"elevation":0,"gtopo30":223,"timezone":"Europe/Bucharest","moddate":"2012-06-12T00:00:00.000Z"},{"geonameid":664866,"name":"Todireni","asciiname":"Todireni","alternatenames":"Fundu Poenii,Todireni,Todireni-Razesi,Todireni-Răzeşi","latitude":"47.0141300","longitude":"27.1357900","fclass":"P","fcode":"PPL","country":"RO","cc2":"RO","admin1":"28","admin2":"124331","admin3":"","admin4":"","population":396,"elevation":0,"gtopo30":257,"timezone":"Europe/Bucharest","moddate":"2013-04-21T00:00:00.000Z"},{"geonameid":663079,"name":"Veja","asciiname":"Veja","alternatenames":"Veja,Veja-Clacasi,Veja-Clacaşi","latitude":"47.0165700","longitude":"27.1565100","fclass":"P","fcode":"PPL","country":"RO","cc2":"RO","admin1":"28","admin2":"124331","admin3":"","admin4":"","population":214,"elevation":0,"gtopo30":330,"timezone":"Europe/Bucharest","moddate":"2013-04-20T00:00:00.000Z"},{"geonameid":662592,"name":"Vlădnicele","asciiname":"Vladnicele","alternatenames":"","latitude":"46.9980600","longitude":"27.1620200","fclass":"P","fcode":"PPL","country":"RO","cc2":"","admin1":"28","admin2":"124331","admin3":"","admin4":"","population":107,"elevation":0,"gtopo30":306,"timezone":"Europe/Bucharest","moddate":"2013-04-20T00:00:00.000Z"}],"admin3":[],"alternateNames":[]},"__N_SSG":true}