{"pageProps":{"locale":"ro","admin2":{"geonameid":677556,"name":"Comuna Gavojdia","country":"RO","admin1":"36","admin2":"157031","admin3":"","latitude":"45.6128400","longitude":"22.0247100"},"admin1":{"geonameid":665091,"name":"Timiş","admin1":"36"},"locations":[{"geonameid":681063,"name":"Colonia Ţiganilor","asciiname":"Colonia Tiganilor","alternatenames":"","latitude":"45.6500000","longitude":"22.0000000","fclass":"P","fcode":"PPLX","country":"RO","cc2":"","admin1":"36","admin2":"157031","admin3":"","admin4":"","population":0,"elevation":0,"gtopo30":131,"timezone":"Europe/Bucharest","moddate":"2016-02-07T00:00:00.000Z"},{"geonameid":677557,"name":"Gavojdia","asciiname":"Gavojdia","alternatenames":"Gavojdia","latitude":"45.6166700","longitude":"22.0166700","fclass":"P","fcode":"PPLA2","country":"RO","cc2":"","admin1":"36","admin2":"157031","admin3":"","admin4":"","population":3122,"elevation":0,"gtopo30":142,"timezone":"Europe/Bucharest","moddate":"2012-06-12T00:00:00.000Z"},{"geonameid":675277,"name":"Jena","asciiname":"Jena","alternatenames":"","latitude":"45.6025600","longitude":"22.0750700","fclass":"P","fcode":"PPL","country":"RO","cc2":"","admin1":"36","admin2":"157031","admin3":"","admin4":"","population":542,"elevation":0,"gtopo30":147,"timezone":"Europe/Bucharest","moddate":"2013-04-21T00:00:00.000Z"},{"geonameid":674530,"name":"Lugojel","asciiname":"Lugojel","alternatenames":"Lugojel,Lugoshely","latitude":"45.6664400","longitude":"21.9618000","fclass":"P","fcode":"PPL","country":"RO","cc2":"RO","admin1":"36","admin2":"157031","admin3":"","admin4":"","population":719,"elevation":0,"gtopo30":126,"timezone":"Europe/Bucharest","moddate":"2013-04-21T00:00:00.000Z"},{"geonameid":668222,"name":"Sălbăgel","asciiname":"Salbagel","alternatenames":"","latitude":"45.5676800","longitude":"22.0391900","fclass":"P","fcode":"PPL","country":"RO","cc2":"","admin1":"36","admin2":"157031","admin3":"","admin4":"","population":357,"elevation":0,"gtopo30":173,"timezone":"Europe/Bucharest","moddate":"2013-04-21T00:00:00.000Z"}],"admin3":[],"alternateNames":[]},"__N_SSG":true}