{"pageProps":{"locale":"en","admin2":{"geonameid":3333235,"name":"South Ayrshire","country":"GB","admin1":"SCT","admin2":"W4","admin3":"","latitude":"55.2500000","longitude":"-4.6666700"},"admin1":{"geonameid":2638360,"name":"Scotland","admin1":"SCT"},"locations":[{"geonameid":8063580,"name":"Alloway","asciiname":"Alloway","alternatenames":"","latitude":"55.4320200","longitude":"-4.6330100","fclass":"P","fcode":"PPL","country":"GB","cc2":"","admin1":"SCT","admin2":"W4","admin3":"","admin4":"","population":0,"elevation":0,"gtopo30":27,"timezone":"Europe/London","moddate":"2011-12-01T00:00:00.000Z"},{"geonameid":2657406,"name":"Alton Albany","asciiname":"Alton Albany","alternatenames":"","latitude":"55.2000000","longitude":"-4.7000000","fclass":"P","fcode":"PPL","country":"GB","cc2":"","admin1":"SCT","admin2":"W4","admin3":"","admin4":"","population":0,"elevation":0,"gtopo30":219,"timezone":"Europe/London","moddate":"2013-07-11T00:00:00.000Z"},{"geonameid":2657287,"name":"Annbank","asciiname":"Annbank","alternatenames":"","latitude":"55.4756400","longitude":"-4.5220800","fclass":"P","fcode":"PPL","country":"GB","cc2":"","admin1":"SCT","admin2":"W4","admin3":"","admin4":"","population":890,"elevation":0,"gtopo30":66,"timezone":"Europe/London","moddate":"2017-06-12T00:00:00.000Z"},{"geonameid":2656708,"name":"Ayr","asciiname":"Ayr","alternatenames":"Ayr,Ayr - Inbhir Air,Ayr - Inbhir Àir,Ehr,Er,Eras,Eyr,Inbhir Air,Inbhir Àir,Inbhir Áir,ai er,ayr,ea,Ер,Эр,אייר,آئر,ایر,エア,艾尔","latitude":"55.4627300","longitude":"-4.6339300","fclass":"P","fcode":"PPLA2","country":"GB","cc2":"","admin1":"SCT","admin2":"W4","admin3":"","admin4":"","population":47190,"elevation":0,"gtopo30":13,"timezone":"Europe/London","moddate":"2017-06-15T00:00:00.000Z"},{"geonameid":2656572,"name":"Balkissock","asciiname":"Balkissock","alternatenames":"","latitude":"55.0976600","longitude":"-4.9209300","fclass":"P","fcode":"PPL","country":"GB","cc2":"","admin1":"SCT","admin2":"W4","admin3":"","admin4":"","population":0,"elevation":0,"gtopo30":163,"timezone":"Europe/London","moddate":"2011-03-03T00:00:00.000Z"},{"geonameid":2656567,"name":"Ballantrae","asciiname":"Ballantrae","alternatenames":"Ballantrae","latitude":"55.0986100","longitude":"-5.0042700","fclass":"P","fcode":"PPL","country":"GB","cc2":"","admin1":"SCT","admin2":"W4","admin3":"","admin4":"","population":0,"elevation":0,"gtopo30":4,"timezone":"Europe/London","moddate":"2013-07-11T00:00:00.000Z"},{"geonameid":2656371,"name":"Barassie","asciiname":"Barassie","alternatenames":"Barassie,Barrassie","latitude":"55.5529600","longitude":"-4.6568300","fclass":"P","fcode":"PPL","country":"GB","cc2":"GB","admin1":"SCT","admin2":"W4","admin3":"","admin4":"","population":0,"elevation":0,"gtopo30":17,"timezone":"Europe/London","moddate":"2013-07-11T00:00:00.000Z"},{"geonameid":2656342,"name":"Bargany","asciiname":"Bargany","alternatenames":"","latitude":"55.2500000","longitude":"-4.7500000","fclass":"P","fcode":"PPL","country":"GB","cc2":"","admin1":"SCT","admin2":"W4","admin3":"","admin4":"","population":0,"elevation":0,"gtopo30":230,"timezone":"Europe/London","moddate":"2013-07-11T00:00:00.000Z"},{"geonameid":2656269,"name":"Barr","asciiname":"Barr","alternatenames":"","latitude":"55.2000000","longitude":"-4.7000000","fclass":"P","fcode":"PPL","country":"GB","cc2":"","admin1":"SCT","admin2":"W4","admin3":"","admin4":"","population":0,"elevation":0,"gtopo30":219,"timezone":"Europe/London","moddate":"2013-07-11T00:00:00.000Z"},{"geonameid":2656257,"name":"Barrhill","asciiname":"Barrhill","alternatenames":"Barhill,Barrhill","latitude":"55.1026700","longitude":"-4.7696300","fclass":"P","fcode":"PPL","country":"GB","cc2":"","admin1":"SCT","admin2":"W4","admin3":"","admin4":"","population":0,"elevation":0,"gtopo30":72,"timezone":"Europe/London","moddate":"2011-03-03T00:00:00.000Z"},{"geonameid":2652549,"name":"Colmonell","asciiname":"Colmonell","alternatenames":"Colmonell","latitude":"55.1329900","longitude":"-4.9076100","fclass":"P","fcode":"PPL","country":"GB","cc2":"","admin1":"SCT","admin2":"W4","admin3":"","admin4":"","population":0,"elevation":0,"gtopo30":39,"timezone":"Europe/London","moddate":"2011-03-03T00:00:00.000Z"},{"geonameid":2652176,"name":"Coylton","asciiname":"Coylton","alternatenames":"","latitude":"55.4452800","longitude":"-4.5195000","fclass":"P","fcode":"PPL","country":"GB","cc2":"","admin1":"SCT","admin2":"W4","admin3":"","admin4":"","population":2180,"elevation":0,"gtopo30":73,"timezone":"Europe/London","moddate":"2017-06-12T00:00:00.000Z"},{"geonameid":2652135,"name":"Craigie","asciiname":"Craigie","alternatenames":"","latitude":"55.5598500","longitude":"-4.4935800","fclass":"P","fcode":"PPL","country":"GB","cc2":"","admin1":"SCT","admin2":"W4","admin3":"","admin4":"","population":0,"elevation":0,"gtopo30":140,"timezone":"Europe/London","moddate":"2013-07-11T00:00:00.000Z"},{"geonameid":2651871,"name":"Crosshill","asciiname":"Crosshill","alternatenames":"Crosshill","latitude":"55.3246900","longitude":"-4.6385300","fclass":"P","fcode":"PPL","country":"GB","cc2":"","admin1":"SCT","admin2":"W4","admin3":"","admin4":"","population":500,"elevation":0,"gtopo30":49,"timezone":"Europe/London","moddate":"2017-06-13T00:00:00.000Z"},{"geonameid":2641657,"name":"Dailly","asciiname":"Dailly","alternatenames":"Dailly","latitude":"55.2763800","longitude":"-4.7236100","fclass":"P","fcode":"PPL","country":"GB","cc2":"","admin1":"SCT","admin2":"W4","admin3":"","admin4":"","population":850,"elevation":0,"gtopo30":40,"timezone":"Europe/London","moddate":"2017-06-12T00:00:00.000Z"},{"geonameid":2651588,"name":"Daljarrock","asciiname":"Daljarrock","alternatenames":"Daljarroch,Daljarrock","latitude":"55.1500000","longitude":"-4.8333300","fclass":"P","fcode":"PPL","country":"GB","cc2":"GB","admin1":"SCT","admin2":"W4","admin3":"","admin4":"","population":0,"elevation":0,"gtopo30":77,"timezone":"Europe/London","moddate":"2013-07-11T00:00:00.000Z"},{"geonameid":2651061,"name":"Doularg","asciiname":"Doularg","alternatenames":"Doularg,Dularg","latitude":"55.2000000","longitude":"-4.7333300","fclass":"P","fcode":"PPL","country":"GB","cc2":"GB","admin1":"SCT","admin2":"W4","admin3":"","admin4":"","population":0,"elevation":0,"gtopo30":97,"timezone":"Europe/London","moddate":"2013-07-11T00:00:00.000Z"},{"geonameid":2650748,"name":"Dundonald","asciiname":"Dundonald","alternatenames":"Dundonald","latitude":"55.5793900","longitude":"-4.5947300","fclass":"P","fcode":"PPL","country":"GB","cc2":"","admin1":"SCT","admin2":"W4","admin3":"","admin4":"","population":2670,"elevation":0,"gtopo30":38,"timezone":"Europe/London","moddate":"2017-06-13T00:00:00.000Z"},{"geonameid":2650644,"name":"Dunure","asciiname":"Dunure","alternatenames":"Dunure","latitude":"55.4050300","longitude":"-4.7599500","fclass":"P","fcode":"PPL","country":"GB","cc2":"","admin1":"SCT","admin2":"W4","admin3":"","admin4":"","population":0,"elevation":0,"gtopo30":22,"timezone":"Europe/London","moddate":"2011-03-03T00:00:00.000Z"},{"geonameid":2648626,"name":"Girvan","asciiname":"Girvan","alternatenames":"Gervan,Inbhir Gharbhain,ge wen,Герван,格文","latitude":"55.2425500","longitude":"-4.8555100","fclass":"P","fcode":"PPL","country":"GB","cc2":"","admin1":"SCT","admin2":"W4","admin3":"","admin4":"","population":6650,"elevation":0,"gtopo30":12,"timezone":"Europe/London","moddate":"2017-06-12T00:00:00.000Z"},{"geonameid":11592167,"name":"Hillhead","asciiname":"Hillhead","alternatenames":"","latitude":"55.4474400","longitude":"-4.4935800","fclass":"P","fcode":"PPL","country":"GB","cc2":"","admin1":"SCT","admin2":"W4","admin3":"","admin4":"","population":630,"elevation":0,"gtopo30":94,"timezone":"Europe/London","moddate":"2017-06-14T00:00:00.000Z"},{"geonameid":2645656,"name":"Kilkerran","asciiname":"Kilkerran","alternatenames":"","latitude":"55.2833300","longitude":"-4.6666700","fclass":"P","fcode":"PPL","country":"GB","cc2":"","admin1":"SCT","admin2":"W4","admin3":"","admin4":"","population":0,"elevation":0,"gtopo30":223,"timezone":"Europe/London","moddate":"2013-07-11T00:00:00.000Z"},{"geonameid":2645245,"name":"Kirkmichael","asciiname":"Kirkmichael","alternatenames":"Kirkmichael","latitude":"55.3333300","longitude":"-4.6166700","fclass":"P","fcode":"PPL","country":"GB","cc2":"","admin1":"SCT","admin2":"W4","admin3":"","admin4":"","population":0,"elevation":0,"gtopo30":58,"timezone":"Europe/London","moddate":"2013-07-11T00:00:00.000Z"},{"geonameid":2645236,"name":"Kirkoswald","asciiname":"Kirkoswald","alternatenames":"Kirkoswald","latitude":"55.3166700","longitude":"-4.7666700","fclass":"P","fcode":"PPL","country":"GB","cc2":"","admin1":"SCT","admin2":"W4","admin3":"","admin4":"","population":0,"elevation":0,"gtopo30":138,"timezone":"Europe/London","moddate":"2019-02-21T00:00:00.000Z"},{"geonameid":2644625,"name":"Lendalfoot","asciiname":"Lendalfoot","alternatenames":"","latitude":"55.1656400","longitude":"-4.9370000","fclass":"P","fcode":"PPL","country":"GB","cc2":"","admin1":"SCT","admin2":"W4","admin3":"","admin4":"","population":0,"elevation":0,"gtopo30":9,"timezone":"Europe/London","moddate":"2011-03-03T00:00:00.000Z"},{"geonameid":2643861,"name":"Loans","asciiname":"Loans","alternatenames":"","latitude":"55.5504000","longitude":"-4.6241000","fclass":"P","fcode":"PPL","country":"GB","cc2":"","admin1":"SCT","admin2":"W4","admin3":"","admin4":"","population":730,"elevation":0,"gtopo30":23,"timezone":"Europe/London","moddate":"2017-06-12T00:00:00.000Z"},{"geonameid":2643183,"name":"Maidens","asciiname":"Maidens","alternatenames":"Maidens","latitude":"55.3333300","longitude":"-4.8166700","fclass":"P","fcode":"PPL","country":"GB","cc2":"","admin1":"SCT","admin2":"W4","admin3":"","admin4":"","population":530,"elevation":0,"gtopo30":8,"timezone":"Europe/London","moddate":"2013-08-05T00:00:00.000Z"},{"geonameid":2642882,"name":"Maybole","asciiname":"Maybole","alternatenames":"Am Magh Baoghail,Maybole,mei bo er,梅博尔","latitude":"55.3550300","longitude":"-4.6802600","fclass":"P","fcode":"PPL","country":"GB","cc2":"","admin1":"SCT","admin2":"W4","admin3":"","admin4":"","population":4750,"elevation":0,"gtopo30":84,"timezone":"Europe/London","moddate":"2017-06-12T00:00:00.000Z"},{"geonameid":2642318,"name":"Monkton","asciiname":"Monkton","alternatenames":"Monkton","latitude":"55.5135600","longitude":"-4.5933900","fclass":"P","fcode":"PPL","country":"GB","cc2":"","admin1":"SCT","admin2":"W4","admin3":"","admin4":"","population":930,"elevation":0,"gtopo30":15,"timezone":"Europe/London","moddate":"2017-06-13T00:00:00.000Z"},{"geonameid":11592195,"name":"Mossblown","asciiname":"Mossblown","alternatenames":"","latitude":"55.4894100","longitude":"-4.5278700","fclass":"P","fcode":"PPL","country":"GB","cc2":"","admin1":"SCT","admin2":"W4","admin3":"","admin4":"","population":2090,"elevation":0,"gtopo30":50,"timezone":"Europe/London","moddate":"2017-06-14T00:00:00.000Z"},{"geonameid":11550893,"name":"New Prestwick","asciiname":"New Prestwick","alternatenames":"","latitude":"55.4845200","longitude":"-4.6056700","fclass":"P","fcode":"PPL","country":"GB","cc2":"","admin1":"SCT","admin2":"W4","admin3":"","admin4":"","population":0,"elevation":0,"gtopo30":14,"timezone":"Europe/London","moddate":"2017-06-07T00:00:00.000Z"},{"geonameid":2640276,"name":"Pinmore","asciiname":"Pinmore","alternatenames":"","latitude":"55.1894700","longitude":"-4.8226400","fclass":"P","fcode":"PPL","country":"GB","cc2":"","admin1":"SCT","admin2":"W4","admin3":"","admin4":"","population":0,"elevation":0,"gtopo30":95,"timezone":"Europe/London","moddate":"2011-03-03T00:00:00.000Z"},{"geonameid":9409851,"name":"Pinwherry","asciiname":"Pinwherry","alternatenames":"","latitude":"55.1467500","longitude":"-4.8329500","fclass":"P","fcode":"PPL","country":"GB","cc2":"","admin1":"SCT","admin2":"W4","admin3":"","admin4":"","population":0,"elevation":0,"gtopo30":57,"timezone":"Europe/London","moddate":"2014-09-02T00:00:00.000Z"},{"geonameid":2639896,"name":"Prestwick","asciiname":"Prestwick","alternatenames":"Preastabhaig,Prestuik,Prestvik,Prestwick,Preswick,pu lei si te wei ke,puresutou~ikku,Прествік,Престуик,プレストウィック,普雷斯特威克","latitude":"55.4833300","longitude":"-4.6166700","fclass":"P","fcode":"PPL","country":"GB","cc2":"","admin1":"SCT","admin2":"W4","admin3":"","admin4":"","population":14750,"elevation":0,"gtopo30":14,"timezone":"Europe/London","moddate":"2017-06-12T00:00:00.000Z"},{"geonameid":2639526,"name":"Redrea","asciiname":"Redrea","alternatenames":"","latitude":"55.5333300","longitude":"-4.5000000","fclass":"P","fcode":"PPL","country":"GB","cc2":"","admin1":"SCT","admin2":"W4","admin3":"","admin4":"","population":0,"elevation":0,"gtopo30":84,"timezone":"Europe/London","moddate":"2013-07-11T00:00:00.000Z"},{"geonameid":2639051,"name":"Rowantree","asciiname":"Rowantree","alternatenames":"","latitude":"55.1666700","longitude":"-4.5833300","fclass":"P","fcode":"PPL","country":"GB","cc2":"","admin1":"SCT","admin2":"W4","admin3":"","admin4":"","population":0,"elevation":0,"gtopo30":257,"timezone":"Europe/London","moddate":"2013-07-11T00:00:00.000Z"},{"geonameid":2636729,"name":"Straiton","asciiname":"Straiton","alternatenames":"Straiton","latitude":"55.3000000","longitude":"-4.5500000","fclass":"P","fcode":"PPL","country":"GB","cc2":"","admin1":"SCT","admin2":"W4","admin3":"","admin4":"","population":0,"elevation":0,"gtopo30":179,"timezone":"Europe/London","moddate":"2013-07-11T00:00:00.000Z"},{"geonameid":2636350,"name":"Symington","asciiname":"Symington","alternatenames":"Symington","latitude":"55.5517600","longitude":"-4.5583500","fclass":"P","fcode":"PPL","country":"GB","cc2":"","admin1":"SCT","admin2":"W4","admin3":"","admin4":"","population":1050,"elevation":0,"gtopo30":94,"timezone":"Europe/London","moddate":"2017-06-26T00:00:00.000Z"},{"geonameid":2636231,"name":"Tarbolton","asciiname":"Tarbolton","alternatenames":"Tarbolton","latitude":"55.5129200","longitude":"-4.4864800","fclass":"P","fcode":"PPL","country":"GB","cc2":"","admin1":"SCT","admin2":"W4","admin3":"","admin4":"","population":1900,"elevation":0,"gtopo30":98,"timezone":"Europe/London","moddate":"2017-06-12T00:00:00.000Z"},{"geonameid":2635442,"name":"Troon","asciiname":"Troon","alternatenames":"An t-Sron,An t-Sròn,An t-Srón,The Truin,Trun,te lun,Трун,特伦","latitude":"55.5435900","longitude":"-4.6633500","fclass":"P","fcode":"PPL","country":"GB","cc2":"","admin1":"SCT","admin2":"W4","admin3":"","admin4":"","population":14680,"elevation":0,"gtopo30":5,"timezone":"Europe/London","moddate":"2017-06-12T00:00:00.000Z"},{"geonameid":2635342,"name":"Turnberry","asciiname":"Turnberry","alternatenames":"Turnberry Golf Club,tanberi,ターンベリー","latitude":"55.3133200","longitude":"-4.8281500","fclass":"P","fcode":"PPL","country":"GB","cc2":"","admin1":"SCT","admin2":"W4","admin3":"","admin4":"","population":0,"elevation":0,"gtopo30":31,"timezone":"Europe/London","moddate":"2013-07-11T00:00:00.000Z"},{"geonameid":2634680,"name":"Waterside","asciiname":"Waterside","alternatenames":"","latitude":"55.3463000","longitude":"-4.4656000","fclass":"P","fcode":"PPL","country":"GB","cc2":"","admin1":"SCT","admin2":"W4","admin3":"","admin4":"","population":0,"elevation":0,"gtopo30":167,"timezone":"Europe/London","moddate":"2015-05-11T00:00:00.000Z"},{"geonameid":11550890,"name":"Whitletts","asciiname":"Whitletts","alternatenames":"","latitude":"55.4743500","longitude":"-4.5917300","fclass":"P","fcode":"PPL","country":"GB","cc2":"","admin1":"SCT","admin2":"W4","admin3":"","admin4":"","population":0,"elevation":0,"gtopo30":27,"timezone":"Europe/London","moddate":"2017-06-07T00:00:00.000Z"}],"admin3":[{"geonameid":2656700,"name":"Ayrshire","admin3":"2656700"}],"alternateNames":[]},"__N_SSG":true}