{"pageProps":{"locale":"ro","admin2":{"geonameid":686307,"name":"Comuna Aninoasa","country":"RO","admin1":"03","admin2":"13999","admin3":"","latitude":"45.2022200","longitude":"24.9120600"},"admin1":{"geonameid":686192,"name":"Argeş","admin1":"03"},"locations":[{"geonameid":686316,"name":"Aninoasa","asciiname":"Aninoasa","alternatenames":"","latitude":"45.1833300","longitude":"24.9333300","fclass":"P","fcode":"PPLA2","country":"RO","cc2":"","admin1":"03","admin2":"13999","admin3":"","admin4":"","population":3334,"elevation":0,"gtopo30":557,"timezone":"Europe/Bucharest","moddate":"2012-06-12T00:00:00.000Z"},{"geonameid":683642,"name":"Broșteni","asciiname":"Brosteni","alternatenames":"Brosteni,Brostenii,Broşteni,Broştenii","latitude":"45.1952900","longitude":"24.9200000","fclass":"P","fcode":"PPL","country":"RO","cc2":"RO","admin1":"03","admin2":"13999","admin3":"","admin4":"","population":414,"elevation":0,"gtopo30":466,"timezone":"Europe/Bucharest","moddate":"2013-04-21T00:00:00.000Z"},{"geonameid":666776,"name":"Slănic","asciiname":"Slanic","alternatenames":"","latitude":"45.2310800","longitude":"24.8941100","fclass":"P","fcode":"PPL","country":"RO","cc2":"","admin1":"03","admin2":"13999","admin3":"","admin4":"","population":1114,"elevation":0,"gtopo30":548,"timezone":"Europe/Bucharest","moddate":"2013-04-21T00:00:00.000Z"},{"geonameid":663398,"name":"Valea Siliștii","asciiname":"Valea Silistii","alternatenames":"Valea Silistei,Valea Siliştei,Valea-Silisteii,Valea-Silişteii","latitude":"45.1902700","longitude":"24.9073100","fclass":"P","fcode":"PPL","country":"RO","cc2":"RO","admin1":"03","admin2":"13999","admin3":"","admin4":"","population":785,"elevation":0,"gtopo30":474,"timezone":"Europe/Bucharest","moddate":"2013-04-20T00:00:00.000Z"}],"admin3":[],"alternateNames":[]},"__N_SSG":true}