{"pageProps":{"locale":"ro","admin2":{"geonameid":682678,"name":"Comuna C.A. Rosetti","country":"RO","admin1":"11","admin2":"45815","admin3":"","latitude":"45.0367800","longitude":"27.1672200"},"admin1":{"geonameid":683121,"name":"Buzău","admin1":"11"},"locations":[{"geonameid":684852,"name":"Bâlhacu","asciiname":"Balhacu","alternatenames":"Balhacul,Bilhacu,Bîlhacu,Bălhacul","latitude":"45.0478400","longitude":"27.1359500","fclass":"P","fcode":"PPL","country":"RO","cc2":"RO","admin1":"11","admin2":"45815","admin3":"","admin4":"","population":231,"elevation":0,"gtopo30":48,"timezone":"Europe/Bucharest","moddate":"2013-04-21T00:00:00.000Z"},{"geonameid":685529,"name":"Bălteni","asciiname":"Balteni","alternatenames":"Balteni,Baltenii,Bălteni,Băltenii","latitude":"45.0090500","longitude":"27.1484100","fclass":"P","fcode":"PPL","country":"RO","cc2":"RO","admin1":"11","admin2":"45815","admin3":"","admin4":"","population":542,"elevation":0,"gtopo30":48,"timezone":"Europe/Bucharest","moddate":"2013-04-21T00:00:00.000Z"},{"geonameid":682680,"name":"C.a. Rosetti","asciiname":"C.a. Rosetti","alternatenames":"C.A. Roseti,C.A. Rosetti","latitude":"45.0462200","longitude":"27.1664000","fclass":"P","fcode":"PPLA2","country":"RO","cc2":"RO","admin1":"11","admin2":"45815","admin3":"","admin4":"","population":959,"elevation":0,"gtopo30":49,"timezone":"Europe/Bucharest","moddate":"2013-04-21T00:00:00.000Z"},{"geonameid":680456,"name":"Cotu Ciorii","asciiname":"Cotu Ciorii","alternatenames":"Ciorann,Cotu Ciorii,Cotu-Cioarii,Cotul Cioarii,Cotul Ciorei,Cotul-Ciorii","latitude":"45.0629900","longitude":"27.1422900","fclass":"P","fcode":"PPL","country":"RO","cc2":"RO","admin1":"11","admin2":"45815","admin3":"","admin4":"","population":730,"elevation":0,"gtopo30":48,"timezone":"Europe/Bucharest","moddate":"2013-04-21T00:00:00.000Z"},{"geonameid":677593,"name":"Gara Rosetti","asciiname":"Gara Rosetti","alternatenames":"","latitude":"45.0666700","longitude":"27.1500000","fclass":"P","fcode":"PPLX","country":"RO","cc2":"","admin1":"11","admin2":"45815","admin3":"","admin4":"","population":0,"elevation":0,"gtopo30":49,"timezone":"Europe/Bucharest","moddate":"2016-02-07T00:00:00.000Z"},{"geonameid":674490,"name":"Lunca","asciiname":"Lunca","alternatenames":"Lunca,Strambu,Strambul,Strimbu,Strâmbu,Strâmbul,Strîmbu","latitude":"45.0049400","longitude":"27.2133500","fclass":"P","fcode":"PPL","country":"RO","cc2":"RO","admin1":"11","admin2":"45815","admin3":"","admin4":"","population":1497,"elevation":0,"gtopo30":44,"timezone":"Europe/Bucharest","moddate":"2013-04-21T00:00:00.000Z"},{"geonameid":662652,"name":"Vizireni","asciiname":"Vizireni","alternatenames":"","latitude":"45.0496500","longitude":"27.1969300","fclass":"P","fcode":"PPL","country":"RO","cc2":"","admin1":"11","admin2":"45815","admin3":"","admin4":"","population":474,"elevation":0,"gtopo30":47,"timezone":"Europe/Bucharest","moddate":"2013-04-20T00:00:00.000Z"}],"admin3":[],"alternateNames":[]},"__N_SSG":true}