{"pageProps":{"locale":"ro","admin2":{"geonameid":665112,"name":"Comuna Tigveni","country":"RO","admin1":"03","admin2":"19249","admin3":"","latitude":"45.1558800","longitude":"24.5509400"},"admin1":{"geonameid":686192,"name":"Argeş","admin1":"03"},"locations":[{"geonameid":685887,"name":"Bădislava","asciiname":"Badislava","alternatenames":"","latitude":"45.1555500","longitude":"24.5158500","fclass":"P","fcode":"PPL","country":"RO","cc2":"","admin1":"03","admin2":"19249","admin3":"","admin4":"","population":152,"elevation":0,"gtopo30":464,"timezone":"Europe/Bucharest","moddate":"2013-04-21T00:00:00.000Z"},{"geonameid":685619,"name":"Bălilești","asciiname":"Balilesti","alternatenames":"Balilesti,Balilestii,Bălileşti,Bălileştii","latitude":"45.1417200","longitude":"24.5359100","fclass":"P","fcode":"PPL","country":"RO","cc2":"RO","admin1":"03","admin2":"19249","admin3":"","admin4":"","population":155,"elevation":0,"gtopo30":422,"timezone":"Europe/Bucharest","moddate":"2013-04-21T00:00:00.000Z"},{"geonameid":685528,"name":"Bălteni","asciiname":"Balteni","alternatenames":"","latitude":"45.1446100","longitude":"24.5612500","fclass":"P","fcode":"PPL","country":"RO","cc2":"","admin1":"03","admin2":"19249","admin3":"","admin4":"","population":261,"elevation":0,"gtopo30":403,"timezone":"Europe/Bucharest","moddate":"2013-04-21T00:00:00.000Z"},{"geonameid":684746,"name":"Bârseștii de Jos","asciiname":"Barsestii de Jos","alternatenames":"Barsesti,Barsesti-de-Jos,Birsestii de Jos,Bârseşti,Bârseşti-de-Jos,Bîrseştii de Jos","latitude":"45.1666700","longitude":"24.5666700","fclass":"P","fcode":"PPL","country":"RO","cc2":"","admin1":"03","admin2":"19249","admin3":"","admin4":"","population":826,"elevation":0,"gtopo30":440,"timezone":"Europe/Bucharest","moddate":"2015-11-12T00:00:00.000Z"},{"geonameid":684744,"name":"Bârseștii de Sus","asciiname":"Barsestii de Sus","alternatenames":"Birsestii de Sus,Bîrseştii de Sus","latitude":"45.1833300","longitude":"24.5666700","fclass":"P","fcode":"PPL","country":"RO","cc2":"","admin1":"03","admin2":"19249","admin3":"","admin4":"","population":373,"elevation":0,"gtopo30":529,"timezone":"Europe/Bucharest","moddate":"2015-11-12T00:00:00.000Z"},{"geonameid":684595,"name":"Blaju","asciiname":"Blaju","alternatenames":"Blaju,Blajul","latitude":"45.1578200","longitude":"24.6007300","fclass":"P","fcode":"PPL","country":"RO","cc2":"RO","admin1":"03","admin2":"19249","admin3":"","admin4":"","population":99,"elevation":0,"gtopo30":554,"timezone":"Europe/Bucharest","moddate":"2013-04-21T00:00:00.000Z"},{"geonameid":665113,"name":"Tigveni","asciiname":"Tigveni","alternatenames":"","latitude":"45.1333300","longitude":"24.5833300","fclass":"P","fcode":"PPLA2","country":"RO","cc2":"","admin1":"03","admin2":"19249","admin3":"","admin4":"","population":3634,"elevation":0,"gtopo30":464,"timezone":"Europe/Bucharest","moddate":"2012-06-12T00:00:00.000Z"},{"geonameid":662621,"name":"Vlădești","asciiname":"Vladesti","alternatenames":"","latitude":"45.1569000","longitude":"24.5298200","fclass":"P","fcode":"PPL","country":"RO","cc2":"","admin1":"03","admin2":"19249","admin3":"","admin4":"","population":228,"elevation":0,"gtopo30":511,"timezone":"Europe/Bucharest","moddate":"2013-04-20T00:00:00.000Z"}],"admin3":[],"alternateNames":[]},"__N_SSG":true}