{"pageProps":{"locale":"ro","admin2":{"geonameid":682872,"name":"Comuna Calvini","country":"RO","admin1":"11","admin2":"45753","admin3":"","latitude":"45.2490600","longitude":"26.2998200"},"admin1":{"geonameid":683121,"name":"Buzău","admin1":"11"},"locations":[{"geonameid":684698,"name":"Bâscenii de Jos","asciiname":"Bascenii de Jos","alternatenames":"Bascenii de Jos,Biscenii de Jos,Bâscenii de Jos,Bîscenii de Jos","latitude":"45.2470800","longitude":"26.3212200","fclass":"P","fcode":"PPL","country":"RO","cc2":"RO","admin1":"11","admin2":"45753","admin3":"","admin4":"","population":1830,"elevation":0,"gtopo30":297,"timezone":"Europe/Bucharest","moddate":"2013-04-21T00:00:00.000Z"},{"geonameid":684697,"name":"Bâscenii de Sus","asciiname":"Bascenii de Sus","alternatenames":"Bascenii de Sus,Biscenii de Sus,Bîscenii de Sus","latitude":"45.2666200","longitude":"26.2707300","fclass":"P","fcode":"PPL","country":"RO","cc2":"RO","admin1":"11","admin2":"45753","admin3":"","admin4":"","population":1008,"elevation":0,"gtopo30":391,"timezone":"Europe/Bucharest","moddate":"2013-04-21T00:00:00.000Z"},{"geonameid":682873,"name":"Calvini","asciiname":"Calvini","alternatenames":"Calvini","latitude":"45.2500000","longitude":"26.3000000","fclass":"P","fcode":"PPLA2","country":"RO","cc2":"","admin1":"11","admin2":"45753","admin3":"","admin4":"","population":4315,"elevation":0,"gtopo30":324,"timezone":"Europe/Bucharest","moddate":"2012-06-12T00:00:00.000Z"},{"geonameid":677953,"name":"Frăsinet","asciiname":"Frasinet","alternatenames":"Frasinet,Frasinetu,Frăsinet","latitude":"45.2371300","longitude":"26.2926600","fclass":"P","fcode":"PPL","country":"RO","cc2":"RO","admin1":"11","admin2":"45753","admin3":"","admin4":"","population":165,"elevation":0,"gtopo30":297,"timezone":"Europe/Bucharest","moddate":"2013-04-21T00:00:00.000Z"},{"geonameid":675522,"name":"Iorguleşti","asciiname":"Iorgulesti","alternatenames":"","latitude":"45.2666700","longitude":"26.2666700","fclass":"P","fcode":"PPLX","country":"RO","cc2":"","admin1":"11","admin2":"45753","admin3":"","admin4":"","population":0,"elevation":0,"gtopo30":351,"timezone":"Europe/Bucharest","moddate":"2016-02-07T00:00:00.000Z"},{"geonameid":671874,"name":"Olari","asciiname":"Olari","alternatenames":"","latitude":"45.2398700","longitude":"26.3231800","fclass":"P","fcode":"PPL","country":"RO","cc2":"","admin1":"11","admin2":"45753","admin3":"","admin4":"","population":392,"elevation":0,"gtopo30":296,"timezone":"Europe/Bucharest","moddate":"2013-04-21T00:00:00.000Z"},{"geonameid":665974,"name":"Strâmba","asciiname":"Stramba","alternatenames":"Stramba,Strimba,Strâmba,Strîmba","latitude":"45.2333300","longitude":"26.2666700","fclass":"P","fcode":"PPLX","country":"RO","cc2":"","admin1":"11","admin2":"45753","admin3":"","admin4":"","population":0,"elevation":0,"gtopo30":406,"timezone":"Europe/Bucharest","moddate":"2020-03-08T00:00:00.000Z"},{"geonameid":663417,"name":"Valea Seacă","asciiname":"Valea Seaca","alternatenames":"Valea Seaca,Valea Seacă,Valea Seca","latitude":"45.2666700","longitude":"26.2666700","fclass":"P","fcode":"PPLX","country":"RO","cc2":"","admin1":"11","admin2":"45753","admin3":"","admin4":"","population":0,"elevation":0,"gtopo30":351,"timezone":"Europe/Bucharest","moddate":"2020-06-10T00:00:00.000Z"},{"geonameid":663047,"name":"Vereş","asciiname":"Veres","alternatenames":"","latitude":"45.2333300","longitude":"26.2666700","fclass":"P","fcode":"PPLX","country":"RO","cc2":"","admin1":"11","admin2":"45753","admin3":"","admin4":"","population":0,"elevation":0,"gtopo30":406,"timezone":"Europe/Bucharest","moddate":"2016-02-07T00:00:00.000Z"}],"admin3":[],"alternateNames":[]},"__N_SSG":true}