{"pageProps":{"locale":"ro","admin2":{"geonameid":664183,"name":"Comuna Urdari","country":"RO","admin1":"19","admin2":"82733","admin3":"","latitude":"44.7993400","longitude":"23.2960000"},"admin1":{"geonameid":676898,"name":"Gorj","admin1":"19"},"locations":[{"geonameid":678169,"name":"Fântânele","asciiname":"Fantanele","alternatenames":"Fintinele,Fîntînele,Stejaru,Stejarul","latitude":"44.7780700","longitude":"23.3109700","fclass":"P","fcode":"PPL","country":"RO","cc2":"RO","admin1":"19","admin2":"82733","admin3":"","admin4":"","population":931,"elevation":0,"gtopo30":144,"timezone":"Europe/Bucharest","moddate":"2013-04-21T00:00:00.000Z"},{"geonameid":675963,"name":"Hotăroasa","asciiname":"Hotaroasa","alternatenames":"Hotareasa,Hotaroasa,Hotăreasa,Hotăroasa","latitude":"44.8230300","longitude":"23.2825100","fclass":"P","fcode":"PPL","country":"RO","cc2":"RO","admin1":"19","admin2":"82733","admin3":"","admin4":"","population":616,"elevation":0,"gtopo30":142,"timezone":"Europe/Bucharest","moddate":"2013-04-21T00:00:00.000Z"},{"geonameid":664184,"name":"Urdari","asciiname":"Urdari","alternatenames":"Urdari,Urdarii de Jos","latitude":"44.8000000","longitude":"23.3000000","fclass":"P","fcode":"PPLA2","country":"RO","cc2":"","admin1":"19","admin2":"82733","admin3":"","admin4":"","population":3162,"elevation":0,"gtopo30":161,"timezone":"Europe/Bucharest","moddate":"2012-06-12T00:00:00.000Z"},{"geonameid":664182,"name":"Urdarii de Sus","asciiname":"Urdarii de Sus","alternatenames":"","latitude":"44.8166700","longitude":"23.2833300","fclass":"P","fcode":"PPL","country":"RO","cc2":"","admin1":"19","admin2":"82733","admin3":"","admin4":"","population":0,"elevation":0,"gtopo30":158,"timezone":"Europe/Bucharest","moddate":"2016-02-07T00:00:00.000Z"}],"admin3":[],"alternateNames":[]},"__N_SSG":true}