{"pageProps":{"locale":"ro","admin2":{"geonameid":669490,"name":"Comuna Punghina","country":"RO","admin1":"26","admin2":"113395","admin3":"","latitude":"44.2953400","longitude":"22.9631800"},"admin1":{"geonameid":673612,"name":"Mehedinţi","admin1":"26"},"locations":[{"geonameid":682470,"name":"Cearângu","asciiname":"Cearangu","alternatenames":"Cearangu,Cearangul,Cearingu,Cearângu,Cearângul,Cearîngu","latitude":"44.2818700","longitude":"22.9818100","fclass":"P","fcode":"PPL","country":"RO","cc2":"RO","admin1":"26","admin2":"113395","admin3":"","admin4":"","population":271,"elevation":0,"gtopo30":112,"timezone":"Europe/Bucharest","moddate":"2013-04-21T00:00:00.000Z"},{"geonameid":678825,"name":"Drincea","asciiname":"Drincea","alternatenames":"","latitude":"44.3045900","longitude":"22.9983400","fclass":"P","fcode":"PPL","country":"RO","cc2":"","admin1":"26","admin2":"113395","admin3":"","admin4":"","population":540,"elevation":0,"gtopo30":117,"timezone":"Europe/Bucharest","moddate":"2013-04-21T00:00:00.000Z"},{"geonameid":674118,"name":"Măgurele","asciiname":"Magurele","alternatenames":"Magurele,Magureni,Măgurele,Măgureni","latitude":"44.2705000","longitude":"22.9494700","fclass":"P","fcode":"PPL","country":"RO","cc2":"RO","admin1":"26","admin2":"113395","admin3":"","admin4":"","population":134,"elevation":0,"gtopo30":98,"timezone":"Europe/Bucharest","moddate":"2013-04-21T00:00:00.000Z"},{"geonameid":669491,"name":"Punghina","asciiname":"Punghina","alternatenames":"Punghina","latitude":"44.2819400","longitude":"22.9347200","fclass":"P","fcode":"PPLA2","country":"RO","cc2":"","admin1":"26","admin2":"113395","admin3":"","admin4":"","population":3322,"elevation":0,"gtopo30":91,"timezone":"Europe/Bucharest","moddate":"2012-06-12T00:00:00.000Z"},{"geonameid":669056,"name":"Recea","asciiname":"Recea","alternatenames":"","latitude":"44.3194900","longitude":"22.9165900","fclass":"P","fcode":"PPL","country":"RO","cc2":"","admin1":"26","admin2":"113395","admin3":"","admin4":"","population":1028,"elevation":0,"gtopo30":105,"timezone":"Europe/Bucharest","moddate":"2013-04-21T00:00:00.000Z"},{"geonameid":667857,"name":"Satu Nou","asciiname":"Satu Nou","alternatenames":"","latitude":"44.3137100","longitude":"22.9948400","fclass":"P","fcode":"PPL","country":"RO","cc2":"","admin1":"26","admin2":"113395","admin3":"","admin4":"","population":0,"elevation":0,"gtopo30":129,"timezone":"Europe/Bucharest","moddate":"2013-04-21T00:00:00.000Z"}],"admin3":[],"alternateNames":[]},"__N_SSG":true}