{"pageProps":{"locale":"ro","admin2":{"geonameid":671585,"name":"Comuna Măciuca","country":"RO","admin1":"39","admin2":"171101","admin3":"","latitude":"44.7580700","longitude":"24.0240800"},"admin1":{"geonameid":662892,"name":"Vâlcea","admin1":"39"},"locations":[{"geonameid":684491,"name":"Bocșa","asciiname":"Bocsa","alternatenames":"","latitude":"44.7556900","longitude":"24.0336700","fclass":"P","fcode":"PPL","country":"RO","cc2":"","admin1":"39","admin2":"171101","admin3":"","admin4":"","population":260,"elevation":0,"gtopo30":309,"timezone":"Europe/Bucharest","moddate":"2013-04-21T00:00:00.000Z"},{"geonameid":684048,"name":"Botorani","asciiname":"Botorani","alternatenames":"","latitude":"44.7455300","longitude":"24.0396300","fclass":"P","fcode":"PPL","country":"RO","cc2":"","admin1":"39","admin2":"171101","admin3":"","admin4":"","population":629,"elevation":0,"gtopo30":342,"timezone":"Europe/Bucharest","moddate":"2013-04-21T00:00:00.000Z"},{"geonameid":681752,"name":"Ciocănari","asciiname":"Ciocanari","alternatenames":"","latitude":"44.7355300","longitude":"24.0109600","fclass":"P","fcode":"PPL","country":"RO","cc2":"","admin1":"39","admin2":"171101","admin3":"","admin4":"","population":268,"elevation":0,"gtopo30":260,"timezone":"Europe/Bucharest","moddate":"2013-04-21T00:00:00.000Z"},{"geonameid":674226,"name":"Măciuceni","asciiname":"Maciuceni","alternatenames":"","latitude":"44.7627600","longitude":"24.0189800","fclass":"P","fcode":"PPL","country":"RO","cc2":"","admin1":"39","admin2":"171101","admin3":"","admin4":"","population":204,"elevation":0,"gtopo30":253,"timezone":"Europe/Bucharest","moddate":"2013-04-21T00:00:00.000Z"},{"geonameid":674027,"name":"Măldărești","asciiname":"Maldaresti","alternatenames":"Maldaresti,Maldaresti-Zavoeni,Măldăreşti,Măldăreşti-Zavoeni","latitude":"44.7712500","longitude":"24.0277100","fclass":"P","fcode":"PPL","country":"RO","cc2":"RO","admin1":"39","admin2":"171101","admin3":"","admin4":"","population":85,"elevation":0,"gtopo30":274,"timezone":"Europe/Bucharest","moddate":"2013-04-21T00:00:00.000Z"},{"geonameid":671586,"name":"Oveselu","asciiname":"Oveselu","alternatenames":"Maciuca,Măciuca,Ovesel,Oveselu","latitude":"44.7500000","longitude":"24.0166700","fclass":"P","fcode":"PPL","country":"RO","cc2":"","admin1":"39","admin2":"171101","admin3":"","admin4":"","population":2193,"elevation":0,"gtopo30":250,"timezone":"Europe/Bucharest","moddate":"2016-02-07T00:00:00.000Z"},{"geonameid":669906,"name":"Popești","asciiname":"Popesti","alternatenames":"","latitude":"44.7410300","longitude":"24.0179500","fclass":"P","fcode":"PPL","country":"RO","cc2":"","admin1":"39","admin2":"171101","admin3":"","admin4":"","population":423,"elevation":0,"gtopo30":282,"timezone":"Europe/Bucharest","moddate":"2013-04-21T00:00:00.000Z"},{"geonameid":666605,"name":"Sneafu","asciiname":"Sneafu","alternatenames":"","latitude":"44.7666700","longitude":"24.0166700","fclass":"P","fcode":"PPLX","country":"RO","cc2":"","admin1":"39","admin2":"171101","admin3":"","admin4":"","population":0,"elevation":0,"gtopo30":241,"timezone":"Europe/Bucharest","moddate":"2016-02-07T00:00:00.000Z"},{"geonameid":666236,"name":"Ștefănești","asciiname":"Stefanesti","alternatenames":"","latitude":"44.7826800","longitude":"24.0305500","fclass":"P","fcode":"PPL","country":"RO","cc2":"","admin1":"39","admin2":"171101","admin3":"","admin4":"","population":80,"elevation":0,"gtopo30":301,"timezone":"Europe/Bucharest","moddate":"2013-04-21T00:00:00.000Z"},{"geonameid":664323,"name":"Uliţa Nucului","asciiname":"Ulita Nucului","alternatenames":"","latitude":"44.7500000","longitude":"24.0500000","fclass":"P","fcode":"PPLX","country":"RO","cc2":"","admin1":"39","admin2":"171101","admin3":"","admin4":"","population":0,"elevation":0,"gtopo30":288,"timezone":"Europe/Bucharest","moddate":"2016-02-07T00:00:00.000Z"},{"geonameid":664322,"name":"Uliţa-Viilor","asciiname":"Ulita-Viilor","alternatenames":"","latitude":"44.7500000","longitude":"24.0500000","fclass":"P","fcode":"PPLX","country":"RO","cc2":"","admin1":"39","admin2":"171101","admin3":"","admin4":"","population":0,"elevation":0,"gtopo30":288,"timezone":"Europe/Bucharest","moddate":"2016-02-07T00:00:00.000Z"},{"geonameid":662256,"name":"Zăvoieni","asciiname":"Zavoieni","alternatenames":"","latitude":"44.7763400","longitude":"24.0221900","fclass":"P","fcode":"PPL","country":"RO","cc2":"","admin1":"39","admin2":"171101","admin3":"","admin4":"","population":292,"elevation":0,"gtopo30":252,"timezone":"Europe/Bucharest","moddate":"2013-04-20T00:00:00.000Z"}],"admin3":[],"alternateNames":[]},"__N_SSG":true}