{"pageProps":{"locale":"ro","admin2":{"geonameid":684605,"name":"Comuna Blăjeni","country":"RO","admin1":"21","admin2":"88350","admin3":"","latitude":"46.2549100","longitude":"22.9033500"},"admin1":{"geonameid":675917,"name":"Hunedoara","admin1":"21"},"locations":[{"geonameid":685916,"name":"Bădăi","asciiname":"Badai","alternatenames":"","latitude":"46.3000000","longitude":"22.8833300","fclass":"P","fcode":"PPLX","country":"RO","cc2":"","admin1":"21","admin2":"88350","admin3":"","admin4":"","population":0,"elevation":0,"gtopo30":543,"timezone":"Europe/Bucharest","moddate":"2016-02-07T00:00:00.000Z"},{"geonameid":684606,"name":"Blăjeni","asciiname":"Blajeni","alternatenames":"Blaieni,Blajeni,Blăieni,Blăjeni","latitude":"46.2333300","longitude":"22.9000000","fclass":"P","fcode":"PPLA2","country":"RO","cc2":"","admin1":"21","admin2":"88350","admin3":"","admin4":"","population":1516,"elevation":0,"gtopo30":497,"timezone":"Europe/Bucharest","moddate":"2012-06-12T00:00:00.000Z"},{"geonameid":684601,"name":"Blăjeni-Vulcan","asciiname":"Blajeni-Vulcan","alternatenames":"","latitude":"46.2401500","longitude":"22.9393600","fclass":"P","fcode":"PPL","country":"RO","cc2":"","admin1":"21","admin2":"88350","admin3":"","admin4":"","population":297,"elevation":0,"gtopo30":738,"timezone":"Europe/Bucharest","moddate":"2013-04-21T00:00:00.000Z"},{"geonameid":681370,"name":"Ciurila","asciiname":"Ciurila","alternatenames":"","latitude":"46.2833300","longitude":"22.9000000","fclass":"P","fcode":"PPLX","country":"RO","cc2":"","admin1":"21","admin2":"88350","admin3":"","admin4":"","population":0,"elevation":0,"gtopo30":812,"timezone":"Europe/Bucharest","moddate":"2016-02-07T00:00:00.000Z"},{"geonameid":680207,"name":"Criș","asciiname":"Cris","alternatenames":"","latitude":"46.2505800","longitude":"22.9000600","fclass":"P","fcode":"PPL","country":"RO","cc2":"","admin1":"21","admin2":"88350","admin3":"","admin4":"","population":347,"elevation":0,"gtopo30":439,"timezone":"Europe/Bucharest","moddate":"2013-04-21T00:00:00.000Z"},{"geonameid":678892,"name":"Dragu-Brad","asciiname":"Dragu-Brad","alternatenames":"Dragu-Brad,Purcari","latitude":"46.3021700","longitude":"22.8655900","fclass":"P","fcode":"PPL","country":"RO","cc2":"RO","admin1":"21","admin2":"88350","admin3":"","admin4":"","population":13,"elevation":0,"gtopo30":766,"timezone":"Europe/Bucharest","moddate":"2013-04-21T00:00:00.000Z"},{"geonameid":676638,"name":"Groșuri","asciiname":"Grosuri","alternatenames":"","latitude":"46.2949600","longitude":"22.9381500","fclass":"P","fcode":"PPL","country":"RO","cc2":"","admin1":"21","admin2":"88350","admin3":"","admin4":"","population":237,"elevation":0,"gtopo30":715,"timezone":"Europe/Bucharest","moddate":"2013-04-21T00:00:00.000Z"},{"geonameid":676622,"name":"Gruilung","asciiname":"Gruilung","alternatenames":"","latitude":"46.3000000","longitude":"22.8833300","fclass":"P","fcode":"PPLX","country":"RO","cc2":"","admin1":"21","admin2":"88350","admin3":"","admin4":"","population":0,"elevation":0,"gtopo30":543,"timezone":"Europe/Bucharest","moddate":"2016-02-07T00:00:00.000Z"},{"geonameid":670568,"name":"Plai","asciiname":"Plai","alternatenames":"Plaiu,Plaiul","latitude":"46.2307200","longitude":"22.9125000","fclass":"P","fcode":"PPL","country":"RO","cc2":"RO","admin1":"21","admin2":"88350","admin3":"","admin4":"","population":230,"elevation":0,"gtopo30":382,"timezone":"Europe/Bucharest","moddate":"2013-04-21T00:00:00.000Z"},{"geonameid":668947,"name":"Reț","asciiname":"Ret","alternatenames":"La Rat,Ret,Reţ","latitude":"46.2684300","longitude":"22.8819500","fclass":"P","fcode":"PPL","country":"RO","cc2":"RO","admin1":"21","admin2":"88350","admin3":"","admin4":"","population":192,"elevation":0,"gtopo30":806,"timezone":"Europe/Bucharest","moddate":"2013-04-21T00:00:00.000Z"},{"geonameid":668396,"name":"Ruşeşti","asciiname":"Rusesti","alternatenames":"","latitude":"46.3000000","longitude":"22.8833300","fclass":"P","fcode":"PPLX","country":"RO","cc2":"","admin1":"21","admin2":"88350","admin3":"","admin4":"","population":0,"elevation":0,"gtopo30":543,"timezone":"Europe/Bucharest","moddate":"2016-02-07T00:00:00.000Z"},{"geonameid":668233,"name":"Sălătruc","asciiname":"Salatruc","alternatenames":"","latitude":"46.2384000","longitude":"22.8800100","fclass":"P","fcode":"PPL","country":"RO","cc2":"","admin1":"21","admin2":"88350","admin3":"","admin4":"","population":175,"elevation":0,"gtopo30":469,"timezone":"Europe/Bucharest","moddate":"2013-04-21T00:00:00.000Z"},{"geonameid":666725,"name":"Slinu","asciiname":"Slinu","alternatenames":"Gura Slinulin,Slinu","latitude":"46.2833300","longitude":"22.9166700","fclass":"P","fcode":"PPLX","country":"RO","cc2":"","admin1":"21","admin2":"88350","admin3":"","admin4":"","population":0,"elevation":0,"gtopo30":501,"timezone":"Europe/Bucharest","moddate":"2016-02-07T00:00:00.000Z"},{"geonameid":666112,"name":"Stângoi","asciiname":"Stangoi","alternatenames":"La Stangoi,La Stângoi,Stangoi,Stingoi,Stângoi,Stîngoi","latitude":"46.2666700","longitude":"22.9000000","fclass":"P","fcode":"PPLX","country":"RO","cc2":"RO","admin1":"21","admin2":"88350","admin3":"","admin4":"","population":0,"elevation":0,"gtopo30":559,"timezone":"Europe/Bucharest","moddate":"2020-03-08T00:00:00.000Z"},{"geonameid":664790,"name":"Tomuşeşti","asciiname":"Tomusesti","alternatenames":"","latitude":"46.2833300","longitude":"22.9000000","fclass":"P","fcode":"PPLX","country":"RO","cc2":"","admin1":"21","admin2":"88350","admin3":"","admin4":"","population":0,"elevation":0,"gtopo30":812,"timezone":"Europe/Bucharest","moddate":"2016-02-07T00:00:00.000Z"}],"admin3":[],"alternateNames":[]},"__N_SSG":true}