{"pageProps":{"locale":"ro","admin2":{"geonameid":672712,"name":"Comuna Mozăceni","country":"RO","admin1":"03","admin2":"17575","admin3":"","latitude":"44.5636600","longitude":"25.1749200"},"admin1":{"geonameid":686192,"name":"Argeş","admin1":"03"},"locations":[{"geonameid":685987,"name":"Babaroaga","asciiname":"Babaroaga","alternatenames":"","latitude":"44.5473500","longitude":"25.1931600","fclass":"P","fcode":"PPL","country":"RO","cc2":"","admin1":"03","admin2":"17575","admin3":"","admin4":"","population":890,"elevation":0,"gtopo30":176,"timezone":"Europe/Bucharest","moddate":"2013-04-21T00:00:00.000Z"},{"geonameid":678708,"name":"Dumbrăveni","asciiname":"Dumbraveni","alternatenames":"","latitude":"44.5500000","longitude":"25.1833300","fclass":"P","fcode":"PPL","country":"RO","cc2":"","admin1":"03","admin2":"17575","admin3":"","admin4":"","population":0,"elevation":0,"gtopo30":180,"timezone":"Europe/Bucharest","moddate":"2016-02-07T00:00:00.000Z"},{"geonameid":672714,"name":"Mozăceni","asciiname":"Mozaceni","alternatenames":"Mozaceni,Mozăceni","latitude":"44.5666700","longitude":"25.1666700","fclass":"P","fcode":"PPLA2","country":"RO","cc2":"","admin1":"03","admin2":"17575","admin3":"","admin4":"","population":2684,"elevation":0,"gtopo30":169,"timezone":"Europe/Bucharest","moddate":"2012-06-12T00:00:00.000Z"},{"geonameid":662202,"name":"Zidurile","asciiname":"Zidurile","alternatenames":"","latitude":"44.5784500","longitude":"25.1682800","fclass":"P","fcode":"PPL","country":"RO","cc2":"","admin1":"03","admin2":"17575","admin3":"","admin4":"","population":303,"elevation":0,"gtopo30":181,"timezone":"Europe/Bucharest","moddate":"2013-04-20T00:00:00.000Z"}],"admin3":[],"alternateNames":[]},"__N_SSG":true}