{"pageProps":{"locale":"ro","admin2":{"geonameid":675726,"name":"Oraş Iernut","country":"RO","admin1":"27","admin2":"117827","admin3":"","latitude":"46.4535100","longitude":"24.2412100"},"admin1":{"geonameid":672628,"name":"Mureş","admin1":"27"},"locations":[{"geonameid":682526,"name":"Cătunu Fermei de Stat","asciiname":"Catunu Fermei de Stat","alternatenames":"","latitude":"46.4500000","longitude":"24.2833300","fclass":"P","fcode":"PPLX","country":"RO","cc2":"","admin1":"27","admin2":"117827","admin3":"","admin4":"","population":0,"elevation":0,"gtopo30":278,"timezone":"Europe/Bucharest","moddate":"2016-02-07T00:00:00.000Z"},{"geonameid":681625,"name":"Cipău","asciiname":"Cipau","alternatenames":"Cipau,Cipaul,Cipău,Cipăul","latitude":"46.4487600","longitude":"24.2778600","fclass":"P","fcode":"PPL","country":"RO","cc2":"RO","admin1":"27","admin2":"117827","admin3":"","admin4":"","population":1015,"elevation":0,"gtopo30":281,"timezone":"Europe/Bucharest","moddate":"2013-04-21T00:00:00.000Z"},{"geonameid":679696,"name":"Deag","asciiname":"Deag","alternatenames":"","latitude":"46.3891800","longitude":"24.1922000","fclass":"P","fcode":"PPL","country":"RO","cc2":"","admin1":"27","admin2":"117827","admin3":"","admin4":"","population":496,"elevation":0,"gtopo30":319,"timezone":"Europe/Bucharest","moddate":"2013-04-21T00:00:00.000Z"},{"geonameid":675727,"name":"Iernut","asciiname":"Iernut","alternatenames":"Iernut","latitude":"46.4500000","longitude":"24.2500000","fclass":"P","fcode":"PPLA2","country":"RO","cc2":"","admin1":"27","admin2":"117827","admin3":"","admin4":"","population":9343,"elevation":0,"gtopo30":275,"timezone":"Europe/Bucharest","moddate":"2012-06-12T00:00:00.000Z"},{"geonameid":674934,"name":"Lechința","asciiname":"Lechinta","alternatenames":"Lechinta,Lechinta de Mures,Lechinţa,Lechinţa de Mures","latitude":"46.4740500","longitude":"24.2285700","fclass":"P","fcode":"PPL","country":"RO","cc2":"RO","admin1":"27","admin2":"117827","admin3":"","admin4":"","population":742,"elevation":0,"gtopo30":280,"timezone":"Europe/Bucharest","moddate":"2013-04-21T00:00:00.000Z"},{"geonameid":672112,"name":"Oarba de Mureș","asciiname":"Oarba de Mures","alternatenames":"Oarba,Oarba de Mures,Oarba de Mureş","latitude":"46.4637100","longitude":"24.2926600","fclass":"P","fcode":"PPL","country":"RO","cc2":"RO","admin1":"27","admin2":"117827","admin3":"","admin4":"","population":198,"elevation":0,"gtopo30":325,"timezone":"Europe/Bucharest","moddate":"2013-04-21T00:00:00.000Z"},{"geonameid":669819,"name":"Porumbac","asciiname":"Porumbac","alternatenames":"","latitude":"46.4811000","longitude":"24.2647200","fclass":"P","fcode":"PPL","country":"RO","cc2":"","admin1":"27","admin2":"117827","admin3":"","admin4":"","population":53,"elevation":0,"gtopo30":312,"timezone":"Europe/Bucharest","moddate":"2013-04-21T00:00:00.000Z"},{"geonameid":669406,"name":"Racameț","asciiname":"Racamet","alternatenames":"","latitude":"46.5130700","longitude":"24.2404400","fclass":"P","fcode":"PPL","country":"RO","cc2":"","admin1":"27","admin2":"117827","admin3":"","admin4":"","population":33,"elevation":0,"gtopo30":434,"timezone":"Europe/Bucharest","moddate":"2013-04-21T00:00:00.000Z"},{"geonameid":668170,"name":"Sălcud","asciiname":"Salcud","alternatenames":"","latitude":"46.4075500","longitude":"24.1714100","fclass":"P","fcode":"PPL","country":"RO","cc2":"","admin1":"27","admin2":"117827","admin3":"","admin4":"","population":892,"elevation":0,"gtopo30":340,"timezone":"Europe/Bucharest","moddate":"2013-04-21T00:00:00.000Z"},{"geonameid":667302,"name":"Sfântu Gheorghe","asciiname":"Sfantu Gheorghe","alternatenames":"","latitude":"46.4535500","longitude":"24.2659300","fclass":"P","fcode":"PPL","country":"RO","cc2":"","admin1":"27","admin2":"117827","admin3":"","admin4":"","population":336,"elevation":0,"gtopo30":287,"timezone":"Europe/Bucharest","moddate":"2013-04-21T00:00:00.000Z"}],"admin3":[],"alternateNames":[]},"__N_SSG":true}