{"pageProps":{"locale":"ro","admin2":{"geonameid":675166,"name":"Comuna Jucu","country":"RO","admin1":"13","admin2":"58259","admin3":"","latitude":"46.8495800","longitude":"23.8095300"},"admin1":{"geonameid":681291,"name":"Cluj","admin1":"13"},"locations":[{"geonameid":677745,"name":"Gădălin","asciiname":"Gadalin","alternatenames":"Gadalin,Gadalinu,Gădălin,Gădălinu,Kolozs","latitude":"46.8404300","longitude":"23.8483000","fclass":"P","fcode":"PPL","country":"RO","cc2":"RO","admin1":"13","admin2":"58259","admin3":"","admin4":"","population":766,"elevation":0,"gtopo30":302,"timezone":"Europe/Bucharest","moddate":"2013-04-21T00:00:00.000Z"},{"geonameid":675162,"name":"Juc-Herghelie","asciiname":"Juc-Herghelie","alternatenames":"","latitude":"46.8593500","longitude":"23.7610800","fclass":"P","fcode":"PPL","country":"RO","cc2":"","admin1":"13","admin2":"58259","admin3":"","admin4":"","population":416,"elevation":0,"gtopo30":291,"timezone":"Europe/Bucharest","moddate":"2015-11-05T00:00:00.000Z"},{"geonameid":675165,"name":"Jucu de Jos","asciiname":"Jucu de Jos","alternatenames":"Jucu de Jos,Jucul-de-Jos","latitude":"46.8666700","longitude":"23.8000000","fclass":"P","fcode":"PPL","country":"RO","cc2":"","admin1":"13","admin2":"58259","admin3":"","admin4":"","population":0,"elevation":0,"gtopo30":318,"timezone":"Europe/Bucharest","moddate":"2016-02-07T00:00:00.000Z"},{"geonameid":675164,"name":"Jucu de Mijloc","asciiname":"Jucu de Mijloc","alternatenames":"Jucu de Mijloc,Jucul-de-Mijloc","latitude":"46.8423600","longitude":"23.7738000","fclass":"P","fcode":"PPL","country":"RO","cc2":"RO","admin1":"13","admin2":"58259","admin3":"","admin4":"","population":697,"elevation":0,"gtopo30":290,"timezone":"Europe/Bucharest","moddate":"2013-04-21T00:00:00.000Z"},{"geonameid":675163,"name":"Jucu de Sus","asciiname":"Jucu de Sus","alternatenames":"Felsozcuk,Jucu de Sus,Jucul-de-Sus","latitude":"46.8500000","longitude":"23.7833300","fclass":"P","fcode":"PPL","country":"RO","cc2":"","admin1":"13","admin2":"58259","admin3":"","admin4":"","population":0,"elevation":0,"gtopo30":287,"timezone":"Europe/Bucharest","moddate":"2016-02-07T00:00:00.000Z"},{"geonameid":662703,"name":"Vișea","asciiname":"Visea","alternatenames":"Visa,Visea,Vişa,Vişea","latitude":"46.8564100","longitude":"23.8736100","fclass":"P","fcode":"PPL","country":"RO","cc2":"RO","admin1":"13","admin2":"58259","admin3":"","admin4":"","population":647,"elevation":0,"gtopo30":309,"timezone":"Europe/Bucharest","moddate":"2013-04-20T00:00:00.000Z"}],"admin3":[],"alternateNames":[]},"__N_SSG":true}