{"pageProps":{"locale":"ro","admin2":{"geonameid":679747,"name":"Comuna Dănicei","country":"RO","admin1":"39","admin2":"169404","admin3":"","latitude":"44.9118100","longitude":"24.4450300"},"admin1":{"geonameid":662892,"name":"Vâlcea","admin1":"39"},"locations":[{"geonameid":685914,"name":"Bădeni","asciiname":"Badeni","alternatenames":"","latitude":"44.9011300","longitude":"24.4276700","fclass":"P","fcode":"PPL","country":"RO","cc2":"","admin1":"39","admin2":"169404","admin3":"","admin4":"","population":256,"elevation":0,"gtopo30":449,"timezone":"Europe/Bucharest","moddate":"2013-04-21T00:00:00.000Z"},{"geonameid":682364,"name":"Ceretu","asciiname":"Ceretu","alternatenames":"Ceretu,Ceretul","latitude":"44.8866500","longitude":"24.4556600","fclass":"P","fcode":"PPL","country":"RO","cc2":"RO","admin1":"39","admin2":"169404","admin3":"","admin4":"","population":550,"elevation":0,"gtopo30":430,"timezone":"Europe/Bucharest","moddate":"2013-04-21T00:00:00.000Z"},{"geonameid":681589,"name":"Cireșul","asciiname":"Ciresul","alternatenames":"Ciresul,Cireşul,Surdeni,Surdenii","latitude":"44.8640300","longitude":"24.4374700","fclass":"P","fcode":"PPL","country":"RO","cc2":"RO","admin1":"39","admin2":"169404","admin3":"","admin4":"","population":224,"elevation":0,"gtopo30":336,"timezone":"Europe/Bucharest","moddate":"2013-04-21T00:00:00.000Z"},{"geonameid":679651,"name":"Dealu Dănicei","asciiname":"Dealu Danicei","alternatenames":"","latitude":"44.9000000","longitude":"24.4333300","fclass":"P","fcode":"PPLX","country":"RO","cc2":"","admin1":"39","admin2":"169404","admin3":"","admin4":"","population":2459,"elevation":0,"gtopo30":434,"timezone":"Europe/Bucharest","moddate":"2016-02-07T00:00:00.000Z"},{"geonameid":679632,"name":"Dealu Lăunele","asciiname":"Dealu Launele","alternatenames":"","latitude":"44.9201100","longitude":"24.4604300","fclass":"P","fcode":"PPL","country":"RO","cc2":"","admin1":"39","admin2":"169404","admin3":"","admin4":"","population":503,"elevation":0,"gtopo30":464,"timezone":"Europe/Bucharest","moddate":"2013-04-21T00:00:00.000Z"},{"geonameid":679584,"name":"Dealu Scheiului","asciiname":"Dealu Scheiului","alternatenames":"Dealu Scheiului,Dealul Scheiul","latitude":"44.9535300","longitude":"24.4585300","fclass":"P","fcode":"PPL","country":"RO","cc2":"RO","admin1":"39","admin2":"169404","admin3":"","admin4":"","population":203,"elevation":0,"gtopo30":487,"timezone":"Europe/Bucharest","moddate":"2013-04-21T00:00:00.000Z"},{"geonameid":679254,"name":"Dobrești","asciiname":"Dobresti","alternatenames":"","latitude":"44.9254000","longitude":"24.4394900","fclass":"P","fcode":"PPL","country":"RO","cc2":"","admin1":"39","admin2":"169404","admin3":"","admin4":"","population":239,"elevation":0,"gtopo30":347,"timezone":"Europe/Bucharest","moddate":"2013-04-21T00:00:00.000Z"},{"geonameid":678890,"name":"Drăgulești","asciiname":"Dragulesti","alternatenames":"","latitude":"44.9440900","longitude":"24.4423400","fclass":"P","fcode":"PPL","country":"RO","cc2":"","admin1":"39","admin2":"169404","admin3":"","admin4":"","population":179,"elevation":0,"gtopo30":480,"timezone":"Europe/Bucharest","moddate":"2013-04-21T00:00:00.000Z"},{"geonameid":677030,"name":"Glodu","asciiname":"Glodu","alternatenames":"Boldul,Glodu","latitude":"44.8969200","longitude":"24.4407500","fclass":"P","fcode":"PPL","country":"RO","cc2":"RO","admin1":"39","admin2":"169404","admin3":"","admin4":"","population":198,"elevation":0,"gtopo30":445,"timezone":"Europe/Bucharest","moddate":"2013-04-21T00:00:00.000Z"},{"geonameid":676545,"name":"Gura Crucilor","asciiname":"Gura Crucilor","alternatenames":"","latitude":"44.9100500","longitude":"24.4279000","fclass":"P","fcode":"PPL","country":"RO","cc2":"","admin1":"39","admin2":"169404","admin3":"","admin4":"","population":40,"elevation":0,"gtopo30":375,"timezone":"Europe/Bucharest","moddate":"2013-04-21T00:00:00.000Z"},{"geonameid":675124,"name":"Lăunele de Jos","asciiname":"Launele de Jos","alternatenames":"","latitude":"44.8807000","longitude":"24.4397700","fclass":"P","fcode":"PPL","country":"RO","cc2":"","admin1":"39","admin2":"169404","admin3":"","admin4":"","population":194,"elevation":0,"gtopo30":366,"timezone":"Europe/Bucharest","moddate":"2013-04-21T00:00:00.000Z"},{"geonameid":674755,"name":"Linia pe Vale","asciiname":"Linia pe Vale","alternatenames":"Danicei,Dănicei,Linia pe Vale","latitude":"44.9066400","longitude":"24.4140700","fclass":"P","fcode":"PPL","country":"RO","cc2":"RO","admin1":"39","admin2":"169404","admin3":"","admin4":"","population":86,"elevation":0,"gtopo30":331,"timezone":"Europe/Bucharest","moddate":"2013-04-21T00:00:00.000Z"},{"geonameid":671880,"name":"Olăreşti","asciiname":"Olaresti","alternatenames":"Olaresti,Olarestii,Olăreşti,Olăreştii","latitude":"44.9666700","longitude":"24.4666700","fclass":"P","fcode":"PPLX","country":"RO","cc2":"","admin1":"39","admin2":"169404","admin3":"","admin4":"","population":0,"elevation":0,"gtopo30":427,"timezone":"Europe/Bucharest","moddate":"2016-02-07T00:00:00.000Z"},{"geonameid":664369,"name":"Udrești","asciiname":"Udresti","alternatenames":"","latitude":"44.9266000","longitude":"24.4643700","fclass":"P","fcode":"PPL","country":"RO","cc2":"","admin1":"39","admin2":"169404","admin3":"","admin4":"","population":101,"elevation":0,"gtopo30":469,"timezone":"Europe/Bucharest","moddate":"2013-04-21T00:00:00.000Z"},{"geonameid":664039,"name":"Văcăreşti","asciiname":"Vacaresti","alternatenames":"","latitude":"44.9000000","longitude":"24.4000000","fclass":"P","fcode":"PPLX","country":"RO","cc2":"","admin1":"39","admin2":"169404","admin3":"","admin4":"","population":0,"elevation":0,"gtopo30":311,"timezone":"Europe/Bucharest","moddate":"2016-02-07T00:00:00.000Z"},{"geonameid":663435,"name":"Valea Scheiului","asciiname":"Valea Scheiului","alternatenames":"Scheiu,Scheiul,Valea Scheiul,Valea Scheiului","latitude":"44.9376100","longitude":"24.4769400","fclass":"P","fcode":"PPL","country":"RO","cc2":"RO","admin1":"39","admin2":"169404","admin3":"","admin4":"","population":108,"elevation":0,"gtopo30":479,"timezone":"Europe/Bucharest","moddate":"2013-04-20T00:00:00.000Z"}],"admin3":[],"alternateNames":[]},"__N_SSG":true}