{"pageProps":{"locale":"ro","admin2":{"geonameid":8334673,"name":"Comuna Şoimi","country":"RO","admin1":"05","admin2":"31422","admin3":"","latitude":"46.6706300","longitude":"22.1342700"},"admin1":{"geonameid":684878,"name":"Bihor","admin1":"05"},"locations":[{"geonameid":684721,"name":"Bârze","asciiname":"Barze","alternatenames":"Barze,Birze,Bârze,Bîrze","latitude":"46.6500000","longitude":"22.1666700","fclass":"P","fcode":"PPLX","country":"RO","cc2":"","admin1":"05","admin2":"31422","admin3":"","admin4":"","population":0,"elevation":0,"gtopo30":434,"timezone":"Europe/Bucharest","moddate":"2020-03-08T00:00:00.000Z"},{"geonameid":684136,"name":"Borz","asciiname":"Borz","alternatenames":"Borz","latitude":"46.6747000","longitude":"22.1885100","fclass":"P","fcode":"PPL","country":"RO","cc2":"","admin1":"05","admin2":"31422","admin3":"","admin4":"","population":307,"elevation":0,"gtopo30":152,"timezone":"Europe/Bucharest","moddate":"2013-04-21T00:00:00.000Z"},{"geonameid":681168,"name":"Codru","asciiname":"Codru","alternatenames":"Codru,Dumbravita de Codru,Dumbrăviţa de Codru,Havasdombro,Havasdombró","latitude":"46.6332000","longitude":"22.1451900","fclass":"P","fcode":"PPL","country":"RO","cc2":"","admin1":"05","admin2":"31422","admin3":"","admin4":"","population":313,"elevation":0,"gtopo30":369,"timezone":"Europe/Bucharest","moddate":"2013-04-21T00:00:00.000Z"},{"geonameid":678673,"name":"Dumbrăviţa de Codru","asciiname":"Dumbravita de Codru","alternatenames":"Dambovita-de-Codru,Dombrovicza,Dumbravicza,Dumbravita de Codru,Dumbrăviţa de Codru,Dâmboviţa-de-Codru,Havas-Dombravicza,Havasdombro,Havasdombró","latitude":"46.6500000","longitude":"22.1833300","fclass":"P","fcode":"PPL","country":"RO","cc2":"","admin1":"05","admin2":"31422","admin3":"","admin4":"","population":0,"elevation":0,"gtopo30":381,"timezone":"Europe/Bucharest","moddate":"2020-06-10T00:00:00.000Z"},{"geonameid":678221,"name":"Fânaţe","asciiname":"Fanate","alternatenames":"Fanate,Finate,Fânaţe,Fînaţe","latitude":"46.6500000","longitude":"22.1666700","fclass":"P","fcode":"PPLX","country":"RO","cc2":"","admin1":"05","admin2":"31422","admin3":"","admin4":"","population":0,"elevation":0,"gtopo30":434,"timezone":"Europe/Bucharest","moddate":"2020-03-08T00:00:00.000Z"},{"geonameid":676151,"name":"Hârtoape","asciiname":"Hartoape","alternatenames":"Hartoape,Hirtoape,Hârtoape,Hîrtoape","latitude":"46.6500000","longitude":"22.1666700","fclass":"P","fcode":"PPLX","country":"RO","cc2":"","admin1":"05","admin2":"31422","admin3":"","admin4":"","population":0,"elevation":0,"gtopo30":434,"timezone":"Europe/Bucharest","moddate":"2020-03-08T00:00:00.000Z"},{"geonameid":668826,"name":"Râturi","asciiname":"Raturi","alternatenames":"Raturi,Rituri,Râturi,Rîturi","latitude":"46.6500000","longitude":"22.1666700","fclass":"P","fcode":"PPLX","country":"RO","cc2":"","admin1":"05","admin2":"31422","admin3":"","admin4":"","population":0,"elevation":0,"gtopo30":434,"timezone":"Europe/Bucharest","moddate":"2020-03-08T00:00:00.000Z"},{"geonameid":666976,"name":"Sânnicolau de Beiuş","asciiname":"Sannicolau de Beius","alternatenames":"Sannicolau de Beius,Sannicolaul de Beius,Sinmiclaus,Sinnicolau de Beius,Sânnicolau de Beiuş,Sânnicolaul de Beius,Sînmiclăuş,Sînnicolau de Beiuş","latitude":"46.6833300","longitude":"22.1166700","fclass":"P","fcode":"PPL","country":"RO","cc2":"RO","admin1":"05","admin2":"31422","admin3":"","admin4":"","population":0,"elevation":0,"gtopo30":149,"timezone":"Europe/Bucharest","moddate":"2020-03-08T00:00:00.000Z"},{"geonameid":666528,"name":"Şoimi","asciiname":"Soimi","alternatenames":"Soimi,Şoimi","latitude":"46.6833300","longitude":"22.1166700","fclass":"P","fcode":"PPLA2","country":"RO","cc2":"","admin1":"05","admin2":"31422","admin3":"","admin4":"","population":2951,"elevation":0,"gtopo30":149,"timezone":"Europe/Bucharest","moddate":"2012-06-12T00:00:00.000Z"},{"geonameid":664121,"name":"Ursad","asciiname":"Ursad","alternatenames":"","latitude":"46.6816000","longitude":"22.0919200","fclass":"P","fcode":"PPL","country":"RO","cc2":"","admin1":"05","admin2":"31422","admin3":"","admin4":"","population":249,"elevation":0,"gtopo30":153,"timezone":"Europe/Bucharest","moddate":"2013-04-20T00:00:00.000Z"},{"geonameid":664085,"name":"Urviș de Beiuș","asciiname":"Urvis de Beius","alternatenames":"Urvis,Urvis de Beius,Urvis-Beliu,Urviş,Urviş de Beiuş,Urviş-Beliu","latitude":"46.6929600","longitude":"22.1586000","fclass":"P","fcode":"PPL","country":"RO","cc2":"RO","admin1":"05","admin2":"31422","admin3":"","admin4":"","population":927,"elevation":0,"gtopo30":198,"timezone":"Europe/Bucharest","moddate":"2013-04-20T00:00:00.000Z"},{"geonameid":662182,"name":"Zârne","asciiname":"Zarne","alternatenames":"Zarne,Zirne,Zârne,Zîrne","latitude":"46.6500000","longitude":"22.1666700","fclass":"P","fcode":"PPLX","country":"RO","cc2":"","admin1":"05","admin2":"31422","admin3":"","admin4":"","population":0,"elevation":0,"gtopo30":434,"timezone":"Europe/Bucharest","moddate":"2020-03-08T00:00:00.000Z"}],"admin3":[],"alternateNames":[]},"__N_SSG":true}