{"pageProps":{"locale":"ro","admin2":{"geonameid":676477,"name":"Comuna Gura Teghii","country":"RO","admin1":"11","admin2":"47079","admin3":"","latitude":"45.5070300","longitude":"26.4344100"},"admin1":{"geonameid":683121,"name":"Buzău","admin1":"11"},"locations":[{"geonameid":686197,"name":"Argăsileşti","asciiname":"Argasilesti","alternatenames":"Argasalesti,Argasilesti,Argăsileşti,Argăsâleşti","latitude":"45.5000000","longitude":"26.4166700","fclass":"P","fcode":"PPLX","country":"RO","cc2":"","admin1":"11","admin2":"47079","admin3":"","admin4":"","population":0,"elevation":0,"gtopo30":842,"timezone":"Europe/Bucharest","moddate":"2016-02-07T00:00:00.000Z"},{"geonameid":677754,"name":"Furtunești","asciiname":"Furtunesti","alternatenames":"Furtunesti,Furtunestii,Furtuneşti,Furtuneştii","latitude":"45.4594000","longitude":"26.3976000","fclass":"P","fcode":"PPL","country":"RO","cc2":"RO","admin1":"11","admin2":"47079","admin3":"","admin4":"","population":1109,"elevation":0,"gtopo30":487,"timezone":"Europe/Bucharest","moddate":"2013-04-21T00:00:00.000Z"},{"geonameid":676856,"name":"Gotescu","asciiname":"Gotescu","alternatenames":"","latitude":"45.4666700","longitude":"26.4000000","fclass":"P","fcode":"PPLX","country":"RO","cc2":"","admin1":"11","admin2":"47079","admin3":"","admin4":"","population":0,"elevation":0,"gtopo30":584,"timezone":"Europe/Bucharest","moddate":"2016-02-07T00:00:00.000Z"},{"geonameid":676501,"name":"Gura Păltinişului","asciiname":"Gura Paltinisului","alternatenames":"","latitude":"45.4500000","longitude":"26.3666700","fclass":"P","fcode":"PPLX","country":"RO","cc2":"","admin1":"11","admin2":"47079","admin3":"","admin4":"","population":0,"elevation":0,"gtopo30":561,"timezone":"Europe/Bucharest","moddate":"2016-02-07T00:00:00.000Z"},{"geonameid":676478,"name":"Gura Teghii","asciiname":"Gura Teghii","alternatenames":"Gura Teghii,Gura Teohii","latitude":"45.4833300","longitude":"26.4166700","fclass":"P","fcode":"PPLA2","country":"RO","cc2":"","admin1":"11","admin2":"47079","admin3":"","admin4":"","population":3835,"elevation":0,"gtopo30":507,"timezone":"Europe/Bucharest","moddate":"2012-06-12T00:00:00.000Z"},{"geonameid":675583,"name":"Între Bâsci","asciiname":"Intre Basci","alternatenames":"","latitude":"45.5000000","longitude":"26.4333300","fclass":"P","fcode":"PPLX","country":"RO","cc2":"","admin1":"11","admin2":"47079","admin3":"","admin4":"","population":0,"elevation":0,"gtopo30":538,"timezone":"Europe/Bucharest","moddate":"2016-02-07T00:00:00.000Z"},{"geonameid":675542,"name":"Ioneşti","asciiname":"Ionesti","alternatenames":"Ionesti,Ioneşti,Jonastii","latitude":"45.4833300","longitude":"26.4333300","fclass":"P","fcode":"PPLX","country":"RO","cc2":"","admin1":"11","admin2":"47079","admin3":"","admin4":"","population":0,"elevation":0,"gtopo30":648,"timezone":"Europe/Bucharest","moddate":"2020-06-10T00:00:00.000Z"},{"geonameid":674351,"name":"Lunca Vâscului","asciiname":"Lunca Vascului","alternatenames":"Lunca Vascului,Lunca Viscului,Lunca Vâscului,Lunca Vîscului","latitude":"45.4666700","longitude":"26.3666700","fclass":"P","fcode":"PPLX","country":"RO","cc2":"","admin1":"11","admin2":"47079","admin3":"","admin4":"","population":0,"elevation":0,"gtopo30":695,"timezone":"Europe/Bucharest","moddate":"2020-03-08T00:00:00.000Z"},{"geonameid":672597,"name":"Muşa-Mare","asciiname":"Musa-Mare","alternatenames":"","latitude":"45.4833300","longitude":"26.4166700","fclass":"P","fcode":"PPLX","country":"RO","cc2":"","admin1":"11","admin2":"47079","admin3":"","admin4":"","population":0,"elevation":0,"gtopo30":507,"timezone":"Europe/Bucharest","moddate":"2016-02-07T00:00:00.000Z"},{"geonameid":672325,"name":"Nemertea","asciiname":"Nemertea","alternatenames":"","latitude":"45.4832300","longitude":"26.4184200","fclass":"P","fcode":"PPL","country":"RO","cc2":"","admin1":"11","admin2":"47079","admin3":"","admin4":"","population":460,"elevation":0,"gtopo30":491,"timezone":"Europe/Bucharest","moddate":"2013-04-21T00:00:00.000Z"},{"geonameid":671434,"name":"Păltiniș","asciiname":"Paltinis","alternatenames":"Paltinis,Pultinisul,Păltiniş","latitude":"45.4630100","longitude":"26.3732700","fclass":"P","fcode":"PPL","country":"RO","cc2":"RO","admin1":"11","admin2":"47079","admin3":"","admin4":"","population":806,"elevation":0,"gtopo30":526,"timezone":"Europe/Bucharest","moddate":"2013-04-21T00:00:00.000Z"},{"geonameid":670975,"name":"Petriceni","asciiname":"Petriceni","alternatenames":"Petriceni,Pietriceni","latitude":"45.4666700","longitude":"26.4000000","fclass":"P","fcode":"PPLX","country":"RO","cc2":"","admin1":"11","admin2":"47079","admin3":"","admin4":"","population":0,"elevation":0,"gtopo30":584,"timezone":"Europe/Bucharest","moddate":"2016-02-07T00:00:00.000Z"},{"geonameid":670902,"name":"Piatra Corbului","asciiname":"Piatra Corbului","alternatenames":"Piatra Corbului,Pietrestii","latitude":"45.4500000","longitude":"26.3833300","fclass":"P","fcode":"PPLX","country":"RO","cc2":"","admin1":"11","admin2":"47079","admin3":"","admin4":"","population":0,"elevation":0,"gtopo30":505,"timezone":"Europe/Bucharest","moddate":"2016-02-07T00:00:00.000Z"},{"geonameid":670090,"name":"Poiana cu Rugi","asciiname":"Poiana cu Rugi","alternatenames":"","latitude":"45.5000000","longitude":"26.4333300","fclass":"P","fcode":"PPLX","country":"RO","cc2":"","admin1":"11","admin2":"47079","admin3":"","admin4":"","population":0,"elevation":0,"gtopo30":538,"timezone":"Europe/Bucharest","moddate":"2016-02-07T00:00:00.000Z"},{"geonameid":668666,"name":"Roşcoiu","asciiname":"Roscoiu","alternatenames":"Roscoiu,Roscoiul,Roşcoiu","latitude":"45.4666700","longitude":"26.4000000","fclass":"P","fcode":"PPLX","country":"RO","cc2":"","admin1":"11","admin2":"47079","admin3":"","admin4":"","population":0,"elevation":0,"gtopo30":584,"timezone":"Europe/Bucharest","moddate":"2020-06-10T00:00:00.000Z"},{"geonameid":667462,"name":"Secuiu","asciiname":"Secuiu","alternatenames":"","latitude":"45.6130200","longitude":"26.5048700","fclass":"P","fcode":"PPL","country":"RO","cc2":"","admin1":"11","admin2":"47079","admin3":"","admin4":"","population":0,"elevation":0,"gtopo30":778,"timezone":"Europe/Bucharest","moddate":"2016-02-07T00:00:00.000Z"},{"geonameid":665544,"name":"Tănăsoaia","asciiname":"Tanasoaia","alternatenames":"","latitude":"45.4833300","longitude":"26.4000000","fclass":"P","fcode":"PPLX","country":"RO","cc2":"","admin1":"11","admin2":"47079","admin3":"","admin4":"","population":0,"elevation":0,"gtopo30":805,"timezone":"Europe/Bucharest","moddate":"2016-02-07T00:00:00.000Z"},{"geonameid":665351,"name":"Tega","asciiname":"Tega","alternatenames":"","latitude":"45.4833300","longitude":"26.4166700","fclass":"P","fcode":"PPLX","country":"RO","cc2":"","admin1":"11","admin2":"47079","admin3":"","admin4":"","population":0,"elevation":0,"gtopo30":507,"timezone":"Europe/Bucharest","moddate":"2016-02-07T00:00:00.000Z"},{"geonameid":663999,"name":"Vadu Oii","asciiname":"Vadu Oii","alternatenames":"","latitude":"45.5341900","longitude":"26.4754400","fclass":"P","fcode":"PPL","country":"RO","cc2":"","admin1":"11","admin2":"47079","admin3":"","admin4":"","population":103,"elevation":0,"gtopo30":594,"timezone":"Europe/Bucharest","moddate":"2013-04-20T00:00:00.000Z"},{"geonameid":663166,"name":"Varlaam","asciiname":"Varlaam","alternatenames":"Varlaam,Varlamul,Varlămul","latitude":"45.5092500","longitude":"26.4446200","fclass":"P","fcode":"PPL","country":"RO","cc2":"RO","admin1":"11","admin2":"47079","admin3":"","admin4":"","population":828,"elevation":0,"gtopo30":558,"timezone":"Europe/Bucharest","moddate":"2013-04-20T00:00:00.000Z"}],"admin3":[],"alternateNames":[]},"__N_SSG":true}