{"pageProps":{"locale":"ro","admin2":{"geonameid":667444,"name":"Comuna Şeica Mare","country":"RO","admin1":"33","admin2":"145667","admin3":"","latitude":"45.9999800","longitude":"24.2390900"},"admin1":{"geonameid":667267,"name":"Sibiu","admin1":"33"},"locations":[{"geonameid":684554,"name":"Boarta","asciiname":"Boarta","alternatenames":"","latitude":"46.0094200","longitude":"24.1986100","fclass":"P","fcode":"PPL","country":"RO","cc2":"","admin1":"33","admin2":"145667","admin3":"","admin4":"","population":564,"elevation":0,"gtopo30":336,"timezone":"Europe/Bucharest","moddate":"2013-04-21T00:00:00.000Z"},{"geonameid":683364,"name":"Buia","asciiname":"Buia","alternatenames":"Bina,Buia","latitude":"45.9733800","longitude":"24.2761800","fclass":"P","fcode":"PPL","country":"RO","cc2":"RO","admin1":"33","admin2":"145667","admin3":"","admin4":"","population":664,"elevation":0,"gtopo30":369,"timezone":"Europe/Bucharest","moddate":"2013-04-21T00:00:00.000Z"},{"geonameid":682875,"name":"Călvasăr","asciiname":"Calvasar","alternatenames":"","latitude":"46.0166700","longitude":"24.1666700","fclass":"P","fcode":"PPL","country":"RO","cc2":"","admin1":"33","admin2":"145667","admin3":"","admin4":"","population":0,"elevation":0,"gtopo30":326,"timezone":"Europe/Bucharest","moddate":"2016-02-07T00:00:00.000Z"},{"geonameid":682874,"name":"Calvesăr-Pădure","asciiname":"Calvesar-Padure","alternatenames":"","latitude":"46.0000000","longitude":"24.2000000","fclass":"P","fcode":"PPL","country":"RO","cc2":"","admin1":"33","admin2":"145667","admin3":"","admin4":"","population":0,"elevation":0,"gtopo30":391,"timezone":"Europe/Bucharest","moddate":"2016-02-07T00:00:00.000Z"},{"geonameid":679635,"name":"Dealu Haşagului","asciiname":"Dealu Hasagului","alternatenames":"","latitude":"46.0166700","longitude":"24.1500000","fclass":"P","fcode":"PPL","country":"RO","cc2":"","admin1":"33","admin2":"145667","admin3":"","admin4":"","population":0,"elevation":0,"gtopo30":399,"timezone":"Europe/Bucharest","moddate":"2016-02-07T00:00:00.000Z"},{"geonameid":679581,"name":"Dealu Sibiului","asciiname":"Dealu Sibiului","alternatenames":"","latitude":"45.9666700","longitude":"24.2666700","fclass":"P","fcode":"PPL","country":"RO","cc2":"","admin1":"33","admin2":"145667","admin3":"","admin4":"","population":0,"elevation":0,"gtopo30":443,"timezone":"Europe/Bucharest","moddate":"2016-02-07T00:00:00.000Z"},{"geonameid":673422,"name":"Mighindoala","asciiname":"Mighindoala","alternatenames":"Mighindoala","latitude":"46.0003500","longitude":"24.2776600","fclass":"P","fcode":"PPL","country":"RO","cc2":"","admin1":"33","admin2":"145667","admin3":"","admin4":"","population":11,"elevation":0,"gtopo30":461,"timezone":"Europe/Bucharest","moddate":"2013-04-21T00:00:00.000Z"},{"geonameid":671023,"name":"Petiș","asciiname":"Petis","alternatenames":"Petis,Petisdorf,Petiş,Petişdorf","latitude":"46.0169600","longitude":"24.2852800","fclass":"P","fcode":"PPL","country":"RO","cc2":"RO","admin1":"33","admin2":"145667","admin3":"","admin4":"","population":90,"elevation":0,"gtopo30":439,"timezone":"Europe/Bucharest","moddate":"2013-04-21T00:00:00.000Z"},{"geonameid":671024,"name":"Petiş","asciiname":"Petis","alternatenames":"Malai-Petis,Mălai-Petiş,Petis,Petiş","latitude":"45.9666700","longitude":"24.2666700","fclass":"P","fcode":"PPL","country":"RO","cc2":"","admin1":"33","admin2":"145667","admin3":"","admin4":"","population":0,"elevation":0,"gtopo30":443,"timezone":"Europe/Bucharest","moddate":"2016-02-07T00:00:00.000Z"},{"geonameid":670260,"name":"Podu Steniei","asciiname":"Podu Steniei","alternatenames":"","latitude":"45.9666700","longitude":"24.2666700","fclass":"P","fcode":"PPL","country":"RO","cc2":"","admin1":"33","admin2":"145667","admin3":"","admin4":"","population":0,"elevation":0,"gtopo30":443,"timezone":"Europe/Bucharest","moddate":"2016-02-07T00:00:00.000Z"},{"geonameid":667445,"name":"Şeíca Mare","asciiname":"Seica Mare","alternatenames":"Seica Mare,Şeíca Mare","latitude":"46.0166700","longitude":"24.1500000","fclass":"P","fcode":"PPLA2","country":"RO","cc2":"","admin1":"33","admin2":"145667","admin3":"","admin4":"","population":4739,"elevation":0,"gtopo30":399,"timezone":"Europe/Bucharest","moddate":"2012-06-12T00:00:00.000Z"},{"geonameid":666165,"name":"Ștenea","asciiname":"Stenea","alternatenames":"","latitude":"45.9758200","longitude":"24.2394400","fclass":"P","fcode":"PPL","country":"RO","cc2":"","admin1":"33","admin2":"145667","admin3":"","admin4":"","population":226,"elevation":0,"gtopo30":384,"timezone":"Europe/Bucharest","moddate":"2013-04-21T00:00:00.000Z"},{"geonameid":664305,"name":"Ulmenii","asciiname":"Ulmenii","alternatenames":"Dealu Cioara,Ulmeni,Ulmenii","latitude":"45.9666700","longitude":"24.2666700","fclass":"P","fcode":"PPLX","country":"RO","cc2":"","admin1":"33","admin2":"145667","admin3":"","admin4":"","population":0,"elevation":0,"gtopo30":443,"timezone":"Europe/Bucharest","moddate":"2016-02-07T00:00:00.000Z"},{"geonameid":663761,"name":"Valea Furcii","asciiname":"Valea Furcii","alternatenames":"","latitude":"45.9666700","longitude":"24.2666700","fclass":"P","fcode":"PPL","country":"RO","cc2":"","admin1":"33","admin2":"145667","admin3":"","admin4":"","population":0,"elevation":0,"gtopo30":443,"timezone":"Europe/Bucharest","moddate":"2016-02-07T00:00:00.000Z"},{"geonameid":663655,"name":"Valea Lupului","asciiname":"Valea Lupului","alternatenames":"","latitude":"46.0166700","longitude":"24.1500000","fclass":"P","fcode":"PPL","country":"RO","cc2":"","admin1":"33","admin2":"145667","admin3":"","admin4":"","population":0,"elevation":0,"gtopo30":399,"timezone":"Europe/Bucharest","moddate":"2016-02-07T00:00:00.000Z"},{"geonameid":663581,"name":"Valea Mighindoalei","asciiname":"Valea Mighindoalei","alternatenames":"","latitude":"45.9666700","longitude":"24.2666700","fclass":"P","fcode":"PPL","country":"RO","cc2":"","admin1":"33","admin2":"145667","admin3":"","admin4":"","population":0,"elevation":0,"gtopo30":443,"timezone":"Europe/Bucharest","moddate":"2016-02-07T00:00:00.000Z"}],"admin3":[],"alternateNames":[]},"__N_SSG":true}