{"pageProps":{"locale":"en","admin2":{"geonameid":2653814,"name":"County of Ceredigion","country":"GB","admin1":"WLS","admin2":"X6","admin3":"","latitude":"52.2500000","longitude":"-4.0000000","localeAltName":"Ceredigion"},"admin1":{"geonameid":2634895,"name":"Wales","admin1":"WLS","localeAltName":"Wales"},"locations":[{"geonameid":2657851,"name":"Aber-Arth","asciiname":"Aber-Arth","alternatenames":"","latitude":"52.2500000","longitude":"-4.2333300","fclass":"P","fcode":"PPL","country":"GB","cc2":"","admin1":"WLS","admin2":"X6","admin3":"00NQ010","admin4":"","population":0,"elevation":0,"gtopo30":19,"timezone":"Europe/London","moddate":"2016-06-22T00:00:00.000Z"},{"geonameid":2657850,"name":"Aberaeron","asciiname":"Aberaeron","alternatenames":"Aberaeron,Aberajron,Aberaron,Aberayron,a bei la ni,Аберайрон,Аберарон,阿貝拉尼","latitude":"52.2424700","longitude":"-4.2587100","fclass":"P","fcode":"PPLA2","country":"GB","cc2":"","admin1":"WLS","admin2":"X6","admin3":"00NQ001","admin4":"","population":1422,"elevation":0,"gtopo30":7,"timezone":"Europe/London","moddate":"2017-06-12T00:00:00.000Z"},{"geonameid":8379197,"name":"Abermagwr","asciiname":"Abermagwr","alternatenames":"","latitude":"52.3450000","longitude":"-3.9600000","fclass":"P","fcode":"PPL","country":"GB","cc2":"","admin1":"WLS","admin2":"X6","admin3":"00NQ030","admin4":"","population":0,"elevation":0,"gtopo30":54,"timezone":"Europe/London","moddate":"2012-08-30T00:00:00.000Z"},{"geonameid":2657789,"name":"Aberporth","asciiname":"Aberporth","alternatenames":"","latitude":"52.1324800","longitude":"-4.5417300","fclass":"P","fcode":"PPL","country":"GB","cc2":"","admin1":"WLS","admin2":"X6","admin3":"00NQ002","admin4":"","population":1648,"elevation":0,"gtopo30":34,"timezone":"Europe/London","moddate":"2017-06-12T00:00:00.000Z"},{"geonameid":2657782,"name":"Aberystwyth","asciiname":"Aberystwyth","alternatenames":"Aberistuit,Aberistvit,Aberistvitas,Aberystwyth,Aburistuit,a bo li si te wei si,aberisutou~isu,abrystwyth,ebeoliseuteuwiseu,Аберистуит,Аберіствіт,Абъристуит,آبريستويث,آبریستویث,アベリストウィス,阿伯里斯特威斯,에버리스트위스","latitude":"52.4154800","longitude":"-4.0829200","fclass":"P","fcode":"PPLA3","country":"GB","cc2":"","admin1":"WLS","admin2":"X6","admin3":"00NQ003","admin4":"","population":18749,"elevation":0,"gtopo30":10,"timezone":"Europe/London","moddate":"2020-06-14T00:00:00.000Z"},{"geonameid":2657664,"name":"Adpar","asciiname":"Adpar","alternatenames":"","latitude":"52.0419300","longitude":"-4.4688600","fclass":"P","fcode":"PPL","country":"GB","cc2":"","admin1":"WLS","admin2":"X6","admin3":"00NQ018","admin4":"","population":0,"elevation":0,"gtopo30":28,"timezone":"Europe/London","moddate":"2016-06-22T00:00:00.000Z"},{"geonameid":2656398,"name":"Bangor Teifi","asciiname":"Bangor Teifi","alternatenames":"","latitude":"52.0390100","longitude":"-4.3620200","fclass":"P","fcode":"PPL","country":"GB","cc2":"","admin1":"WLS","admin2":"X6","admin3":"00NQ018","admin4":"","population":0,"elevation":0,"gtopo30":103,"timezone":"Europe/London","moddate":"2011-03-03T00:00:00.000Z"},{"geonameid":2655796,"name":"Bettws-Evan","asciiname":"Bettws-Evan","alternatenames":"Bettws Ffan,Bettws-Evan","latitude":"52.0833300","longitude":"-4.4833300","fclass":"P","fcode":"PPL","country":"GB","cc2":"GB","admin1":"WLS","admin2":"X6","admin3":"00NQ004","admin4":"","population":0,"elevation":0,"gtopo30":159,"timezone":"Europe/London","moddate":"2016-06-22T00:00:00.000Z"},{"geonameid":2655411,"name":"Blaenpenal","asciiname":"Blaenpenal","alternatenames":"","latitude":"52.2500000","longitude":"-4.0166700","fclass":"P","fcode":"PPL","country":"GB","cc2":"","admin1":"WLS","admin2":"X6","admin3":"00NQ024","admin4":"","population":0,"elevation":0,"gtopo30":213,"timezone":"Europe/London","moddate":"2016-06-22T00:00:00.000Z"},{"geonameid":2655410,"name":"Blaenporth","asciiname":"Blaenporth","alternatenames":"","latitude":"52.1100500","longitude":"-4.5337700","fclass":"P","fcode":"PPL","country":"GB","cc2":"","admin1":"WLS","admin2":"X6","admin3":"00NQ002","admin4":"","population":0,"elevation":0,"gtopo30":138,"timezone":"Europe/London","moddate":"2011-03-03T00:00:00.000Z"},{"geonameid":2655162,"name":"Borth","asciiname":"Borth","alternatenames":"Borth,Morfa Borth","latitude":"52.4888700","longitude":"-4.0503900","fclass":"P","fcode":"PPL","country":"GB","cc2":"","admin1":"WLS","admin2":"X6","admin3":"00NQ006","admin4":"","population":1269,"elevation":0,"gtopo30":4,"timezone":"Europe/London","moddate":"2017-06-12T00:00:00.000Z"},{"geonameid":2655047,"name":"Bow Street","asciiname":"Bow Street","alternatenames":"","latitude":"52.4421300","longitude":"-4.0278300","fclass":"P","fcode":"PPL","country":"GB","cc2":"","admin1":"WLS","admin2":"X6","admin3":"00NQ042","admin4":"","population":1572,"elevation":0,"gtopo30":29,"timezone":"Europe/London","moddate":"2017-06-12T00:00:00.000Z"},{"geonameid":2654577,"name":"Bronant","asciiname":"Bronant","alternatenames":"Bron-nant,Bronant","latitude":"52.2833300","longitude":"-3.9833300","fclass":"P","fcode":"PPL","country":"GB","cc2":"GB","admin1":"WLS","admin2":"X6","admin3":"00NQ036","admin4":"","population":0,"elevation":0,"gtopo30":202,"timezone":"Europe/London","moddate":"2016-06-22T00:00:00.000Z"},{"geonameid":2654574,"name":"Brongwyn","asciiname":"Brongwyn","alternatenames":"","latitude":"52.0645800","longitude":"-4.4999400","fclass":"P","fcode":"PPL","country":"GB","cc2":"","admin1":"WLS","admin2":"X6","admin3":"00NQ004","admin4":"","population":0,"elevation":0,"gtopo30":88,"timezone":"Europe/London","moddate":"2011-03-03T00:00:00.000Z"},{"geonameid":8063566,"name":"Brynhoffnant","asciiname":"Brynhoffnant","alternatenames":"","latitude":"52.1366500","longitude":"-4.4342800","fclass":"P","fcode":"PPL","country":"GB","cc2":"","admin1":"WLS","admin2":"X6","admin3":"00NQ040","admin4":"","population":0,"elevation":0,"gtopo30":205,"timezone":"Europe/London","moddate":"2011-12-01T00:00:00.000Z"},{"geonameid":2653854,"name":"Capel Bangor","asciiname":"Capel Bangor","alternatenames":"Capel Bangor","latitude":"52.4030800","longitude":"-3.9703700","fclass":"P","fcode":"PPL","country":"GB","cc2":"","admin1":"WLS","admin2":"X6","admin3":"00NQ037","admin4":"","population":256,"elevation":0,"gtopo30":40,"timezone":"Europe/London","moddate":"2017-06-12T00:00:00.000Z"},{"geonameid":6946763,"name":"Capel Seion","asciiname":"Capel Seion","alternatenames":"","latitude":"52.3947300","longitude":"-4.0105500","fclass":"P","fcode":"PPL","country":"GB","cc2":"","admin1":"WLS","admin2":"X6","admin3":"00NQ022","admin4":"","population":0,"elevation":150,"gtopo30":153,"timezone":"Europe/London","moddate":"2016-06-22T00:00:00.000Z"},{"geonameid":2653853,"name":"Capel-Bettws Lleucu","asciiname":"Capel-Bettws Lleucu","alternatenames":"Bettws Lleiki,Capel-Bettws Lleucu","latitude":"52.2000000","longitude":"-4.0333300","fclass":"P","fcode":"PPL","country":"GB","cc2":"GB","admin1":"WLS","admin2":"X6","admin3":"00NQ024","admin4":"","population":0,"elevation":0,"gtopo30":160,"timezone":"Europe/London","moddate":"2016-06-22T00:00:00.000Z"},{"geonameid":2653849,"name":"Capel-Cynon","asciiname":"Capel-Cynon","alternatenames":"","latitude":"52.1166700","longitude":"-4.3666700","fclass":"P","fcode":"PPL","country":"GB","cc2":"","admin1":"WLS","admin2":"X6","admin3":"00NQ046","admin4":"","population":0,"elevation":0,"gtopo30":223,"timezone":"Europe/London","moddate":"2016-06-22T00:00:00.000Z"},{"geonameid":2653818,"name":"Cardigan","asciiname":"Cardigan","alternatenames":"Aberteifi,Cardigan,Ceretica,Kardigan,kadigan,Кардиган,カーディガン","latitude":"52.0837300","longitude":"-4.6622800","fclass":"P","fcode":"PPLA3","country":"GB","cc2":"","admin1":"WLS","admin2":"X6","admin3":"00NQ007","admin4":"","population":5301,"elevation":0,"gtopo30":10,"timezone":"Europe/London","moddate":"2017-06-12T00:00:00.000Z"},{"geonameid":2653442,"name":"Cellan","asciiname":"Cellan","alternatenames":"","latitude":"52.1230900","longitude":"-4.0342600","fclass":"P","fcode":"PPL","country":"GB","cc2":"","admin1":"WLS","admin2":"X6","admin3":"00NQ021","admin4":"","population":0,"elevation":0,"gtopo30":137,"timezone":"Europe/London","moddate":"2011-03-03T00:00:00.000Z"},{"geonameid":2653433,"name":"Cenarth","asciiname":"Cenarth","alternatenames":"Cenarth","latitude":"52.0468800","longitude":"-4.5288500","fclass":"P","fcode":"PPL","country":"GB","cc2":"","admin1":"WLS","admin2":"X6","admin3":"00NQ004","admin4":"","population":0,"elevation":0,"gtopo30":16,"timezone":"Europe/London","moddate":"2011-03-03T00:00:00.000Z"},{"geonameid":2653004,"name":"Cilcennin","asciiname":"Cilcennin","alternatenames":"","latitude":"52.2193700","longitude":"-4.1672000","fclass":"P","fcode":"PPL","country":"GB","cc2":"","admin1":"WLS","admin2":"X6","admin3":"00NQ009","admin4":"","population":0,"elevation":0,"gtopo30":176,"timezone":"Europe/London","moddate":"2011-03-03T00:00:00.000Z"},{"geonameid":2653001,"name":"Ciliau-Aeron","asciiname":"Ciliau-Aeron","alternatenames":"","latitude":"52.2000000","longitude":"-4.2000000","fclass":"P","fcode":"PPL","country":"GB","cc2":"","admin1":"WLS","admin2":"X6","admin3":"00NQ009","admin4":"","population":0,"elevation":0,"gtopo30":158,"timezone":"Europe/London","moddate":"2016-06-22T00:00:00.000Z"},{"geonameid":2651995,"name":"Cribyn","asciiname":"Cribyn","alternatenames":"Cribyn","latitude":"52.1395800","longitude":"-4.1620100","fclass":"P","fcode":"PPL","country":"GB","cc2":"","admin1":"WLS","admin2":"X6","admin3":"00NQ023","admin4":"","population":0,"elevation":0,"gtopo30":181,"timezone":"Europe/London","moddate":"2011-03-03T00:00:00.000Z"},{"geonameid":11593163,"name":"Cross Inn","asciiname":"Cross Inn","alternatenames":"","latitude":"52.1894300","longitude":"-4.3565500","fclass":"P","fcode":"PPL","country":"GB","cc2":"","admin1":"WLS","admin2":"X6","admin3":"00NQ031","admin4":"","population":0,"elevation":0,"gtopo30":148,"timezone":"Europe/London","moddate":"2017-06-21T00:00:00.000Z"},{"geonameid":2651868,"name":"Cross Inn","asciiname":"Cross Inn","alternatenames":"Cross Inn","latitude":"52.2500000","longitude":"-4.1333300","fclass":"P","fcode":"PPL","country":"GB","cc2":"","admin1":"WLS","admin2":"X6","admin3":"00NQ010","admin4":"","population":0,"elevation":0,"gtopo30":190,"timezone":"Europe/London","moddate":"2019-02-21T00:00:00.000Z"},{"geonameid":2651650,"name":"Cwm-coy","asciiname":"Cwm-coy","alternatenames":"","latitude":"52.0500000","longitude":"-4.4833300","fclass":"P","fcode":"PPL","country":"GB","cc2":"","admin1":"WLS","admin2":"X6","admin3":"00NQ018","admin4":"","population":0,"elevation":0,"gtopo30":54,"timezone":"Europe/London","moddate":"2016-06-22T00:00:00.000Z"},{"geonameid":2651641,"name":"Cwrt-newydd","asciiname":"Cwrt-newydd","alternatenames":"","latitude":"52.1085600","longitude":"-4.2072400","fclass":"P","fcode":"PPL","country":"GB","cc2":"","admin1":"WLS","admin2":"X6","admin3":"00NQ034","admin4":"","population":0,"elevation":0,"gtopo30":158,"timezone":"Europe/London","moddate":"2011-03-03T00:00:00.000Z"},{"geonameid":2651298,"name":"Devils Bridge","asciiname":"Devils Bridge","alternatenames":"","latitude":"52.3749700","longitude":"-3.8562000","fclass":"P","fcode":"PPL","country":"GB","cc2":"","admin1":"WLS","admin2":"X6","admin3":"00NQ041","admin4":"","population":0,"elevation":0,"gtopo30":221,"timezone":"Europe/London","moddate":"2016-06-22T00:00:00.000Z"},{"geonameid":2651260,"name":"Dihewid","asciiname":"Dihewid","alternatenames":"Dihewid,Dihewyd","latitude":"52.1833300","longitude":"-4.2166700","fclass":"P","fcode":"PPL","country":"GB","cc2":"GB","admin1":"WLS","admin2":"X6","admin3":"00NQ023","admin4":"","population":0,"elevation":0,"gtopo30":226,"timezone":"Europe/London","moddate":"2016-06-22T00:00:00.000Z"},{"geonameid":2650593,"name":"Dyffryn-castell","asciiname":"Dyffryn-castell","alternatenames":"","latitude":"52.4166700","longitude":"-3.8000000","fclass":"P","fcode":"PPL","country":"GB","cc2":"","admin1":"WLS","admin2":"X6","admin3":"00NQ005","admin4":"","population":0,"elevation":0,"gtopo30":288,"timezone":"Europe/London","moddate":"2016-06-22T00:00:00.000Z"},{"geonameid":2650178,"name":"Eglwys-fach","asciiname":"Eglwys-fach","alternatenames":"Eglwys-fach,Scyborycoed","latitude":"52.5333300","longitude":"-3.9333300","fclass":"P","fcode":"PPL","country":"GB","cc2":"GB","admin1":"WLS","admin2":"X6","admin3":"00NQ049","admin4":"","population":0,"elevation":0,"gtopo30":153,"timezone":"Europe/London","moddate":"2016-06-22T00:00:00.000Z"},{"geonameid":2650124,"name":"Elerch","asciiname":"Elerch","alternatenames":"","latitude":"52.4600800","longitude":"-3.9392200","fclass":"P","fcode":"PPL","country":"GB","cc2":"","admin1":"WLS","admin2":"X6","admin3":"00NQ008","admin4":"","population":0,"elevation":0,"gtopo30":187,"timezone":"Europe/London","moddate":"2011-03-03T00:00:00.000Z"},{"geonameid":2634976,"name":"Ferwig","asciiname":"Ferwig","alternatenames":"Ferwig,Verwick,Verwig","latitude":"52.1136500","longitude":"-4.6554600","fclass":"P","fcode":"PPL","country":"GB","cc2":"","admin1":"WLS","admin2":"X6","admin3":"00NQ047","admin4":"","population":0,"elevation":0,"gtopo30":89,"timezone":"Europe/London","moddate":"2014-09-14T00:00:00.000Z"},{"geonameid":2648819,"name":"Gartheli","asciiname":"Gartheli","alternatenames":"Capel Gartheli,Gartheli","latitude":"52.1833300","longitude":"-4.0666700","fclass":"P","fcode":"PPL","country":"GB","cc2":"GB","admin1":"WLS","admin2":"X6","admin3":"00NQ038","admin4":"","population":0,"elevation":0,"gtopo30":132,"timezone":"Europe/London","moddate":"2016-06-22T00:00:00.000Z"},{"geonameid":2635582,"name":"Gwbert","asciiname":"Gwbert","alternatenames":"Gwbert,Gwbert-on-Sea,Gwbert-on-the-Sea,Towyn","latitude":"52.1166000","longitude":"-4.6859900","fclass":"P","fcode":"PPL","country":"GB","cc2":"","admin1":"WLS","admin2":"X6","admin3":"00NQ047","admin4":"","population":0,"elevation":0,"gtopo30":32,"timezone":"Europe/London","moddate":"2014-11-06T00:00:00.000Z"},{"geonameid":2647302,"name":"Hawen","asciiname":"Hawen","alternatenames":"","latitude":"52.0976100","longitude":"-4.4143800","fclass":"P","fcode":"PPL","country":"GB","cc2":"","admin1":"WLS","admin2":"X6","admin3":"00NQ046","admin4":"","population":0,"elevation":0,"gtopo30":120,"timezone":"Europe/London","moddate":"2011-03-03T00:00:00.000Z"},{"geonameid":2647110,"name":"Henfynyw Upper","asciiname":"Henfynyw Upper","alternatenames":"Henfynyw,Henfynyw Upper","latitude":"52.2242800","longitude":"-4.2716900","fclass":"P","fcode":"PPL","country":"GB","cc2":"GB","admin1":"WLS","admin2":"X6","admin3":"00NQ001","admin4":"","population":512,"elevation":0,"gtopo30":123,"timezone":"Europe/London","moddate":"2017-06-13T00:00:00.000Z"},{"geonameid":11593329,"name":"Henry E Robbins Jr","asciiname":"Henry E Robbins Jr","alternatenames":"","latitude":"52.4648700","longitude":"-4.0221500","fclass":"P","fcode":"PPL","country":"GB","cc2":"","admin1":"WLS","admin2":"X6","admin3":"00NQ012","admin4":"","population":0,"elevation":0,"gtopo30":50,"timezone":"Europe/London","moddate":"2017-06-22T00:00:00.000Z"},{"geonameid":2644981,"name":"Lampeter","asciiname":"Lampeter","alternatenames":"Lampeter,Lampitur,Llanbedr Pont Steffan,Λάμπετερ,Лампитър","latitude":"52.1128500","longitude":"-4.0803900","fclass":"P","fcode":"PPL","country":"GB","cc2":"","admin1":"WLS","admin2":"X6","admin3":"00NQ014","admin4":"","population":2970,"elevation":0,"gtopo30":123,"timezone":"Europe/London","moddate":"2017-06-12T00:00:00.000Z"},{"geonameid":2643971,"name":"Llan-non","asciiname":"Llan-non","alternatenames":"Llannon,Llanon","latitude":"52.2815000","longitude":"-4.1772100","fclass":"P","fcode":"PPL","country":"GB","cc2":"","admin1":"WLS","admin2":"X6","admin3":"00NQ033","admin4":"","population":598,"elevation":0,"gtopo30":24,"timezone":"Europe/London","moddate":"2017-06-12T00:00:00.000Z"},{"geonameid":2644195,"name":"Llanafan","asciiname":"Llanafan","alternatenames":"","latitude":"52.3328200","longitude":"-3.9298300","fclass":"P","fcode":"PPL","country":"GB","cc2":"","admin1":"WLS","admin2":"X6","admin3":"00NQ043","admin4":"","population":0,"elevation":0,"gtopo30":123,"timezone":"Europe/London","moddate":"2011-03-03T00:00:00.000Z"},{"geonameid":2644187,"name":"Llanarth","asciiname":"Llanarth","alternatenames":"","latitude":"52.1942400","longitude":"-4.3081100","fclass":"P","fcode":"PPLA3","country":"GB","cc2":"","admin1":"WLS","admin2":"X6","admin3":"00NQ015","admin4":"","population":503,"elevation":0,"gtopo30":113,"timezone":"Europe/London","moddate":"2017-06-12T00:00:00.000Z"},{"geonameid":2644182,"name":"Llanbadarn-fawr","asciiname":"Llanbadarn-fawr","alternatenames":"","latitude":"52.4000000","longitude":"-4.0666700","fclass":"P","fcode":"PPL","country":"GB","cc2":"","admin1":"WLS","admin2":"X6","admin3":"00NQ003","admin4":"","population":0,"elevation":0,"gtopo30":35,"timezone":"Europe/London","moddate":"2016-06-22T00:00:00.000Z"},{"geonameid":2644161,"name":"Llancynfelyn","asciiname":"Llancynfelyn","alternatenames":"Llancynfelin,Llancynfelyn","latitude":"52.5000000","longitude":"-4.0000000","fclass":"P","fcode":"PPL","country":"GB","cc2":"GB","admin1":"WLS","admin2":"X6","admin3":"00NQ012","admin4":"","population":0,"elevation":0,"gtopo30":4,"timezone":"Europe/London","moddate":"2016-06-22T00:00:00.000Z"},{"geonameid":2644157,"name":"Llanddeiniol","asciiname":"Llanddeiniol","alternatenames":"Llanddeiniol,Llanddeinol","latitude":"52.3279100","longitude":"-4.1117500","fclass":"P","fcode":"PPL","country":"GB","cc2":"","admin1":"WLS","admin2":"X6","admin3":"00NQ032","admin4":"","population":0,"elevation":0,"gtopo30":88,"timezone":"Europe/London","moddate":"2011-03-03T00:00:00.000Z"},{"geonameid":2644153,"name":"Llanddewi-Brefi","asciiname":"Llanddewi-Brefi","alternatenames":"Llanddewi-Brefi","latitude":"52.1666700","longitude":"-3.9500000","fclass":"P","fcode":"PPL","country":"GB","cc2":"","admin1":"WLS","admin2":"X6","admin3":"00NQ017","admin4":"","population":0,"elevation":0,"gtopo30":358,"timezone":"Europe/London","moddate":"2016-06-22T00:00:00.000Z"},{"geonameid":2644113,"name":"Llandygwydd","asciiname":"Llandygwydd","alternatenames":"Llandygwydd","latitude":"52.0634900","longitude":"-4.5677200","fclass":"P","fcode":"PPL","country":"GB","cc2":"","admin1":"WLS","admin2":"X6","admin3":"00NQ004","admin4":"","population":0,"elevation":0,"gtopo30":40,"timezone":"Europe/London","moddate":"2011-03-03T00:00:00.000Z"},{"geonameid":2644108,"name":"Llandyssiliogogo","asciiname":"Llandyssiliogogo","alternatenames":"Llandissiliogogo,Llandyssiliogogo","latitude":"52.1833300","longitude":"-4.4000000","fclass":"P","fcode":"PPL","country":"GB","cc2":"GB","admin1":"WLS","admin2":"X6","admin3":"00NQ019","admin4":"","population":0,"elevation":0,"gtopo30":89,"timezone":"Europe/London","moddate":"2016-06-22T00:00:00.000Z"},{"geonameid":2644107,"name":"Llandysul","asciiname":"Llandysul","alternatenames":"Landusil,Llandyssil,Llandyssul,Llandysul,Ландъсил","latitude":"52.0416600","longitude":"-4.3090900","fclass":"P","fcode":"PPL","country":"GB","cc2":"","admin1":"WLS","admin2":"X6","admin3":"00NQ020","admin4":"","population":1484,"elevation":0,"gtopo30":80,"timezone":"Europe/London","moddate":"2017-06-12T00:00:00.000Z"},{"geonameid":2644096,"name":"Llanerch-Aeron","asciiname":"Llanerch-Aeron","alternatenames":"","latitude":"52.2000000","longitude":"-4.2333300","fclass":"P","fcode":"PPL","country":"GB","cc2":"","admin1":"WLS","admin2":"X6","admin3":"00NQ009","admin4":"","population":0,"elevation":0,"gtopo30":103,"timezone":"Europe/London","moddate":"2016-06-22T00:00:00.000Z"},{"geonameid":2644083,"name":"Llanfair Clydogau","asciiname":"Llanfair Clydogau","alternatenames":"","latitude":"52.1423800","longitude":"-4.0108800","fclass":"P","fcode":"PPL","country":"GB","cc2":"","admin1":"WLS","admin2":"X6","admin3":"00NQ021","admin4":"","population":0,"elevation":0,"gtopo30":137,"timezone":"Europe/London","moddate":"2011-03-03T00:00:00.000Z"},{"geonameid":2644068,"name":"Llanfihangel-geneu’r-glyn","asciiname":"Llanfihangel-geneu'r-glyn","alternatenames":"Llanfihangel,Llanfihangel-geneu'r-glyn,Llanfihangel-geneu’r-glyn","latitude":"52.4666700","longitude":"-4.0166700","fclass":"P","fcode":"PPL","country":"GB","cc2":"","admin1":"WLS","admin2":"X6","admin3":"00NQ012","admin4":"","population":0,"elevation":0,"gtopo30":53,"timezone":"Europe/London","moddate":"2020-06-10T00:00:00.000Z"},{"geonameid":2644061,"name":"Llanfihangel-y-creuddyn","asciiname":"Llanfihangel-y-creuddyn","alternatenames":"Llanfihangel-y-Creiddyn,Llanfihangel-y-creuddyn,Lower Llanfihangel-y-Creuddyn","latitude":"52.3666700","longitude":"-3.9500000","fclass":"P","fcode":"PPL","country":"GB","cc2":"GB","admin1":"WLS","admin2":"X6","admin3":"00NQ043","admin4":"","population":0,"elevation":0,"gtopo30":132,"timezone":"Europe/London","moddate":"2016-06-22T00:00:00.000Z"},{"geonameid":2644057,"name":"Llanfihangel-Ystrad","asciiname":"Llanfihangel-Ystrad","alternatenames":"","latitude":"52.1833300","longitude":"-4.1666700","fclass":"P","fcode":"PPL","country":"GB","cc2":"","admin1":"WLS","admin2":"X6","admin3":"00NQ023","admin4":"","population":0,"elevation":0,"gtopo30":111,"timezone":"Europe/London","moddate":"2016-06-22T00:00:00.000Z"},{"geonameid":2644035,"name":"Llangeitho","asciiname":"Llangeitho","alternatenames":"Llangeitho","latitude":"52.2187000","longitude":"-4.0268200","fclass":"P","fcode":"PPL","country":"GB","cc2":"","admin1":"WLS","admin2":"X6","admin3":"00NQ024","admin4":"","population":0,"elevation":0,"gtopo30":99,"timezone":"Europe/London","moddate":"2011-03-03T00:00:00.000Z"},{"geonameid":9884565,"name":"Llangoedmor","asciiname":"Llangoedmor","alternatenames":"","latitude":"52.0815400","longitude":"-4.6302700","fclass":"P","fcode":"PPL","country":"GB","cc2":"","admin1":"WLS","admin2":"X6","admin3":"00NQ025","admin4":"","population":0,"elevation":0,"gtopo30":37,"timezone":"Europe/London","moddate":"2015-01-04T00:00:00.000Z"},{"geonameid":2644016,"name":"Llangranog","asciiname":"Llangranog","alternatenames":"Llangrannog,Llangranwg","latitude":"52.1596400","longitude":"-4.4707400","fclass":"P","fcode":"PPL","country":"GB","cc2":"","admin1":"WLS","admin2":"X6","admin3":"00NQ026","admin4":"","population":0,"elevation":0,"gtopo30":13,"timezone":"Europe/London","moddate":"2012-11-08T00:00:00.000Z"},{"geonameid":2644007,"name":"Llangwyryfon","asciiname":"Llangwyryfon","alternatenames":"Llangrwyfon,Llangwyryfon","latitude":"52.3158500","longitude":"-4.0564500","fclass":"P","fcode":"PPL","country":"GB","cc2":"","admin1":"WLS","admin2":"X6","admin3":"00NQ027","admin4":"","population":0,"elevation":0,"gtopo30":127,"timezone":"Europe/London","moddate":"2011-03-03T00:00:00.000Z"},{"geonameid":2644006,"name":"Llangybi","asciiname":"Llangybi","alternatenames":"","latitude":"52.1500000","longitude":"-4.0500000","fclass":"P","fcode":"PPLA3","country":"GB","cc2":"","admin1":"WLS","admin2":"X6","admin3":"00NQ028","admin4":"","population":0,"elevation":0,"gtopo30":134,"timezone":"Europe/London","moddate":"2011-07-31T00:00:00.000Z"},{"geonameid":2643999,"name":"Llangynllo","asciiname":"Llangynllo","alternatenames":"Llangunllo,Llangynllo","latitude":"52.0666700","longitude":"-4.4000000","fclass":"P","fcode":"PPL","country":"GB","cc2":"GB","admin1":"WLS","admin2":"X6","admin3":"00NQ046","admin4":"","population":0,"elevation":0,"gtopo30":186,"timezone":"Europe/London","moddate":"2016-06-22T00:00:00.000Z"},{"geonameid":2643988,"name":"Llanilar","asciiname":"Llanilar","alternatenames":"Llanilar","latitude":"52.3565700","longitude":"-4.0257400","fclass":"P","fcode":"PPL","country":"GB","cc2":"","admin1":"WLS","admin2":"X6","admin3":"00NQ030","admin4":"","population":1085,"elevation":0,"gtopo30":40,"timezone":"Europe/London","moddate":"2017-06-12T00:00:00.000Z"},{"geonameid":2643987,"name":"Llanina","asciiname":"Llanina","alternatenames":"","latitude":"52.2000000","longitude":"-4.3333300","fclass":"P","fcode":"PPL","country":"GB","cc2":"","admin1":"WLS","admin2":"X6","admin3":"00NQ031","admin4":"","population":0,"elevation":0,"gtopo30":115,"timezone":"Europe/London","moddate":"2016-06-22T00:00:00.000Z"},{"geonameid":2643979,"name":"Llanllwchaiarn","asciiname":"Llanllwchaiarn","alternatenames":"","latitude":"52.1833300","longitude":"-4.3666700","fclass":"P","fcode":"PPLA3","country":"GB","cc2":"","admin1":"WLS","admin2":"X6","admin3":"00NQ031","admin4":"","population":0,"elevation":0,"gtopo30":149,"timezone":"Europe/London","moddate":"2011-07-31T00:00:00.000Z"},{"geonameid":2643962,"name":"Llanrhystud","asciiname":"Llanrhystud","alternatenames":"Llanrhystud","latitude":"52.3058900","longitude":"-4.1447000","fclass":"P","fcode":"PPL","country":"GB","cc2":"","admin1":"WLS","admin2":"X6","admin3":"00NQ032","admin4":"","population":646,"elevation":0,"gtopo30":20,"timezone":"Europe/London","moddate":"2017-06-12T00:00:00.000Z","localeAltName":"Llanrhystud"},{"geonameid":2643952,"name":"Llansantffraid","asciiname":"Llansantffraid","alternatenames":"Llansaintffraid,Llansantffraid","latitude":"52.2833300","longitude":"-4.1833300","fclass":"P","fcode":"PPL","country":"GB","cc2":"GB","admin1":"WLS","admin2":"X6","admin3":"00NQ033","admin4":"","population":0,"elevation":0,"gtopo30":13,"timezone":"Europe/London","moddate":"2016-06-22T00:00:00.000Z"},{"geonameid":2643917,"name":"Llanwenog","asciiname":"Llanwenog","alternatenames":"","latitude":"52.0865900","longitude":"-4.1991500","fclass":"P","fcode":"PPL","country":"GB","cc2":"","admin1":"WLS","admin2":"X6","admin3":"00NQ034","admin4":"","population":0,"elevation":0,"gtopo30":158,"timezone":"Europe/London","moddate":"2011-03-03T00:00:00.000Z"},{"geonameid":2643912,"name":"Llanwnen","asciiname":"Llanwnen","alternatenames":"","latitude":"52.1000000","longitude":"-4.1500000","fclass":"P","fcode":"PPL","country":"GB","cc2":"","admin1":"WLS","admin2":"X6","admin3":"00NQ035","admin4":"","population":0,"elevation":0,"gtopo30":148,"timezone":"Europe/London","moddate":"2016-06-22T00:00:00.000Z"},{"geonameid":2643899,"name":"Llanychaiarn","asciiname":"Llanychaiarn","alternatenames":"","latitude":"52.3833300","longitude":"-4.0833300","fclass":"P","fcode":"PPL","country":"GB","cc2":"","admin1":"WLS","admin2":"X6","admin3":"00NQ022","admin4":"","population":0,"elevation":0,"gtopo30":67,"timezone":"Europe/London","moddate":"2016-06-22T00:00:00.000Z"},{"geonameid":2643889,"name":"Lledrod","asciiname":"Lledrod","alternatenames":"Llanfihangel Lledrod,Lledrod","latitude":"52.3000000","longitude":"-3.9833300","fclass":"P","fcode":"PPLA3","country":"GB","cc2":"GB","admin1":"WLS","admin2":"X6","admin3":"00NQ036","admin4":"","population":0,"elevation":0,"gtopo30":204,"timezone":"Europe/London","moddate":"2011-07-31T00:00:00.000Z"},{"geonameid":2643876,"name":"Llwyn-Dafydd","asciiname":"Llwyn-Dafydd","alternatenames":"","latitude":"52.1666700","longitude":"-4.4000000","fclass":"P","fcode":"PPL","country":"GB","cc2":"","admin1":"WLS","admin2":"X6","admin3":"00NQ019","admin4":"","population":0,"elevation":0,"gtopo30":140,"timezone":"Europe/London","moddate":"2016-06-22T00:00:00.000Z"},{"geonameid":2641932,"name":"Mydroilin","asciiname":"Mydroilin","alternatenames":"Mycheilin,Mydroilin","latitude":"52.1666700","longitude":"-4.2500000","fclass":"P","fcode":"PPL","country":"GB","cc2":"GB","admin1":"WLS","admin2":"X6","admin3":"00NQ015","admin4":"","population":0,"elevation":0,"gtopo30":188,"timezone":"Europe/London","moddate":"2016-06-22T00:00:00.000Z"},{"geonameid":2641900,"name":"Nantcwnlle","asciiname":"Nantcwnlle","alternatenames":"","latitude":"52.2065600","longitude":"-4.0844700","fclass":"P","fcode":"PPL","country":"GB","cc2":"","admin1":"WLS","admin2":"X6","admin3":"00NQ038","admin4":"","population":0,"elevation":0,"gtopo30":201,"timezone":"Europe/London","moddate":"2011-03-03T00:00:00.000Z"},{"geonameid":2641588,"name":"New Quay","asciiname":"New Quay","alternatenames":"New Quay,Y Cei Newydd","latitude":"52.2151500","longitude":"-4.3588700","fclass":"P","fcode":"PPLA3","country":"GB","cc2":"","admin1":"WLS","admin2":"X6","admin3":"00NQ039","admin4":"","population":694,"elevation":0,"gtopo30":21,"timezone":"Europe/London","moddate":"2017-06-12T00:00:00.000Z"},{"geonameid":9884562,"name":"New Town","asciiname":"New Town","alternatenames":"","latitude":"52.0875500","longitude":"-4.6559700","fclass":"P","fcode":"PPLX","country":"GB","cc2":"","admin1":"WLS","admin2":"X6","admin3":"00NQ007","admin4":"","population":0,"elevation":0,"gtopo30":23,"timezone":"Europe/London","moddate":"2015-01-04T00:00:00.000Z"},{"geonameid":2641676,"name":"Newcastle Emlyn","asciiname":"Newcastle Emlyn","alternatenames":"Castell Newydd Emlyn,Castellnewydd Emlyn,Newcastle Emlyn,Njukasul Emlin,Нюкасъл Емлин","latitude":"52.0405600","longitude":"-4.4667000","fclass":"P","fcode":"PPL","country":"GB","cc2":"","admin1":"WLS","admin2":"X6","admin3":"00NQ018","admin4":"","population":1883,"elevation":0,"gtopo30":31,"timezone":"Europe/London","moddate":"2017-06-12T00:00:00.000Z"},{"geonameid":9884563,"name":"North Park Estate","asciiname":"North Park Estate","alternatenames":"","latitude":"52.0913700","longitude":"-4.6479000","fclass":"P","fcode":"PPLX","country":"GB","cc2":"","admin1":"WLS","admin2":"X6","admin3":"00NQ007","admin4":"","population":0,"elevation":0,"gtopo30":41,"timezone":"Europe/London","moddate":"2015-01-04T00:00:00.000Z"},{"geonameid":2640492,"name":"Penbryn","asciiname":"Penbryn","alternatenames":"Penbryn","latitude":"52.1399600","longitude":"-4.4904200","fclass":"P","fcode":"PPL","country":"GB","cc2":"","admin1":"WLS","admin2":"X6","admin3":"00NQ040","admin4":"","population":0,"elevation":0,"gtopo30":53,"timezone":"Europe/London","moddate":"2011-03-03T00:00:00.000Z"},{"geonameid":2640442,"name":"Pennant","asciiname":"Pennant","alternatenames":"","latitude":"52.2500000","longitude":"-4.1833300","fclass":"P","fcode":"PPL","country":"GB","cc2":"","admin1":"WLS","admin2":"X6","admin3":"00NQ010","admin4":"","population":0,"elevation":0,"gtopo30":144,"timezone":"Europe/London","moddate":"2016-06-22T00:00:00.000Z"},{"geonameid":8714343,"name":"Penparc","asciiname":"Penparc","alternatenames":"","latitude":"52.1018400","longitude":"-4.6125400","fclass":"P","fcode":"PPL","country":"GB","cc2":"","admin1":"WLS","admin2":"X6","admin3":"00NQ047","admin4":"","population":470,"elevation":0,"gtopo30":129,"timezone":"Europe/London","moddate":"2017-06-12T00:00:00.000Z"},{"geonameid":6946746,"name":"Penparcau","asciiname":"Penparcau","alternatenames":"","latitude":"52.4033300","longitude":"-4.0741700","fclass":"P","fcode":"PPL","country":"GB","cc2":"","admin1":"WLS","admin2":"X6","admin3":"00NQ003","admin4":"","population":3088,"elevation":35,"gtopo30":23,"timezone":"Europe/London","moddate":"2011-03-03T00:00:00.000Z"},{"geonameid":2640397,"name":"Pentre-briwnant","asciiname":"Pentre-briwnant","alternatenames":"","latitude":"52.3500000","longitude":"-3.7833300","fclass":"P","fcode":"PPL","country":"GB","cc2":"","admin1":"WLS","admin2":"X6","admin3":"00NQ041","admin4":"","population":0,"elevation":0,"gtopo30":203,"timezone":"Europe/London","moddate":"2016-06-22T00:00:00.000Z"},{"geonameid":2640392,"name":"Penuwch","asciiname":"Penuwch","alternatenames":"Penuwch","latitude":"52.2432900","longitude":"-4.0563100","fclass":"P","fcode":"PPL","country":"GB","cc2":"","admin1":"WLS","admin2":"X6","admin3":"00NQ024","admin4":"","population":0,"elevation":0,"gtopo30":271,"timezone":"Europe/London","moddate":"2011-03-03T00:00:00.000Z"},{"geonameid":2640126,"name":"Pont Hirwaun","asciiname":"Pont Hirwaun","alternatenames":"","latitude":"52.0666700","longitude":"-4.5333300","fclass":"P","fcode":"PPL","country":"GB","cc2":"","admin1":"WLS","admin2":"X6","admin3":"00NQ004","admin4":"","population":0,"elevation":0,"gtopo30":84,"timezone":"Europe/London","moddate":"2016-06-22T00:00:00.000Z"},{"geonameid":2640117,"name":"Pont-rhyd-y-groes","asciiname":"Pont-rhyd-y-groes","alternatenames":"Pont-rhyd-y-groes","latitude":"52.3333300","longitude":"-3.8500000","fclass":"P","fcode":"PPL","country":"GB","cc2":"","admin1":"WLS","admin2":"X6","admin3":"00NQ048","admin4":"","population":0,"elevation":0,"gtopo30":216,"timezone":"Europe/London","moddate":"2016-06-22T00:00:00.000Z"},{"geonameid":2640112,"name":"Pont-Tyweli","asciiname":"Pont-Tyweli","alternatenames":"","latitude":"52.0500000","longitude":"-4.3166700","fclass":"P","fcode":"PPL","country":"GB","cc2":"","admin1":"WLS","admin2":"X6","admin3":"00NQ020","admin4":"","population":0,"elevation":0,"gtopo30":160,"timezone":"Europe/London","moddate":"2016-06-22T00:00:00.000Z"},{"geonameid":2640130,"name":"Ponterwyd","asciiname":"Ponterwyd","alternatenames":"Pont-erwyd,Ponterwyd","latitude":"52.4114000","longitude":"-3.8400200","fclass":"P","fcode":"PPL","country":"GB","cc2":"","admin1":"WLS","admin2":"X6","admin3":"00NQ005","admin4":"","population":0,"elevation":0,"gtopo30":232,"timezone":"Europe/London","moddate":"2021-02-15T00:00:00.000Z"},{"geonameid":2640119,"name":"Pontrhydfendigaid","asciiname":"Pontrhydfendigaid","alternatenames":"Pontrhydfendigaid,Pontrhyfendigaid","latitude":"52.2825800","longitude":"-3.8630000","fclass":"P","fcode":"PPL","country":"GB","cc2":"","admin1":"WLS","admin2":"X6","admin3":"00NQ050","admin4":"","population":712,"elevation":0,"gtopo30":177,"timezone":"Europe/London","moddate":"2017-06-12T00:00:00.000Z"},{"geonameid":9884561,"name":"Pontyclefton","asciiname":"Pontyclefton","alternatenames":"","latitude":"52.0830700","longitude":"-4.6569600","fclass":"P","fcode":"PPLX","country":"GB","cc2":"","admin1":"WLS","admin2":"X6","admin3":"00NQ007","admin4":"","population":0,"elevation":0,"gtopo30":10,"timezone":"Europe/London","moddate":"2015-01-04T00:00:00.000Z"},{"geonameid":2639930,"name":"Pren-gwyn","asciiname":"Pren-gwyn","alternatenames":"","latitude":"52.0735300","longitude":"-4.2995300","fclass":"P","fcode":"PPL","country":"GB","cc2":"","admin1":"WLS","admin2":"X6","admin3":"00NQ020","admin4":"","population":0,"elevation":0,"gtopo30":201,"timezone":"Europe/London","moddate":"2011-03-03T00:00:00.000Z"},{"geonameid":2639429,"name":"Rhostie","asciiname":"Rhostie","alternatenames":"","latitude":"52.3333300","longitude":"-4.0166700","fclass":"P","fcode":"PPL","country":"GB","cc2":"","admin1":"WLS","admin2":"X6","admin3":"00NQ030","admin4":"","population":0,"elevation":0,"gtopo30":151,"timezone":"Europe/London","moddate":"2016-06-22T00:00:00.000Z"},{"geonameid":2639415,"name":"Rhyd Lewis","asciiname":"Rhyd Lewis","alternatenames":"","latitude":"52.1000000","longitude":"-4.4000000","fclass":"P","fcode":"PPL","country":"GB","cc2":"","admin1":"WLS","admin2":"X6","admin3":"00NQ046","admin4":"","population":0,"elevation":0,"gtopo30":142,"timezone":"Europe/London","moddate":"2016-06-22T00:00:00.000Z"},{"geonameid":2639414,"name":"Rhyd Owen","asciiname":"Rhyd Owen","alternatenames":"","latitude":"52.0833300","longitude":"-4.2833300","fclass":"P","fcode":"PPL","country":"GB","cc2":"","admin1":"WLS","admin2":"X6","admin3":"00NQ020","admin4":"","population":0,"elevation":0,"gtopo30":190,"timezone":"Europe/London","moddate":"2016-06-22T00:00:00.000Z"},{"geonameid":2639412,"name":"Rhyd-y-felin","asciiname":"Rhyd-y-felin","alternatenames":"","latitude":"52.3833300","longitude":"-4.0666700","fclass":"P","fcode":"PPL","country":"GB","cc2":"","admin1":"WLS","admin2":"X6","admin3":"00NQ022","admin4":"","population":0,"elevation":0,"gtopo30":140,"timezone":"Europe/London","moddate":"2016-06-22T00:00:00.000Z"},{"geonameid":2638506,"name":"Sarnau","asciiname":"Sarnau","alternatenames":"","latitude":"52.1333300","longitude":"-4.4666700","fclass":"P","fcode":"PPL","country":"GB","cc2":"","admin1":"WLS","admin2":"X6","admin3":"00NQ040","admin4":"","population":0,"elevation":0,"gtopo30":181,"timezone":"Europe/London","moddate":"2016-06-22T00:00:00.000Z"},{"geonameid":2637842,"name":"Silian","asciiname":"Silian","alternatenames":"","latitude":"52.1407900","longitude":"-4.0917700","fclass":"P","fcode":"PPL","country":"GB","cc2":"","admin1":"WLS","admin2":"X6","admin3":"00NQ028","admin4":"","population":0,"elevation":0,"gtopo30":204,"timezone":"Europe/London","moddate":"2011-03-03T00:00:00.000Z"},{"geonameid":2636718,"name":"Strata Florida","asciiname":"Strata Florida","alternatenames":"Caron Uwch,Strata Florida,Ystrad-fflur","latitude":"52.2747500","longitude":"-3.8390700","fclass":"P","fcode":"PPL","country":"GB","cc2":"","admin1":"WLS","admin2":"X6","admin3":"00NQ050","admin4":"","population":0,"elevation":0,"gtopo30":193,"timezone":"Europe/London","moddate":"2011-03-03T00:00:00.000Z"},{"geonameid":2636347,"name":"Synod","asciiname":"Synod","alternatenames":"","latitude":"52.1647200","longitude":"-4.3353400","fclass":"P","fcode":"PPL","country":"GB","cc2":"","admin1":"WLS","admin2":"X6","admin3":"00NQ015","admin4":"","population":0,"elevation":0,"gtopo30":227,"timezone":"Europe/London","moddate":"2011-03-03T00:00:00.000Z"},{"geonameid":2636308,"name":"Tal-gareg","asciiname":"Tal-gareg","alternatenames":"Pont Talgareg,Tal-gareg","latitude":"52.1333300","longitude":"-4.3000000","fclass":"P","fcode":"PPL","country":"GB","cc2":"GB","admin1":"WLS","admin2":"X6","admin3":"00NQ019","admin4":"","population":0,"elevation":0,"gtopo30":205,"timezone":"Europe/London","moddate":"2016-06-22T00:00:00.000Z"},{"geonameid":2636291,"name":"Talsarn","asciiname":"Talsarn","alternatenames":"","latitude":"52.1833300","longitude":"-4.1333300","fclass":"P","fcode":"PPL","country":"GB","cc2":"","admin1":"WLS","admin2":"X6","admin3":"00NQ023","admin4":"","population":0,"elevation":0,"gtopo30":68,"timezone":"Europe/London","moddate":"2016-06-22T00:00:00.000Z"},{"geonameid":2636288,"name":"Talybont","asciiname":"Talybont","alternatenames":"","latitude":"52.4833300","longitude":"-3.9833300","fclass":"P","fcode":"PPL","country":"GB","cc2":"","admin1":"WLS","admin2":"X6","admin3":"00NQ008","admin4":"","population":0,"elevation":0,"gtopo30":51,"timezone":"Europe/London","moddate":"2016-06-22T00:00:00.000Z"},{"geonameid":2636122,"name":"Temple Bar","asciiname":"Temple Bar","alternatenames":"","latitude":"52.1666700","longitude":"-4.1500000","fclass":"P","fcode":"PPL","country":"GB","cc2":"","admin1":"WLS","admin2":"X6","admin3":"00NQ023","admin4":"","population":0,"elevation":0,"gtopo30":164,"timezone":"Europe/London","moddate":"2016-06-22T00:00:00.000Z"},{"geonameid":2635527,"name":"Tre-groes","asciiname":"Tre-groes","alternatenames":"","latitude":"52.0666700","longitude":"-4.3166700","fclass":"P","fcode":"PPL","country":"GB","cc2":"","admin1":"WLS","admin2":"X6","admin3":"00NQ020","admin4":"","population":0,"elevation":0,"gtopo30":102,"timezone":"Europe/London","moddate":"2016-06-22T00:00:00.000Z"},{"geonameid":2635483,"name":"Tre-Taliesin","asciiname":"Tre-Taliesin","alternatenames":"","latitude":"52.5039700","longitude":"-3.9790800","fclass":"P","fcode":"PPL","country":"GB","cc2":"","admin1":"WLS","admin2":"X6","admin3":"00NQ029","admin4":"","population":0,"elevation":0,"gtopo30":26,"timezone":"Europe/London","moddate":"2011-03-03T00:00:00.000Z"},{"geonameid":2635536,"name":"Trefilan","asciiname":"Trefilan","alternatenames":"","latitude":"52.1938400","longitude":"-4.1217700","fclass":"P","fcode":"PPL","country":"GB","cc2":"","admin1":"WLS","admin2":"X6","admin3":"00NQ038","admin4":"","population":0,"elevation":0,"gtopo30":99,"timezone":"Europe/London","moddate":"2011-03-03T00:00:00.000Z"},{"geonameid":2635531,"name":"Tregaron","asciiname":"Tregaron","alternatenames":"Caron-is-Clawdd,Tregaron,Трегарон","latitude":"52.2195000","longitude":"-3.9329500","fclass":"P","fcode":"PPL","country":"GB","cc2":"","admin1":"WLS","admin2":"X6","admin3":"00NQ045","admin4":"","population":1213,"elevation":0,"gtopo30":167,"timezone":"Europe/London","moddate":"2017-06-12T00:00:00.000Z"},{"geonameid":2635512,"name":"Tremain","asciiname":"Tremain","alternatenames":"","latitude":"52.1089100","longitude":"-4.5799900","fclass":"P","fcode":"PPL","country":"GB","cc2":"","admin1":"WLS","admin2":"X6","admin3":"00NQ047","admin4":"","population":0,"elevation":0,"gtopo30":114,"timezone":"Europe/London","moddate":"2011-03-03T00:00:00.000Z"},{"geonameid":2635453,"name":"Troedyraur","asciiname":"Troedyraur","alternatenames":"","latitude":"52.0813800","longitude":"-4.4423300","fclass":"P","fcode":"PPL","country":"GB","cc2":"","admin1":"WLS","admin2":"X6","admin3":"00NQ046","admin4":"","population":0,"elevation":0,"gtopo30":114,"timezone":"Europe/London","moddate":"2011-03-03T00:00:00.000Z"},{"geonameid":2635144,"name":"Upper Borth","asciiname":"Upper Borth","alternatenames":"Upper Borth","latitude":"52.4792700","longitude":"-4.0515000","fclass":"P","fcode":"PPL","country":"GB","cc2":"","admin1":"WLS","admin2":"X6","admin3":"00NQ006","admin4":"","population":0,"elevation":0,"gtopo30":17,"timezone":"Europe/London","moddate":"2011-03-03T00:00:00.000Z"},{"geonameid":9538971,"name":"Wallog","asciiname":"Wallog","alternatenames":"","latitude":"52.4513800","longitude":"-4.0754800","fclass":"P","fcode":"PPL","country":"GB","cc2":"","admin1":"WLS","admin2":"X6","admin3":"00NQ003","admin4":"","population":0,"elevation":0,"gtopo30":6,"timezone":"Europe/London","moddate":"2014-09-14T00:00:00.000Z"},{"geonameid":11072005,"name":"Ynyslas","asciiname":"Ynyslas","alternatenames":"","latitude":"52.5153300","longitude":"-4.0535300","fclass":"P","fcode":"PPL","country":"GB","cc2":"","admin1":"WLS","admin2":"X6","admin3":"00NQ006","admin4":"","population":0,"elevation":0,"gtopo30":5,"timezone":"Europe/London","moddate":"2016-02-19T00:00:00.000Z"},{"geonameid":2633340,"name":"Yspytty Cynfyn","asciiname":"Yspytty Cynfyn","alternatenames":"Yspytty Cyfyn,Yspytty Cynfyn","latitude":"52.4000000","longitude":"-3.8333300","fclass":"P","fcode":"PPL","country":"GB","cc2":"GB","admin1":"WLS","admin2":"X6","admin3":"00NQ005","admin4":"","population":0,"elevation":0,"gtopo30":212,"timezone":"Europe/London","moddate":"2016-06-22T00:00:00.000Z"},{"geonameid":2633338,"name":"Yspytty-Ystwyth","asciiname":"Yspytty-Ystwyth","alternatenames":"","latitude":"52.3333300","longitude":"-3.8666700","fclass":"P","fcode":"PPL","country":"GB","cc2":"","admin1":"WLS","admin2":"X6","admin3":"00NQ043","admin4":"","population":0,"elevation":0,"gtopo30":165,"timezone":"Europe/London","moddate":"2016-06-22T00:00:00.000Z"},{"geonameid":2633333,"name":"Ystrad-Meurig","asciiname":"Ystrad-Meurig","alternatenames":"Ystrad-Meurig,Ystradmeuric","latitude":"52.2833300","longitude":"-3.9166700","fclass":"P","fcode":"PPL","country":"GB","cc2":"GB","admin1":"WLS","admin2":"X6","admin3":"00NQ051","admin4":"","population":0,"elevation":0,"gtopo30":210,"timezone":"Europe/London","moddate":"2016-06-22T00:00:00.000Z"}],"admin3":[{"geonameid":7294032,"name":"Aberaeron","admin3":"00NQ001"},{"geonameid":7292320,"name":"Aberporth","admin3":"00NQ002"},{"geonameid":7292321,"name":"Aberystwyth","admin3":"00NQ003"},{"geonameid":7301111,"name":"Beulah","admin3":"00NQ004"},{"geonameid":7292322,"name":"Blaenrheidol","admin3":"00NQ005"},{"geonameid":7294033,"name":"Borth","admin3":"00NQ006"},{"geonameid":7296014,"name":"Cardigan","admin3":"00NQ007"},{"geonameid":7292323,"name":"Ceulanamaesmawr","admin3":"00NQ008"},{"geonameid":7301112,"name":"Ciliau Aeron","admin3":"00NQ009"},{"geonameid":7301113,"name":"Dyffryn Arth","admin3":"00NQ010"},{"geonameid":7291013,"name":"Faenor","admin3":"00NQ011"},{"geonameid":7297864,"name":"Geneu'r Glyn","admin3":"00NQ012"},{"geonameid":7291014,"name":"Henfynyw","admin3":"00NQ013"},{"geonameid":7291015,"name":"Lampeter","admin3":"00NQ014"},{"geonameid":7291016,"name":"Llanarth","admin3":"00NQ015"},{"geonameid":7294034,"name":"Llanbadarn Fawr","admin3":"00NQ016"},{"geonameid":7294035,"name":"Llanddewi Brefi","admin3":"00NQ017"},{"geonameid":7301114,"name":"Llandyfriog","admin3":"00NQ018"},{"geonameid":7291017,"name":"Llandysiliogogo","admin3":"00NQ019"},{"geonameid":7301115,"name":"Llandysul","admin3":"00NQ020"},{"geonameid":7291018,"name":"Llanfair Clydogau","admin3":"00NQ021"},{"geonameid":7292324,"name":"Llanfarian","admin3":"00NQ022"},{"geonameid":7291019,"name":"Llanfihangel Ystrad","admin3":"00NQ023"},{"geonameid":7294036,"name":"Llangeitho","admin3":"00NQ024"},{"geonameid":7294037,"name":"Llangoedmor","admin3":"00NQ025"},{"geonameid":7291020,"name":"Llangrannog","admin3":"00NQ026"},{"geonameid":7291021,"name":"Llangwyryfon","admin3":"00NQ027"},{"geonameid":7301116,"name":"Llangybi","admin3":"00NQ028"},{"geonameid":7292325,"name":"Llangynfelyn","admin3":"00NQ029"},{"geonameid":7292326,"name":"Llanilar","admin3":"00NQ030"},{"geonameid":7291022,"name":"Llanllwchaiarn","admin3":"00NQ031"},{"geonameid":7291023,"name":"Llanrhystyd","admin3":"00NQ032"},{"geonameid":7294038,"name":"Llansantffraed","admin3":"00NQ033"},{"geonameid":7294039,"name":"Llanwenog","admin3":"00NQ034"},{"geonameid":7292327,"name":"Llanwnnen","admin3":"00NQ035"},{"geonameid":7297131,"name":"Lledrod","admin3":"00NQ036"},{"geonameid":7292328,"name":"Melindwr","admin3":"00NQ037"},{"geonameid":7293938,"name":"Nantcwnlle","admin3":"00NQ038"},{"geonameid":7294005,"name":"New Quay","admin3":"00NQ039"},{"geonameid":7292329,"name":"Penbryn","admin3":"00NQ040"},{"geonameid":7292330,"name":"Pontarfynach","admin3":"00NQ041"},{"geonameid":7292331,"name":"Tirymynach","admin3":"00NQ042"},{"geonameid":7301117,"name":"Trawsgoed","admin3":"00NQ043"},{"geonameid":7292332,"name":"Trefeurig","admin3":"00NQ044"},{"geonameid":7292333,"name":"Tregaron","admin3":"00NQ045"},{"geonameid":7294040,"name":"Troedyraur","admin3":"00NQ046"},{"geonameid":7292334,"name":"Y Ferwig","admin3":"00NQ047"},{"geonameid":7297132,"name":"Ysbyty Ystwyth","admin3":"00NQ048"},{"geonameid":7294041,"name":"Ysgubor-y-Coed","admin3":"00NQ049"},{"geonameid":7294042,"name":"Ystrad Fflur","admin3":"00NQ050"},{"geonameid":7294043,"name":"Ystrad Meurig","admin3":"00NQ051"}],"alternateNames":[{"alternatenameId":1626654,"geonameid":2634895,"isoLanguage":"en","alternateName":"Wales","isPreferredName":true,"isShortName":true,"isColloquial":false,"isHistoric":false},{"alternatenameId":8666581,"geonameid":2643962,"isoLanguage":"en","alternateName":"Llanrhystud","isPreferredName":true,"isShortName":true,"isColloquial":false,"isHistoric":false},{"alternatenameId":3059132,"geonameid":2653814,"isoLanguage":"en","alternateName":"Ceredigion","isPreferredName":true,"isShortName":true,"isColloquial":false,"isHistoric":false}]},"__N_SSG":true}