{"pageProps":{"locale":"ro","admin2":{"geonameid":674843,"name":"Comuna Lespezi","country":"RO","admin1":"23","admin2":"97606","admin3":"","latitude":"47.3495700","longitude":"26.6880700"},"admin1":{"geonameid":675809,"name":"Iaşi","admin1":"23"},"locations":[{"geonameid":683829,"name":"Brăteni","asciiname":"Brateni","alternatenames":"","latitude":"47.3500000","longitude":"26.6833300","fclass":"P","fcode":"PPLX","country":"RO","cc2":"","admin1":"23","admin2":"97606","admin3":"","admin4":"","population":0,"elevation":0,"gtopo30":217,"timezone":"Europe/Bucharest","moddate":"2016-02-07T00:00:00.000Z"},{"geonameid":683485,"name":"Buda","asciiname":"Buda","alternatenames":"","latitude":"47.4031800","longitude":"26.6783500","fclass":"P","fcode":"PPL","country":"RO","cc2":"","admin1":"23","admin2":"97606","admin3":"","admin4":"","population":1130,"elevation":0,"gtopo30":287,"timezone":"Europe/Bucharest","moddate":"2013-04-21T00:00:00.000Z"},{"geonameid":683213,"name":"Bursuc-Deal","asciiname":"Bursuc-Deal","alternatenames":"","latitude":"47.3246000","longitude":"26.6761200","fclass":"P","fcode":"PPL","country":"RO","cc2":"","admin1":"23","admin2":"97606","admin3":"","admin4":"","population":821,"elevation":0,"gtopo30":250,"timezone":"Europe/Bucharest","moddate":"2013-04-21T00:00:00.000Z"},{"geonameid":683209,"name":"Bursuc-Vale","asciiname":"Bursuc-Vale","alternatenames":"","latitude":"47.3139900","longitude":"26.6995000","fclass":"P","fcode":"PPL","country":"RO","cc2":"","admin1":"23","admin2":"97606","admin3":"","admin4":"","population":180,"elevation":0,"gtopo30":214,"timezone":"Europe/Bucharest","moddate":"2013-04-21T00:00:00.000Z"},{"geonameid":679306,"name":"Diudiu","asciiname":"Diudiu","alternatenames":"","latitude":"47.3333300","longitude":"26.6833300","fclass":"P","fcode":"PPLX","country":"RO","cc2":"","admin1":"23","admin2":"97606","admin3":"","admin4":"","population":0,"elevation":0,"gtopo30":212,"timezone":"Europe/Bucharest","moddate":"2016-02-07T00:00:00.000Z"},{"geonameid":678735,"name":"Dumbrava","asciiname":"Dumbrava","alternatenames":"Dumbrava,Fotin Enescu","latitude":"47.3538400","longitude":"26.7157100","fclass":"P","fcode":"PPL","country":"RO","cc2":"RO","admin1":"23","admin2":"97606","admin3":"","admin4":"","population":717,"elevation":0,"gtopo30":227,"timezone":"Europe/Bucharest","moddate":"2013-04-21T00:00:00.000Z"},{"geonameid":676263,"name":"Heci","asciiname":"Heci","alternatenames":"Heci,Heciu","latitude":"47.3432500","longitude":"26.6622600","fclass":"P","fcode":"PPL","country":"RO","cc2":"RO","admin1":"23","admin2":"97606","admin3":"","admin4":"","population":2254,"elevation":0,"gtopo30":228,"timezone":"Europe/Bucharest","moddate":"2013-04-21T00:00:00.000Z"},{"geonameid":674844,"name":"Lespezi","asciiname":"Lespezi","alternatenames":"Lespezi","latitude":"47.3666700","longitude":"26.7000000","fclass":"P","fcode":"PPLA2","country":"RO","cc2":"","admin1":"23","admin2":"97606","admin3":"","admin4":"","population":6138,"elevation":0,"gtopo30":296,"timezone":"Europe/Bucharest","moddate":"2012-06-12T00:00:00.000Z"}],"admin3":[],"alternateNames":[]},"__N_SSG":true}