{"pageProps":{"locale":"ro","admin2":{"geonameid":664328,"name":"Comuna Ulieşti","country":"RO","admin1":"16","admin2":"68976","admin3":"","latitude":"44.6016000","longitude":"25.4077000"},"admin1":{"geonameid":679385,"name":"Dâmboviţa","admin1":"16"},"locations":[{"geonameid":680102,"name":"Croitori","asciiname":"Croitori","alternatenames":"Croitori,Croitorii,Petresti-Croitori,Petrestii Croitori,Petreşti-Croitori,Petreştii Croitori","latitude":"44.5751200","longitude":"25.4135600","fclass":"P","fcode":"PPL","country":"RO","cc2":"RO","admin1":"16","admin2":"68976","admin3":"","admin4":"","population":1022,"elevation":0,"gtopo30":157,"timezone":"Europe/Bucharest","moddate":"2013-04-21T00:00:00.000Z"},{"geonameid":679163,"name":"Dogari","asciiname":"Dogari","alternatenames":"","latitude":"44.6000000","longitude":"25.4166700","fclass":"P","fcode":"PPL","country":"RO","cc2":"","admin1":"16","admin2":"68976","admin3":"","admin4":"","population":0,"elevation":0,"gtopo30":156,"timezone":"Europe/Bucharest","moddate":"2016-02-07T00:00:00.000Z"},{"geonameid":677783,"name":"Funduri","asciiname":"Funduri","alternatenames":"Funduri,Fundurile","latitude":"44.6166700","longitude":"25.4000000","fclass":"P","fcode":"PPL","country":"RO","cc2":"","admin1":"16","admin2":"68976","admin3":"","admin4":"","population":0,"elevation":0,"gtopo30":162,"timezone":"Europe/Bucharest","moddate":"2016-02-07T00:00:00.000Z"},{"geonameid":676320,"name":"Hanu lui Pală","asciiname":"Hanu lui Pala","alternatenames":"Hanu lui Pala,Hanu lui Pală,Hanul-lui-Pala,Hanul-lui-Pală","latitude":"44.5487800","longitude":"25.3858400","fclass":"P","fcode":"PPL","country":"RO","cc2":"RO","admin1":"16","admin2":"68976","admin3":"","admin4":"","population":356,"elevation":0,"gtopo30":153,"timezone":"Europe/Bucharest","moddate":"2013-04-21T00:00:00.000Z"},{"geonameid":675151,"name":"Jugureni","asciiname":"Jugureni","alternatenames":"","latitude":"44.6232300","longitude":"25.4044900","fclass":"P","fcode":"PPL","country":"RO","cc2":"","admin1":"16","admin2":"68976","admin3":"","admin4":"","population":697,"elevation":0,"gtopo30":163,"timezone":"Europe/Bucharest","moddate":"2013-04-21T00:00:00.000Z"},{"geonameid":673283,"name":"Mânăstioara","asciiname":"Manastioara","alternatenames":"Manastioara,Minastioara,Minastirea,Mînăstioara,Mînăstirea,Mănăstioara","latitude":"44.6126900","longitude":"25.4252700","fclass":"P","fcode":"PPL","country":"RO","cc2":"RO","admin1":"16","admin2":"68976","admin3":"","admin4":"","population":739,"elevation":0,"gtopo30":161,"timezone":"Europe/Bucharest","moddate":"2013-04-21T00:00:00.000Z"},{"geonameid":671844,"name":"Olteni","asciiname":"Olteni","alternatenames":"","latitude":"44.6277900","longitude":"25.4096600","fclass":"P","fcode":"PPL","country":"RO","cc2":"","admin1":"16","admin2":"68976","admin3":"","admin4":"","population":198,"elevation":0,"gtopo30":165,"timezone":"Europe/Bucharest","moddate":"2013-04-21T00:00:00.000Z"},{"geonameid":669212,"name":"Ragu","asciiname":"Ragu","alternatenames":"Ragu,Ragul","latitude":"44.5978700","longitude":"25.4018300","fclass":"P","fcode":"PPL","country":"RO","cc2":"RO","admin1":"16","admin2":"68976","admin3":"","admin4":"","population":872,"elevation":0,"gtopo30":156,"timezone":"Europe/Bucharest","moddate":"2013-04-21T00:00:00.000Z"},{"geonameid":666254,"name":"Stavropolia","asciiname":"Stavropolia","alternatenames":"","latitude":"44.6384900","longitude":"25.3933000","fclass":"P","fcode":"PPL","country":"RO","cc2":"","admin1":"16","admin2":"68976","admin3":"","admin4":"","population":194,"elevation":0,"gtopo30":166,"timezone":"Europe/Bucharest","moddate":"2013-04-21T00:00:00.000Z"},{"geonameid":664329,"name":"Ulieşti","asciiname":"Uliesti","alternatenames":"Uliesti,Ulieşti","latitude":"44.5833300","longitude":"25.4166700","fclass":"P","fcode":"PPLA2","country":"RO","cc2":"","admin1":"16","admin2":"68976","admin3":"","admin4":"","population":4494,"elevation":0,"gtopo30":142,"timezone":"Europe/Bucharest","moddate":"2012-06-12T00:00:00.000Z"},{"geonameid":664327,"name":"Ulieşti-Dâmboviţa","asciiname":"Uliesti-Dambovita","alternatenames":"Uliesti-Dambovita,Uliesti-Dimbovita,Uliesti-Dâmbovita,Ulieşti-Dâmboviţa,Ulieşti-Dîmboviţa","latitude":"44.5833300","longitude":"25.4166700","fclass":"P","fcode":"PPLX","country":"RO","cc2":"RO","admin1":"16","admin2":"68976","admin3":"","admin4":"","population":0,"elevation":0,"gtopo30":142,"timezone":"Europe/Bucharest","moddate":"2020-03-08T00:00:00.000Z"},{"geonameid":664326,"name":"Ulieşti-Vlaşca","asciiname":"Uliesti-Vlasca","alternatenames":"Uliesti-Vlasca,Uliestii Vlasca,Ulieşti-Vlaşca,Ulieştii Vlaşca","latitude":"44.5833300","longitude":"25.4166700","fclass":"P","fcode":"PPLX","country":"RO","cc2":"","admin1":"16","admin2":"68976","admin3":"","admin4":"","population":0,"elevation":0,"gtopo30":142,"timezone":"Europe/Bucharest","moddate":"2016-02-07T00:00:00.000Z"},{"geonameid":662184,"name":"Zinca","asciiname":"Zinca","alternatenames":"","latitude":"44.6000000","longitude":"25.4000000","fclass":"P","fcode":"PPL","country":"RO","cc2":"","admin1":"16","admin2":"68976","admin3":"","admin4":"","population":0,"elevation":0,"gtopo30":155,"timezone":"Europe/Bucharest","moddate":"2016-02-07T00:00:00.000Z"}],"admin3":[],"alternateNames":[]},"__N_SSG":true}