{"pageProps":{"locale":"ro","admin2":{"geonameid":686271,"name":"Comuna Apold","country":"RO","admin1":"27","admin2":"115183","admin3":"","latitude":"46.1443100","longitude":"24.8360600"},"admin1":{"geonameid":672628,"name":"Mureş","admin1":"27"},"locations":[{"geonameid":686272,"name":"Apold","asciiname":"Apold","alternatenames":"Apold","latitude":"46.1166700","longitude":"24.8166700","fclass":"P","fcode":"PPLA2","country":"RO","cc2":"","admin1":"27","admin2":"115183","admin3":"","admin4":"","population":3086,"elevation":0,"gtopo30":518,"timezone":"Europe/Bucharest","moddate":"2012-06-12T00:00:00.000Z"},{"geonameid":679819,"name":"Daia","asciiname":"Daia","alternatenames":"Daia,Daia Saseasca,Daia Săsească","latitude":"46.1470800","longitude":"24.9027400","fclass":"P","fcode":"PPL","country":"RO","cc2":"RO","admin1":"27","admin2":"115183","admin3":"","admin4":"","population":574,"elevation":0,"gtopo30":505,"timezone":"Europe/Bucharest","moddate":"2013-04-21T00:00:00.000Z"},{"geonameid":678618,"name":"După Hulă","asciiname":"Dupa Hula","alternatenames":"","latitude":"46.1500000","longitude":"24.9000000","fclass":"P","fcode":"PPL","country":"RO","cc2":"","admin1":"27","admin2":"115183","admin3":"","admin4":"","population":0,"elevation":0,"gtopo30":510,"timezone":"Europe/Bucharest","moddate":"2016-02-07T00:00:00.000Z"},{"geonameid":668272,"name":"Șaeș","asciiname":"Saes","alternatenames":"Saes,Şaeş","latitude":"46.1563800","longitude":"24.7689400","fclass":"P","fcode":"PPL","country":"RO","cc2":"","admin1":"27","admin2":"115183","admin3":"","admin4":"","population":1112,"elevation":0,"gtopo30":398,"timezone":"Europe/Bucharest","moddate":"2013-04-21T00:00:00.000Z"},{"geonameid":663450,"name":"Valea Sapartocului","asciiname":"Valea Sapartocului","alternatenames":"","latitude":"46.1500000","longitude":"24.9000000","fclass":"P","fcode":"PPL","country":"RO","cc2":"","admin1":"27","admin2":"115183","admin3":"","admin4":"","population":0,"elevation":0,"gtopo30":510,"timezone":"Europe/Bucharest","moddate":"2016-02-07T00:00:00.000Z"},{"geonameid":662430,"name":"Vulcan","asciiname":"Vulcan","alternatenames":"Vilcindorf,Vulcan,Vîlcîndorf","latitude":"46.1484300","longitude":"24.8536900","fclass":"P","fcode":"PPL","country":"RO","cc2":"RO","admin1":"27","admin2":"115183","admin3":"","admin4":"","population":94,"elevation":0,"gtopo30":496,"timezone":"Europe/Bucharest","moddate":"2013-04-20T00:00:00.000Z"}],"admin3":[],"alternateNames":[]},"__N_SSG":true}