{"pageProps":{"locale":"ro","admin2":{"geonameid":669978,"name":"Comuna Pojejena","country":"RO","admin1":"12","admin2":"53513","admin3":"","latitude":"44.7843700","longitude":"21.5336500"},"admin1":{"geonameid":682714,"name":"Caraş-Severin","admin1":"12"},"locations":[{"geonameid":685126,"name":"Belobreșca","asciiname":"Belobresca","alternatenames":"Belobresca,Belobreska,Belobreşca,Belobreška","latitude":"44.7880300","longitude":"21.5136800","fclass":"P","fcode":"PPL","country":"RO","cc2":"RO","admin1":"12","admin2":"53513","admin3":"","admin4":"","population":712,"elevation":0,"gtopo30":97,"timezone":"Europe/Bucharest","moddate":"2013-04-21T00:00:00.000Z"},{"geonameid":679305,"name":"Divici","asciiname":"Divici","alternatenames":"Divic,Divici,Divić","latitude":"44.7827000","longitude":"21.4824000","fclass":"P","fcode":"PPL","country":"RO","cc2":"RO","admin1":"12","admin2":"53513","admin3":"","admin4":"","population":382,"elevation":0,"gtopo30":77,"timezone":"Europe/Bucharest","moddate":"2013-04-21T00:00:00.000Z"},{"geonameid":669980,"name":"Pojejena","asciiname":"Pojejena","alternatenames":"Pojejena,Pojejena de Jos,Rumunska Pozezena,Rumunska Požežena","latitude":"44.7741700","longitude":"21.5791700","fclass":"P","fcode":"PPLA2","country":"RO","cc2":"","admin1":"12","admin2":"53513","admin3":"","admin4":"","population":3187,"elevation":0,"gtopo30":83,"timezone":"Europe/Bucharest","moddate":"2012-06-12T00:00:00.000Z"},{"geonameid":669977,"name":"Pojejena de Sus","asciiname":"Pojejena de Sus","alternatenames":"Pojejena de Sus,Srpska Pozezena","latitude":"44.7733300","longitude":"21.5675000","fclass":"P","fcode":"PPL","country":"RO","cc2":"RO","admin1":"12","admin2":"53513","admin3":"","admin4":"","population":0,"elevation":0,"gtopo30":79,"timezone":"Europe/Bucharest","moddate":"2016-02-07T00:00:00.000Z"},{"geonameid":669263,"name":"Radimna","asciiname":"Radimna","alternatenames":"Radimna,Rodimna","latitude":"44.7950200","longitude":"21.5638000","fclass":"P","fcode":"PPL","country":"RO","cc2":"RO","admin1":"12","admin2":"53513","admin3":"","admin4":"","population":602,"elevation":0,"gtopo30":92,"timezone":"Europe/Bucharest","moddate":"2013-04-21T00:00:00.000Z"},{"geonameid":665702,"name":"Șușca","asciiname":"Susca","alternatenames":"Susca,Suska,Suška","latitude":"44.7844800","longitude":"21.5313300","fclass":"P","fcode":"PPL","country":"RO","cc2":"RO","admin1":"12","admin2":"53513","admin3":"","admin4":"","population":509,"elevation":0,"gtopo30":84,"timezone":"Europe/Bucharest","moddate":"2013-04-21T00:00:00.000Z"}],"admin3":[],"alternateNames":[]},"__N_SSG":true}