{"pageProps":{"locale":"ro","admin2":{"geonameid":662160,"name":"Oraş Zlatna","country":"RO","admin1":"01","admin2":"1936","admin3":"","latitude":"46.1375300","longitude":"23.2021500"},"admin1":{"geonameid":686581,"name":"Alba","admin1":"01"},"locations":[{"geonameid":684073,"name":"Botești","asciiname":"Botesti","alternatenames":"","latitude":"46.1809000","longitude":"23.1509000","fclass":"P","fcode":"PPL","country":"RO","cc2":"","admin1":"01","admin2":"1936","admin3":"","admin4":"","population":113,"elevation":0,"gtopo30":574,"timezone":"Europe/Bucharest","moddate":"2013-04-21T00:00:00.000Z"},{"geonameid":683450,"name":"Budeni","asciiname":"Budeni","alternatenames":"","latitude":"46.1893100","longitude":"23.1271100","fclass":"P","fcode":"PPL","country":"RO","cc2":"","admin1":"01","admin2":"1936","admin3":"","admin4":"","population":88,"elevation":0,"gtopo30":651,"timezone":"Europe/Bucharest","moddate":"2013-04-21T00:00:00.000Z"},{"geonameid":679587,"name":"Dealu Roatei","asciiname":"Dealu Roatei","alternatenames":"","latitude":"46.1230700","longitude":"23.1541900","fclass":"P","fcode":"PPL","country":"RO","cc2":"","admin1":"01","admin2":"1936","admin3":"","admin4":"","population":49,"elevation":0,"gtopo30":705,"timezone":"Europe/Bucharest","moddate":"2013-04-21T00:00:00.000Z"},{"geonameid":679209,"name":"Dobrot","asciiname":"Dobrot","alternatenames":"","latitude":"46.1739000","longitude":"23.1396600","fclass":"P","fcode":"PPL","country":"RO","cc2":"","admin1":"01","admin2":"1936","admin3":"","admin4":"","population":30,"elevation":0,"gtopo30":792,"timezone":"Europe/Bucharest","moddate":"2013-04-21T00:00:00.000Z"},{"geonameid":678750,"name":"Dumbrava","asciiname":"Dumbrava","alternatenames":"","latitude":"46.1390500","longitude":"23.1971200","fclass":"P","fcode":"PPL","country":"RO","cc2":"","admin1":"01","admin2":"1936","admin3":"","admin4":"","population":9,"elevation":0,"gtopo30":674,"timezone":"Europe/Bucharest","moddate":"2015-11-14T00:00:00.000Z"},{"geonameid":678343,"name":"Feneș","asciiname":"Fenes","alternatenames":"","latitude":"46.1043100","longitude":"23.2951100","fclass":"P","fcode":"PPL","country":"RO","cc2":"","admin1":"01","admin2":"1936","admin3":"","admin4":"","population":1163,"elevation":0,"gtopo30":373,"timezone":"Europe/Bucharest","moddate":"2013-04-21T00:00:00.000Z"},{"geonameid":677695,"name":"Galați","asciiname":"Galati","alternatenames":"","latitude":"46.0895400","longitude":"23.2929800","fclass":"P","fcode":"PPL","country":"RO","cc2":"","admin1":"01","admin2":"1936","admin3":"","admin4":"","population":465,"elevation":0,"gtopo30":371,"timezone":"Europe/Bucharest","moddate":"2013-04-21T00:00:00.000Z"},{"geonameid":675336,"name":"Izvoru Ampoiului","asciiname":"Izvoru Ampoiului","alternatenames":"Izvoru Ampoiului,Valea Dosului","latitude":"46.1469500","longitude":"23.1748400","fclass":"P","fcode":"PPL","country":"RO","cc2":"RO","admin1":"01","admin2":"1936","admin3":"","admin4":"","population":486,"elevation":0,"gtopo30":503,"timezone":"Europe/Bucharest","moddate":"2013-04-21T00:00:00.000Z"},{"geonameid":671785,"name":"Opreşti","asciiname":"Opresti","alternatenames":"","latitude":"46.1000000","longitude":"23.2166700","fclass":"P","fcode":"PPL","country":"RO","cc2":"","admin1":"01","admin2":"1936","admin3":"","admin4":"","population":0,"elevation":0,"gtopo30":617,"timezone":"Europe/Bucharest","moddate":"2016-02-07T00:00:00.000Z"},{"geonameid":670770,"name":"Pârău Gruiului","asciiname":"Parau Gruiului","alternatenames":"","latitude":"46.1301800","longitude":"23.1911900","fclass":"P","fcode":"PPL","country":"RO","cc2":"","admin1":"01","admin2":"1936","admin3":"","admin4":"","population":0,"elevation":0,"gtopo30":443,"timezone":"Europe/Bucharest","moddate":"2016-02-07T00:00:00.000Z"},{"geonameid":671258,"name":"Pătrângeni","asciiname":"Patrangeni","alternatenames":"Patrangeni,Patringeni,Pătrângeni,Pătrîngeni","latitude":"46.0897800","longitude":"23.2609700","fclass":"P","fcode":"PPL","country":"RO","cc2":"RO","admin1":"01","admin2":"1936","admin3":"","admin4":"","population":0,"elevation":0,"gtopo30":380,"timezone":"Europe/Bucharest","moddate":"2016-02-07T00:00:00.000Z"},{"geonameid":670753,"name":"Pirita","asciiname":"Pirita","alternatenames":"","latitude":"46.1363600","longitude":"23.1614800","fclass":"P","fcode":"PPL","country":"RO","cc2":"","admin1":"01","admin2":"1936","admin3":"","admin4":"","population":163,"elevation":0,"gtopo30":639,"timezone":"Europe/Bucharest","moddate":"2013-04-21T00:00:00.000Z"},{"geonameid":670288,"name":"Podu lui Paul","asciiname":"Podu lui Paul","alternatenames":"","latitude":"46.0997800","longitude":"23.2444100","fclass":"P","fcode":"PPL","country":"RO","cc2":"","admin1":"01","admin2":"1936","admin3":"","admin4":"","population":110,"elevation":0,"gtopo30":402,"timezone":"Europe/Bucharest","moddate":"2015-11-07T00:00:00.000Z"},{"geonameid":668479,"name":"Runc","asciiname":"Runc","alternatenames":"","latitude":"46.1922500","longitude":"23.2212500","fclass":"P","fcode":"PPL","country":"RO","cc2":"","admin1":"01","admin2":"1936","admin3":"","admin4":"","population":52,"elevation":0,"gtopo30":802,"timezone":"Europe/Bucharest","moddate":"2013-04-21T00:00:00.000Z"},{"geonameid":668390,"name":"Ruși","asciiname":"Rusi","alternatenames":"","latitude":"46.2126000","longitude":"23.1096200","fclass":"P","fcode":"PPL","country":"RO","cc2":"","admin1":"01","admin2":"1936","admin3":"","admin4":"","population":66,"elevation":0,"gtopo30":934,"timezone":"Europe/Bucharest","moddate":"2013-04-21T00:00:00.000Z"},{"geonameid":665694,"name":"Suseni","asciiname":"Suseni","alternatenames":"","latitude":"46.0944700","longitude":"23.2533100","fclass":"P","fcode":"PPL","country":"RO","cc2":"","admin1":"01","admin2":"1936","admin3":"","admin4":"","population":168,"elevation":0,"gtopo30":385,"timezone":"Europe/Bucharest","moddate":"2013-04-21T00:00:00.000Z"},{"geonameid":664606,"name":"Trâmpoiele","asciiname":"Trampoiele","alternatenames":"Trampoaiele,Trampoele,Trimpaiele,Trâmpoele,Trîmpaiele","latitude":"46.1500000","longitude":"23.1500000","fclass":"P","fcode":"PPL","country":"RO","cc2":"","admin1":"01","admin2":"1936","admin3":"","admin4":"","population":392,"elevation":0,"gtopo30":628,"timezone":"Europe/Bucharest","moddate":"2015-11-07T00:00:00.000Z"},{"geonameid":663868,"name":"Valea Bulzului","asciiname":"Valea Bulzului","alternatenames":"","latitude":"46.0666700","longitude":"23.2833300","fclass":"P","fcode":"PPLX","country":"RO","cc2":"","admin1":"01","admin2":"1936","admin3":"","admin4":"","population":0,"elevation":0,"gtopo30":469,"timezone":"Europe/Bucharest","moddate":"2016-02-07T00:00:00.000Z"},{"geonameid":663687,"name":"Valea lui Paul","asciiname":"Valea lui Paul","alternatenames":"","latitude":"46.1166700","longitude":"23.2166700","fclass":"P","fcode":"PPL","country":"RO","cc2":"","admin1":"01","admin2":"1936","admin3":"","admin4":"","population":0,"elevation":0,"gtopo30":487,"timezone":"Europe/Bucharest","moddate":"2016-02-07T00:00:00.000Z"},{"geonameid":663585,"name":"Valea Mică","asciiname":"Valea Mica","alternatenames":"","latitude":"46.0788700","longitude":"23.2784100","fclass":"P","fcode":"PPL","country":"RO","cc2":"","admin1":"01","admin2":"1936","admin3":"","admin4":"","population":517,"elevation":0,"gtopo30":399,"timezone":"Europe/Bucharest","moddate":"2013-04-20T00:00:00.000Z"},{"geonameid":662855,"name":"Vâltori","asciiname":"Valtori","alternatenames":"Viltori,Vultori,Vîltori","latitude":"46.1447200","longitude":"23.2159700","fclass":"P","fcode":"PPL","country":"RO","cc2":"RO","admin1":"01","admin2":"1936","admin3":"","admin4":"","population":261,"elevation":0,"gtopo30":518,"timezone":"Europe/Bucharest","moddate":"2013-04-20T00:00:00.000Z"},{"geonameid":662161,"name":"Zlatna","asciiname":"Zlatna","alternatenames":"Zlatna","latitude":"46.1063300","longitude":"23.2316200","fclass":"P","fcode":"PPLA2","country":"RO","cc2":"","admin1":"01","admin2":"1936","admin3":"","admin4":"","population":8393,"elevation":0,"gtopo30":407,"timezone":"Europe/Bucharest","moddate":"2012-06-12T00:00:00.000Z"}],"admin3":[],"alternateNames":[]},"__N_SSG":true}