{"pageProps":{"locale":"ro","admin2":{"geonameid":662392,"name":"Comuna Vultureşti","country":"RO","admin1":"03","admin2":"20055","admin3":"","latitude":"45.0599900","longitude":"25.0737000"},"admin1":{"geonameid":686192,"name":"Argeş","admin1":"03"},"locations":[{"geonameid":686520,"name":"Albuleşti","asciiname":"Albulesti","alternatenames":"Albule,Albulesti,Albuleşti","latitude":"45.0500000","longitude":"25.0666700","fclass":"P","fcode":"PPLX","country":"RO","cc2":"","admin1":"03","admin2":"20055","admin3":"","admin4":"","population":0,"elevation":0,"gtopo30":455,"timezone":"Europe/Bucharest","moddate":"2020-06-10T00:00:00.000Z"},{"geonameid":684717,"name":"Bârzești","asciiname":"Barzesti","alternatenames":"Birzesti,Bîrzeşti,Rarzesi","latitude":"45.0500000","longitude":"25.0833300","fclass":"P","fcode":"PPL","country":"RO","cc2":"","admin1":"03","admin2":"20055","admin3":"","admin4":"","population":587,"elevation":0,"gtopo30":423,"timezone":"Europe/Bucharest","moddate":"2015-11-12T00:00:00.000Z"},{"geonameid":685269,"name":"Bătieşti","asciiname":"Batiesti","alternatenames":"Batiesti,Bratiesti,Brătieşti,Bătieşti","latitude":"45.0833300","longitude":"25.0833300","fclass":"P","fcode":"PPLX","country":"RO","cc2":"","admin1":"03","admin2":"20055","admin3":"","admin4":"","population":0,"elevation":0,"gtopo30":546,"timezone":"Europe/Bucharest","moddate":"2016-02-07T00:00:00.000Z"},{"geonameid":675931,"name":"Huluba","asciiname":"Huluba","alternatenames":"","latitude":"45.0678700","longitude":"25.0585200","fclass":"P","fcode":"PPL","country":"RO","cc2":"","admin1":"03","admin2":"20055","admin3":"","admin4":"","population":257,"elevation":0,"gtopo30":472,"timezone":"Europe/Bucharest","moddate":"2013-04-21T00:00:00.000Z"},{"geonameid":662396,"name":"Vulturești","asciiname":"Vulturesti","alternatenames":"","latitude":"45.0661800","longitude":"25.0834700","fclass":"P","fcode":"PPLA2","country":"RO","cc2":"","admin1":"03","admin2":"20055","admin3":"","admin4":"","population":1984,"elevation":0,"gtopo30":420,"timezone":"Europe/Bucharest","moddate":"2013-04-20T00:00:00.000Z"},{"geonameid":662390,"name":"Vultureştii de Jos","asciiname":"Vulturestii de Jos","alternatenames":"Vulturesti-de-Jos,Vulturestii de Jos,Vultureşti-de-Jos,Vultureştii de Jos","latitude":"45.0833300","longitude":"25.0833300","fclass":"P","fcode":"PPLX","country":"RO","cc2":"","admin1":"03","admin2":"20055","admin3":"","admin4":"","population":0,"elevation":0,"gtopo30":546,"timezone":"Europe/Bucharest","moddate":"2016-02-07T00:00:00.000Z"},{"geonameid":662389,"name":"Vultureştii de Sus","asciiname":"Vulturestii de Sus","alternatenames":"Vulturesti-de Sus,Vulturestii de Sus,Vultureşti-de Sus,Vultureştii de Sus","latitude":"45.0833300","longitude":"25.1000000","fclass":"P","fcode":"PPLX","country":"RO","cc2":"","admin1":"03","admin2":"20055","admin3":"","admin4":"","population":0,"elevation":0,"gtopo30":479,"timezone":"Europe/Bucharest","moddate":"2016-02-07T00:00:00.000Z"}],"admin3":[],"alternateNames":[]},"__N_SSG":true}