{"pageProps":{"locale":"ro","admin2":{"geonameid":685666,"name":"Comuna Bălăuşeri","country":"RO","admin1":"27","admin2":"115637","admin3":"","latitude":"46.3825200","longitude":"24.6972300"},"admin1":{"geonameid":672628,"name":"Mureş","admin1":"27"},"locations":[{"geonameid":686607,"name":"Agrișteu","asciiname":"Agristeu","alternatenames":"Agristeu,Agristeul,Agrişteu,Agrişteul,Egresto,Egrestö","latitude":"46.3922700","longitude":"24.6847900","fclass":"P","fcode":"PPL","country":"RO","cc2":"RO","admin1":"27","admin2":"115637","admin3":"","admin4":"","population":733,"elevation":0,"gtopo30":326,"timezone":"Europe/Bucharest","moddate":"2013-04-21T00:00:00.000Z"},{"geonameid":685667,"name":"Bălăuşeri","asciiname":"Balauseri","alternatenames":"Balauseri,Balavasar,Bàlavàsàr,Bălăuşeri","latitude":"46.4000000","longitude":"24.6833300","fclass":"P","fcode":"PPLA2","country":"RO","cc2":"","admin1":"27","admin2":"115637","admin3":"","admin4":"","population":4968,"elevation":0,"gtopo30":319,"timezone":"Europe/Bucharest","moddate":"2012-06-12T00:00:00.000Z"},{"geonameid":682203,"name":"Chendu","asciiname":"Chendu","alternatenames":"Chendu,Chendu Mare,Chendul-Mare,Nagykend","latitude":"46.3923400","longitude":"24.7291200","fclass":"P","fcode":"PPL","country":"RO","cc2":"RO","admin1":"27","admin2":"115637","admin3":"","admin4":"","population":1628,"elevation":0,"gtopo30":330,"timezone":"Europe/Bucharest","moddate":"2013-04-21T00:00:00.000Z"},{"geonameid":682201,"name":"Chendu Mic","asciiname":"Chendu Mic","alternatenames":"Chendu Mic,Chendul-Mic,Kiskend","latitude":"46.4000000","longitude":"24.7166700","fclass":"P","fcode":"PPL","country":"RO","cc2":"","admin1":"27","admin2":"115637","admin3":"","admin4":"","population":0,"elevation":0,"gtopo30":324,"timezone":"Europe/Bucharest","moddate":"2016-02-07T00:00:00.000Z"},{"geonameid":678657,"name":"Dumitreni","asciiname":"Dumitreni","alternatenames":"Dumitreni,Szentdemeter","latitude":"46.4009300","longitude":"24.7585500","fclass":"P","fcode":"PPL","country":"RO","cc2":"RO","admin1":"27","admin2":"115637","admin3":"","admin4":"","population":613,"elevation":0,"gtopo30":346,"timezone":"Europe/Bucharest","moddate":"2013-04-21T00:00:00.000Z"},{"geonameid":678239,"name":"Filitelnic","asciiname":"Filitelnic","alternatenames":"Filitelnic,Fuletelke,Fületelke","latitude":"46.3665600","longitude":"24.6691100","fclass":"P","fcode":"PPL","country":"RO","cc2":"RO","admin1":"27","admin2":"115637","admin3":"","admin4":"","population":270,"elevation":0,"gtopo30":355,"timezone":"Europe/Bucharest","moddate":"2013-04-21T00:00:00.000Z"},{"geonameid":667391,"name":"Senereuș","asciiname":"Senereus","alternatenames":"","latitude":"46.3341100","longitude":"24.6509100","fclass":"P","fcode":"PPL","country":"RO","cc2":"","admin1":"27","admin2":"115637","admin3":"","admin4":"","population":680,"elevation":0,"gtopo30":384,"timezone":"Europe/Bucharest","moddate":"2013-04-21T00:00:00.000Z"}],"admin3":[],"alternateNames":[]},"__N_SSG":true}