{"pageProps":{"locale":"ro","admin2":{"geonameid":679060,"name":"Comuna Dorolţ","country":"RO","admin1":"32","admin2":"137675","admin3":"","latitude":"47.8452400","longitude":"22.7864200"},"admin1":{"geonameid":667869,"name":"Satu Mare","admin1":"32"},"locations":[{"geonameid":686068,"name":"Atea","asciiname":"Atea","alternatenames":"Atya","latitude":"47.8715300","longitude":"22.7898000","fclass":"P","fcode":"PPL","country":"RO","cc2":"","admin1":"32","admin2":"137675","admin3":"","admin4":"","population":355,"elevation":0,"gtopo30":117,"timezone":"Europe/Bucharest","moddate":"2019-07-24T00:00:00.000Z"},{"geonameid":679738,"name":"Dara","asciiname":"Dara","alternatenames":"","latitude":"47.8163600","longitude":"22.7521600","fclass":"P","fcode":"PPL","country":"RO","cc2":"","admin1":"32","admin2":"137675","admin3":"","admin4":"","population":1239,"elevation":0,"gtopo30":119,"timezone":"Europe/Bucharest","moddate":"2013-04-21T00:00:00.000Z"},{"geonameid":679061,"name":"Dorolţ","asciiname":"Dorolt","alternatenames":"Dorolt,Dorolti,Dorolţ,Dorolţi,Pusztadaroc,Pusztadaróc","latitude":"47.8500000","longitude":"22.8166700","fclass":"P","fcode":"PPLA2","country":"RO","cc2":"","admin1":"32","admin2":"137675","admin3":"","admin4":"","population":3426,"elevation":0,"gtopo30":118,"timezone":"Europe/Bucharest","moddate":"2012-06-12T00:00:00.000Z"},{"geonameid":671040,"name":"Petea","asciiname":"Petea","alternatenames":"","latitude":"47.8495900","longitude":"22.7911200","fclass":"P","fcode":"PPL","country":"RO","cc2":"","admin1":"32","admin2":"137675","admin3":"","admin4":"","population":312,"elevation":0,"gtopo30":118,"timezone":"Europe/Bucharest","moddate":"2013-04-21T00:00:00.000Z"}],"admin3":[],"alternateNames":[]},"__N_SSG":true}