{"pageProps":{"locale":"ro","admin2":{"geonameid":667117,"name":"Comuna Simian","country":"RO","admin1":"26","admin2":"109826","admin3":"","latitude":"44.6273600","longitude":"22.7422700"},"admin1":{"geonameid":673612,"name":"Mehedinţi","admin1":"26"},"locations":[{"geonameid":682305,"name":"Cerneți","asciiname":"Cerneti","alternatenames":"Cerneci,Cerneti,Cerneţi","latitude":"44.6347600","longitude":"22.7093100","fclass":"P","fcode":"PPL","country":"RO","cc2":"RO","admin1":"26","admin2":"109826","admin3":"","admin4":"","population":3263,"elevation":0,"gtopo30":58,"timezone":"Europe/Bucharest","moddate":"2013-04-21T00:00:00.000Z"},{"geonameid":679559,"name":"Dedovița Nouă","asciiname":"Dedovita Noua","alternatenames":"","latitude":"44.6268300","longitude":"22.7313000","fclass":"P","fcode":"PPL","country":"RO","cc2":"","admin1":"26","admin2":"109826","admin3":"","admin4":"","population":421,"elevation":0,"gtopo30":90,"timezone":"Europe/Bucharest","moddate":"2013-04-21T00:00:00.000Z"},{"geonameid":679558,"name":"Dedovița Veche","asciiname":"Dedovita Veche","alternatenames":"","latitude":"44.6274600","longitude":"22.7736100","fclass":"P","fcode":"PPL","country":"RO","cc2":"","admin1":"26","admin2":"109826","admin3":"","admin4":"","population":123,"elevation":0,"gtopo30":252,"timezone":"Europe/Bucharest","moddate":"2013-04-21T00:00:00.000Z"},{"geonameid":678789,"name":"Dudașu","asciiname":"Dudasu","alternatenames":"Dudasi,Dudasu,Dudaşi,Dudaşu","latitude":"44.6525300","longitude":"22.6968300","fclass":"P","fcode":"PPL","country":"RO","cc2":"RO","admin1":"26","admin2":"109826","admin3":"","admin4":"","population":1045,"elevation":0,"gtopo30":68,"timezone":"Europe/Bucharest","moddate":"2013-04-21T00:00:00.000Z"},{"geonameid":678543,"name":"Erghevița","asciiname":"Erghevita","alternatenames":"","latitude":"44.6079100","longitude":"22.7851600","fclass":"P","fcode":"PPL","country":"RO","cc2":"","admin1":"26","admin2":"109826","admin3":"","admin4":"","population":365,"elevation":0,"gtopo30":163,"timezone":"Europe/Bucharest","moddate":"2013-04-21T00:00:00.000Z"},{"geonameid":670906,"name":"Piatra Albă","asciiname":"Piatra Alba","alternatenames":"","latitude":"44.6486100","longitude":"22.7102800","fclass":"P","fcode":"PPL","country":"RO","cc2":"","admin1":"26","admin2":"109826","admin3":"","admin4":"","population":0,"elevation":0,"gtopo30":61,"timezone":"Europe/Bucharest","moddate":"2016-02-07T00:00:00.000Z"},{"geonameid":669837,"name":"Poroina","asciiname":"Poroina","alternatenames":"","latitude":"44.6178500","longitude":"22.7780200","fclass":"P","fcode":"PPL","country":"RO","cc2":"","admin1":"26","admin2":"109826","admin3":"","admin4":"","population":280,"elevation":0,"gtopo30":147,"timezone":"Europe/Bucharest","moddate":"2013-04-21T00:00:00.000Z"},{"geonameid":667119,"name":"Şimian","asciiname":"Simian","alternatenames":"Simian,Simijanii,Şimian","latitude":"44.6141700","longitude":"22.7072200","fclass":"P","fcode":"PPLA2","country":"RO","cc2":"","admin1":"26","admin2":"109826","admin3":"","admin4":"","population":9434,"elevation":0,"gtopo30":55,"timezone":"Europe/Bucharest","moddate":"2012-06-12T00:00:00.000Z"},{"geonameid":664500,"name":"Tunari","asciiname":"Tunari","alternatenames":"","latitude":"44.6500000","longitude":"22.7666700","fclass":"P","fcode":"PPLX","country":"RO","cc2":"","admin1":"26","admin2":"109826","admin3":"","admin4":"","population":0,"elevation":0,"gtopo30":206,"timezone":"Europe/Bucharest","moddate":"2016-02-07T00:00:00.000Z"},{"geonameid":663822,"name":"Valea Copcii","asciiname":"Valea Copcii","alternatenames":"","latitude":"44.6354400","longitude":"22.7603100","fclass":"P","fcode":"PPL","country":"RO","cc2":"","admin1":"26","admin2":"109826","admin3":"","admin4":"","population":146,"elevation":0,"gtopo30":169,"timezone":"Europe/Bucharest","moddate":"2013-04-20T00:00:00.000Z"}],"admin3":[],"alternateNames":[]},"__N_SSG":true}