{"pageProps":{"locale":"ro","admin2":{"geonameid":666034,"name":"Comuna Stolnici","country":"RO","admin1":"03","admin2":"18938","admin3":"","latitude":"44.5807500","longitude":"24.7733500"},"admin1":{"geonameid":686192,"name":"Argeş","admin1":"03"},"locations":[{"geonameid":685427,"name":"Bărăgini","asciiname":"Baragini","alternatenames":"Baragai,Baragini,Bărăgini,Bărăgâi","latitude":"44.5500000","longitude":"24.8000000","fclass":"P","fcode":"PPLX","country":"RO","cc2":"","admin1":"03","admin2":"18938","admin3":"","admin4":"","population":0,"elevation":0,"gtopo30":205,"timezone":"Europe/Bucharest","moddate":"2016-02-07T00:00:00.000Z"},{"geonameid":681229,"name":"Cochinești","asciiname":"Cochinesti","alternatenames":"","latitude":"44.5809400","longitude":"24.7633900","fclass":"P","fcode":"PPL","country":"RO","cc2":"","admin1":"03","admin2":"18938","admin3":"","admin4":"","population":691,"elevation":0,"gtopo30":197,"timezone":"Europe/Bucharest","moddate":"2013-04-21T00:00:00.000Z"},{"geonameid":680497,"name":"Cotmeana","asciiname":"Cotmeana","alternatenames":"Cacarezeni,Cotmeana,Căcărezeni","latitude":"44.5970100","longitude":"24.7573500","fclass":"P","fcode":"PPL","country":"RO","cc2":"RO","admin1":"03","admin2":"18938","admin3":"","admin4":"","population":0,"elevation":0,"gtopo30":203,"timezone":"Europe/Bucharest","moddate":"2016-02-07T00:00:00.000Z"},{"geonameid":678265,"name":"Fâlfani","asciiname":"Falfani","alternatenames":"Falfani,Filfani,Fâlfani,Fîlfani","latitude":"44.6099600","longitude":"24.7614700","fclass":"P","fcode":"PPL","country":"RO","cc2":"RO","admin1":"03","admin2":"18938","admin3":"","admin4":"","population":264,"elevation":0,"gtopo30":207,"timezone":"Europe/Bucharest","moddate":"2013-04-21T00:00:00.000Z"},{"geonameid":675486,"name":"Izbășești","asciiname":"Izbasesti","alternatenames":"","latitude":"44.5848900","longitude":"24.7793700","fclass":"P","fcode":"PPL","country":"RO","cc2":"","admin1":"03","admin2":"18938","admin3":"","admin4":"","population":469,"elevation":0,"gtopo30":204,"timezone":"Europe/Bucharest","moddate":"2013-04-21T00:00:00.000Z"},{"geonameid":666035,"name":"Stolnici","asciiname":"Stolnici","alternatenames":"","latitude":"44.5666700","longitude":"24.7833300","fclass":"P","fcode":"PPLA2","country":"RO","cc2":"","admin1":"03","admin2":"18938","admin3":"","admin4":"","population":3784,"elevation":0,"gtopo30":195,"timezone":"Europe/Bucharest","moddate":"2012-06-12T00:00:00.000Z"},{"geonameid":662557,"name":"Vlășcuța","asciiname":"Vlascuta","alternatenames":"","latitude":"44.5446300","longitude":"24.7963100","fclass":"P","fcode":"PPL","country":"RO","cc2":"","admin1":"03","admin2":"18938","admin3":"","admin4":"","population":346,"elevation":0,"gtopo30":201,"timezone":"Europe/Bucharest","moddate":"2013-04-20T00:00:00.000Z"}],"admin3":[],"alternateNames":[]},"__N_SSG":true}