{"pageProps":{"locale":"ro","admin2":{"geonameid":676092,"name":"Comuna Hodoşa","country":"RO","admin1":"27","admin2":"117505","admin3":"","latitude":"46.6396200","longitude":"24.8097100"},"admin1":{"geonameid":672628,"name":"Mureş","admin1":"27"},"locations":[{"geonameid":676094,"name":"Hodoşa","asciiname":"Hodosa","alternatenames":"Hodosa,Hodoşa,Szekelyhodos,Szèkelyhodos","latitude":"46.6333300","longitude":"24.8166700","fclass":"P","fcode":"PPLA2","country":"RO","cc2":"","admin1":"27","admin2":"117505","admin3":"","admin4":"","population":1390,"elevation":0,"gtopo30":455,"timezone":"Europe/Bucharest","moddate":"2012-06-12T00:00:00.000Z"},{"geonameid":675688,"name":"Ihod","asciiname":"Ihod","alternatenames":"Ehed,Ihod","latitude":"46.6349500","longitude":"24.7989900","fclass":"P","fcode":"PPL","country":"RO","cc2":"RO","admin1":"27","admin2":"117505","admin3":"","admin4":"","population":141,"elevation":0,"gtopo30":431,"timezone":"Europe/Bucharest","moddate":"2013-04-21T00:00:00.000Z"},{"geonameid":675481,"name":"Isla","asciiname":"Isla","alternatenames":"Isla,Iszlo,Iszlò","latitude":"46.6247600","longitude":"24.7856400","fclass":"P","fcode":"PPL","country":"RO","cc2":"RO","admin1":"27","admin2":"117505","admin3":"","admin4":"","population":375,"elevation":0,"gtopo30":441,"timezone":"Europe/Bucharest","moddate":"2013-04-21T00:00:00.000Z"},{"geonameid":667125,"name":"Sâmbriaş","asciiname":"Sambrias","alternatenames":"Jobbagytelke,Jobbàgytelke,Sambrias,Simbrias,Simbriasi,Simbriaşi,Sâmbriaş,Sîmbriaş","latitude":"46.6500000","longitude":"24.8333300","fclass":"P","fcode":"PPL","country":"RO","cc2":"RO","admin1":"27","admin2":"117505","admin3":"","admin4":"","population":0,"elevation":0,"gtopo30":435,"timezone":"Europe/Bucharest","moddate":"2020-03-08T00:00:00.000Z"}],"admin3":[],"alternateNames":[]},"__N_SSG":true}