{"pageProps":{"locale":"ro","admin2":{"geonameid":672650,"name":"Comuna Muntenii de Jos","country":"RO","admin1":"38","admin2":"164936","admin3":"","latitude":"46.6040500","longitude":"27.7694900"},"admin1":{"geonameid":663116,"name":"Vaslui","admin1":"38"},"locations":[{"geonameid":685949,"name":"Băcăoani","asciiname":"Bacaoani","alternatenames":"","latitude":"46.5840500","longitude":"27.7809100","fclass":"P","fcode":"PPL","country":"RO","cc2":"","admin1":"38","admin2":"164936","admin3":"","admin4":"","population":579,"elevation":0,"gtopo30":98,"timezone":"Europe/Bucharest","moddate":"2013-04-21T00:00:00.000Z"},{"geonameid":679280,"name":"Dobârceni","asciiname":"Dobarceni","alternatenames":"Dobarceni,Dobirceni,Dobârceni,Dobîrceni","latitude":"46.6166700","longitude":"27.8000000","fclass":"P","fcode":"PPL","country":"RO","cc2":"RO","admin1":"38","admin2":"164936","admin3":"","admin4":"","population":0,"elevation":0,"gtopo30":248,"timezone":"Europe/Bucharest","moddate":"2020-03-08T00:00:00.000Z"},{"geonameid":676515,"name":"Gura Munteni","asciiname":"Gura Munteni","alternatenames":"Gura Munteni,Gura Muntenilor de Jos","latitude":"46.6000000","longitude":"27.7666700","fclass":"P","fcode":"PPL","country":"RO","cc2":"","admin1":"38","admin2":"164936","admin3":"","admin4":"","population":0,"elevation":0,"gtopo30":88,"timezone":"Europe/Bucharest","moddate":"2016-02-07T00:00:00.000Z"},{"geonameid":673184,"name":"Mânjești","asciiname":"Manjesti","alternatenames":"Minjesti,Mînjeşti","latitude":"46.6000000","longitude":"27.8000000","fclass":"P","fcode":"PPL","country":"RO","cc2":"","admin1":"38","admin2":"164936","admin3":"","admin4":"","population":812,"elevation":0,"gtopo30":245,"timezone":"Europe/Bucharest","moddate":"2015-12-07T00:00:00.000Z"},{"geonameid":672651,"name":"Muntenii de Jos","asciiname":"Muntenii de Jos","alternatenames":"Muntenii de Jos","latitude":"46.6166700","longitude":"27.7666700","fclass":"P","fcode":"PPLA2","country":"RO","cc2":"","admin1":"38","admin2":"164936","admin3":"","admin4":"","population":3826,"elevation":0,"gtopo30":161,"timezone":"Europe/Bucharest","moddate":"2012-06-12T00:00:00.000Z"},{"geonameid":667466,"name":"Secuia","asciiname":"Secuia","alternatenames":"","latitude":"46.5643000","longitude":"27.8016100","fclass":"P","fcode":"PPL","country":"RO","cc2":"","admin1":"38","admin2":"164936","admin3":"","admin4":"","population":444,"elevation":0,"gtopo30":110,"timezone":"Europe/Bucharest","moddate":"2013-04-21T00:00:00.000Z"}],"admin3":[],"alternateNames":[]},"__N_SSG":true}