{"pageProps":{"locale":"ro","admin2":{"geonameid":674887,"name":"Comuna Leorda","country":"RO","admin1":"07","admin2":"37850","admin3":"","latitude":"47.8186200","longitude":"26.4540800"},"admin1":{"geonameid":684038,"name":"Botoşani","admin1":"07"},"locations":[{"geonameid":685165,"name":"Belcea","asciiname":"Belcea","alternatenames":"","latitude":"47.8050800","longitude":"26.4445400","fclass":"P","fcode":"PPL","country":"RO","cc2":"","admin1":"07","admin2":"37850","admin3":"","admin4":"","population":32,"elevation":0,"gtopo30":177,"timezone":"Europe/Bucharest","moddate":"2013-04-21T00:00:00.000Z"},{"geonameid":680547,"name":"Costineşti","asciiname":"Costinesti","alternatenames":"","latitude":"47.8000000","longitude":"26.4666700","fclass":"P","fcode":"PPL","country":"RO","cc2":"","admin1":"07","admin2":"37850","admin3":"","admin4":"","population":0,"elevation":0,"gtopo30":208,"timezone":"Europe/Bucharest","moddate":"2016-02-07T00:00:00.000Z"},{"geonameid":679135,"name":"Dolina","asciiname":"Dolina","alternatenames":"","latitude":"47.8277500","longitude":"26.4590400","fclass":"P","fcode":"PPL","country":"RO","cc2":"","admin1":"07","admin2":"37850","admin3":"","admin4":"","population":555,"elevation":0,"gtopo30":175,"timezone":"Europe/Bucharest","moddate":"2013-04-21T00:00:00.000Z"},{"geonameid":674889,"name":"Leorda","asciiname":"Leorda","alternatenames":"","latitude":"47.8166700","longitude":"26.4500000","fclass":"P","fcode":"PPLA2","country":"RO","cc2":"","admin1":"07","admin2":"37850","admin3":"","admin4":"","population":2734,"elevation":0,"gtopo30":167,"timezone":"Europe/Bucharest","moddate":"2012-06-12T00:00:00.000Z"},{"geonameid":673055,"name":"Mitoc","asciiname":"Mitoc","alternatenames":"Mitoc,Mitocu","latitude":"47.8369600","longitude":"26.4402600","fclass":"P","fcode":"PPL","country":"RO","cc2":"RO","admin1":"07","admin2":"37850","admin3":"","admin4":"","population":285,"elevation":0,"gtopo30":198,"timezone":"Europe/Bucharest","moddate":"2013-04-21T00:00:00.000Z"}],"admin3":[],"alternateNames":[]},"__N_SSG":true}