{"pageProps":{"locale":"ro","admin2":{"geonameid":680878,"name":"Comuna Corbi","country":"RO","admin1":"03","admin2":"15830","admin3":"","latitude":"45.2557200","longitude":"24.8161100"},"admin1":{"geonameid":686192,"name":"Argeş","admin1":"03"},"locations":[{"geonameid":686501,"name":"Alexandria","asciiname":"Alexandria","alternatenames":"Alexandri,Alexandria","latitude":"45.2666700","longitude":"24.8166700","fclass":"P","fcode":"PPLX","country":"RO","cc2":"","admin1":"03","admin2":"15830","admin3":"","admin4":"","population":0,"elevation":0,"gtopo30":536,"timezone":"Europe/Bucharest","moddate":"2016-02-07T00:00:00.000Z"},{"geonameid":680880,"name":"Corbi","asciiname":"Corbi","alternatenames":"Corbi","latitude":"45.2833300","longitude":"24.8000000","fclass":"P","fcode":"PPLA2","country":"RO","cc2":"","admin1":"03","admin2":"15830","admin3":"","admin4":"","population":4381,"elevation":0,"gtopo30":562,"timezone":"Europe/Bucharest","moddate":"2012-06-12T00:00:00.000Z"},{"geonameid":680871,"name":"Corbșori","asciiname":"Corbsori","alternatenames":"Corbisori,Corbişori,Corbsori,Corbsorii,Corbşori,Corbşorii","latitude":"45.2532300","longitude":"24.8241000","fclass":"P","fcode":"PPL","country":"RO","cc2":"RO","admin1":"03","admin2":"15830","admin3":"","admin4":"","population":995,"elevation":0,"gtopo30":517,"timezone":"Europe/Bucharest","moddate":"2013-04-21T00:00:00.000Z"},{"geonameid":675271,"name":"Jgheaburi","asciiname":"Jgheaburi","alternatenames":"Jghiaburi,Sghiab,Zghiab","latitude":"45.2813700","longitude":"24.8054200","fclass":"P","fcode":"PPL","country":"RO","cc2":"RO","admin1":"03","admin2":"15830","admin3":"","admin4":"","population":509,"elevation":0,"gtopo30":531,"timezone":"Europe/Bucharest","moddate":"2013-04-21T00:00:00.000Z"},{"geonameid":670758,"name":"Pârâeşti","asciiname":"Paraesti","alternatenames":"Paraesti,Piriesti,Pârâeşti,Pîrîeşti","latitude":"45.2333300","longitude":"24.8500000","fclass":"P","fcode":"PPLX","country":"RO","cc2":"RO","admin1":"03","admin2":"15830","admin3":"","admin4":"","population":0,"elevation":0,"gtopo30":573,"timezone":"Europe/Bucharest","moddate":"2020-03-08T00:00:00.000Z"},{"geonameid":670592,"name":"Piua","asciiname":"Piua","alternatenames":"","latitude":"45.3000000","longitude":"24.8166700","fclass":"P","fcode":"PPLX","country":"RO","cc2":"","admin1":"03","admin2":"15830","admin3":"","admin4":"","population":0,"elevation":0,"gtopo30":759,"timezone":"Europe/Bucharest","moddate":"2016-02-07T00:00:00.000Z"},{"geonameid":670277,"name":"Poduri","asciiname":"Poduri","alternatenames":"Podurele,Poduri","latitude":"45.2275500","longitude":"24.8240700","fclass":"P","fcode":"PPL","country":"RO","cc2":"RO","admin1":"03","admin2":"15830","admin3":"","admin4":"","population":397,"elevation":0,"gtopo30":486,"timezone":"Europe/Bucharest","moddate":"2013-04-21T00:00:00.000Z"},{"geonameid":670231,"name":"Poienărei","asciiname":"Poienarei","alternatenames":"","latitude":"45.2500000","longitude":"24.8000000","fclass":"P","fcode":"PPL","country":"RO","cc2":"","admin1":"03","admin2":"15830","admin3":"","admin4":"","population":103,"elevation":0,"gtopo30":822,"timezone":"Europe/Bucharest","moddate":"2015-11-11T00:00:00.000Z"},{"geonameid":666299,"name":"Stănești","asciiname":"Stanesti","alternatenames":"Stanesti,Stanestii,Stăneşti,Stăneştii","latitude":"45.2290900","longitude":"24.8360400","fclass":"P","fcode":"PPL","country":"RO","cc2":"RO","admin1":"03","admin2":"15830","admin3":"","admin4":"","population":884,"elevation":0,"gtopo30":494,"timezone":"Europe/Bucharest","moddate":"2013-04-21T00:00:00.000Z"}],"admin3":[],"alternateNames":[]},"__N_SSG":true}