{"pageProps":{"locale":"it","admin2":{"geonameid":3164564,"name":"Provincia di Vercelli","country":"IT","admin1":"12","admin2":"VC","admin3":"","latitude":"45.3318800","longitude":"8.4141500","localeAltName":"Vercelli"},"admin1":{"geonameid":3170831,"name":"Piemonte","admin1":"12","localeAltName":null},"locations":[{"geonameid":3183278,"name":"Alice Castello","admin3":"002004","localeAltName":null},{"geonameid":3182924,"name":"Arborio","admin3":"002006","localeAltName":null},{"geonameid":6535429,"name":"Asigliano Vercellese","admin3":"002007","localeAltName":null},{"geonameid":3182068,"name":"Bianzè","admin3":"002011","localeAltName":null},{"geonameid":3181809,"name":"Borgo d'Ale","admin3":"002015","localeAltName":null},{"geonameid":3181744,"name":"Borgo Vercelli","admin3":"002017","localeAltName":null},{"geonameid":3181749,"name":"Borgosesia","admin3":"002016","localeAltName":null},{"geonameid":3181388,"name":"Buronzo","admin3":"002021","localeAltName":null},{"geonameid":3180526,"name":"Caresana","admin3":"002030","localeAltName":null},{"geonameid":6535430,"name":"Caresanablot","admin3":"002031","localeAltName":null},{"geonameid":3180504,"name":"Carisio","admin3":"002032","localeAltName":null},{"geonameid":3178709,"name":"Cigliano","admin3":"002042","localeAltName":null},{"geonameid":3177894,"name":"Costanzana","admin3":"002047","localeAltName":null},{"geonameid":3177833,"name":"Crescentino","admin3":"002049","localeAltName":null},{"geonameid":3177615,"name":"Desana","admin3":"002054","localeAltName":null},{"geonameid":3176800,"name":"Fontanetto Po","admin3":"002058","localeAltName":null},{"geonameid":3176282,"name":"Gattinara","admin3":"002061","localeAltName":null},{"geonameid":3176159,"name":"Ghislarengo","admin3":"002062","localeAltName":null},{"geonameid":3175181,"name":"Lamporo","admin3":"002067","localeAltName":null},{"geonameid":3174890,"name":"Lenta","admin3":"002068","localeAltName":null},{"geonameid":3174732,"name":"Lignana","admin3":"002070","localeAltName":null},{"geonameid":3174655,"name":"Livorno Ferraris","admin3":"002071","localeAltName":null},{"geonameid":3174536,"name":"Lozzolo","admin3":"002072","localeAltName":null},{"geonameid":6535830,"name":"Moncrivello","admin3":"002079","localeAltName":null},{"geonameid":3172510,"name":"Motta Dè Conti","admin3":"002082","localeAltName":null},{"geonameid":3172083,"name":"Olcenengo","admin3":"002088","localeAltName":null},{"geonameid":3171624,"name":"Palazzolo Vercellese","admin3":"002090","localeAltName":null},{"geonameid":3171071,"name":"Pezzana","admin3":"002093","localeAltName":null},{"geonameid":3169714,"name":"Quarona","admin3":"002107","localeAltName":null},{"geonameid":3169216,"name":"Roasio","admin3":"002116","localeAltName":null},{"geonameid":6693909,"name":"Roccapietra","admin3":"002156","localeAltName":null},{"geonameid":3168981,"name":"Ronsecco","admin3":"002118","localeAltName":null},{"geonameid":3168875,"name":"Rovasenda","admin3":"002122","localeAltName":null},{"geonameid":3168615,"name":"Saluggia","admin3":"002128","localeAltName":null},{"geonameid":3168339,"name":"San Germano Vercellese","admin3":"002131","localeAltName":null},{"geonameid":8949406,"name":"San Maurizio","admin3":"002116","localeAltName":null},{"geonameid":8949778,"name":"Sant'Antonino","admin3":"002128","localeAltName":null},{"geonameid":8950333,"name":"Sant'Eusebio","admin3":"002116","localeAltName":null},{"geonameid":3167314,"name":"Santhià","admin3":"002133","localeAltName":null},{"geonameid":3166636,"name":"Serravalle Sesia","admin3":"002137","localeAltName":null},{"geonameid":3166079,"name":"Stroppiana","admin3":"002142","localeAltName":null},{"geonameid":3165190,"name":"Tricerro","admin3":"002147","localeAltName":null},{"geonameid":3165165,"name":"Trino","admin3":"002148","localeAltName":null},{"geonameid":3165133,"name":"Tronzano Vercellese","admin3":"002150","localeAltName":null},{"geonameid":3164927,"name":"Valduggia","admin3":"002152","localeAltName":null},{"geonameid":3164718,"name":"Varallo","admin3":"002156","localeAltName":null},{"geonameid":3164565,"name":"Vercelli","admin3":"002158","localeAltName":null},{"geonameid":3164125,"name":"Villata","admin3":"002164","localeAltName":null}],"admin3":[{"geonameid":6536053,"name":"Roasio","admin3":"002116","localeAltName":null},{"geonameid":6537288,"name":"Postua","admin3":"002102"},{"geonameid":6537289,"name":"Rimella","admin3":"002113"},{"geonameid":6537291,"name":"San Germano Vercellese","admin3":"002131","localeAltName":null},{"geonameid":6537292,"name":"Stroppiana","admin3":"002142","localeAltName":null},{"geonameid":6538096,"name":"Alagna Valsesia","admin3":"002002"},{"geonameid":6538097,"name":"Alice Castello","admin3":"002004","localeAltName":null},{"geonameid":6538098,"name":"Arborio","admin3":"002006","localeAltName":null},{"geonameid":6538099,"name":"Balmuccia","admin3":"002008"},{"geonameid":6538100,"name":"Borgo d'Ale","admin3":"002015","localeAltName":null},{"geonameid":6538101,"name":"Buronzo","admin3":"002021","localeAltName":null},{"geonameid":6538102,"name":"Costanzana","admin3":"002047","localeAltName":null},{"geonameid":6538103,"name":"Crova","admin3":"002052"},{"geonameid":6538104,"name":"Formigliana","admin3":"002059"},{"geonameid":6538105,"name":"Ghislarengo","admin3":"002062","localeAltName":null},{"geonameid":6538106,"name":"Greggio","admin3":"002065"},{"geonameid":6538107,"name":"Lenta","admin3":"002068","localeAltName":null},{"geonameid":6538108,"name":"Lignana","admin3":"002070","localeAltName":null},{"geonameid":6538109,"name":"Lozzolo","admin3":"002072","localeAltName":null},{"geonameid":6538110,"name":"Pertengo","admin3":"002091"},{"geonameid":6538111,"name":"Piode","admin3":"002097"},{"geonameid":6538112,"name":"Prarolo","admin3":"002104"},{"geonameid":6538113,"name":"Quarona","admin3":"002107","localeAltName":null},{"geonameid":6538114,"name":"Ronsecco","admin3":"002118","localeAltName":null},{"geonameid":6538115,"name":"Rovasenda","admin3":"002122","localeAltName":null},{"geonameid":6538116,"name":"Saluggia","admin3":"002128","localeAltName":null},{"geonameid":6538117,"name":"Santhià","admin3":"002133","localeAltName":null},{"geonameid":6538118,"name":"Serravalle Sesia","admin3":"002137","localeAltName":null},{"geonameid":6538119,"name":"Tricerro","admin3":"002147","localeAltName":null},{"geonameid":6538120,"name":"Trino","admin3":"002148","localeAltName":null},{"geonameid":6538121,"name":"Villarboit","admin3":"002163"},{"geonameid":6539534,"name":"Albano Vercellese","admin3":"002003"},{"geonameid":6539535,"name":"Carisio","admin3":"002032","localeAltName":null},{"geonameid":6539536,"name":"Casanova Elvo","admin3":"002033"},{"geonameid":6539537,"name":"Collobiano","admin3":"002045"},{"geonameid":6539538,"name":"Crescentino","admin3":"002049","localeAltName":null},{"geonameid":6539539,"name":"Desana","admin3":"002054","localeAltName":null},{"geonameid":6539540,"name":"Fontanetto Po","admin3":"002058","localeAltName":null},{"geonameid":6539541,"name":"Lamporo","admin3":"002067","localeAltName":null},{"geonameid":6539542,"name":"Livorno Ferraris","admin3":"002071","localeAltName":null},{"geonameid":6539543,"name":"Mollia","admin3":"002078"},{"geonameid":6539544,"name":"Olcenengo","admin3":"002088","localeAltName":null},{"geonameid":6539545,"name":"Oldenico","admin3":"002089"},{"geonameid":6539546,"name":"Palazzolo Vercellese","admin3":"002090","localeAltName":null},{"geonameid":6539547,"name":"Pezzana","admin3":"002093","localeAltName":null},{"geonameid":6539805,"name":"Rive","admin3":"002115"},{"geonameid":6539806,"name":"Scopello","admin3":"002135"},{"geonameid":6539903,"name":"Borgo Vercelli","admin3":"002017","localeAltName":null},{"geonameid":6539905,"name":"Caresana","admin3":"002030","localeAltName":null},{"geonameid":6539906,"name":"Villata","admin3":"002164","localeAltName":null},{"geonameid":6540102,"name":"Cigliano","admin3":"002042","localeAltName":null},{"geonameid":6540103,"name":"Gattinara","admin3":"002061","localeAltName":null},{"geonameid":6540116,"name":"Vercelli","admin3":"002158","localeAltName":null},{"geonameid":6540667,"name":"Sali Vercellese","admin3":"002127"},{"geonameid":6540668,"name":"Valduggia","admin3":"002152","localeAltName":null},{"geonameid":6540928,"name":"Bianzè","admin3":"002011","localeAltName":null},{"geonameid":6540929,"name":"Campertogno","admin3":"002025"},{"geonameid":6540930,"name":"Carcoforo","admin3":"002029"},{"geonameid":6540931,"name":"Quinto Vercellese","admin3":"002108"},{"geonameid":6540932,"name":"Tronzano Vercellese","admin3":"002150","localeAltName":null},{"geonameid":6541442,"name":"Balocco","admin3":"002009"},{"geonameid":6541443,"name":"Boccioleto","admin3":"002014"},{"geonameid":6541444,"name":"Borgosesia","admin3":"002016","localeAltName":null},{"geonameid":6541446,"name":"Fobello","admin3":"002057"},{"geonameid":6542242,"name":"Cravagliana","admin3":"002048"},{"geonameid":6542243,"name":"Motta de' Conti","admin3":"002082","localeAltName":null},{"geonameid":6542244,"name":"Varallo","admin3":"002156","localeAltName":null},{"geonameid":6543266,"name":"Pila","admin3":"002096"},{"geonameid":6543267,"name":"Rossa","admin3":"002121"},{"geonameid":6543268,"name":"Salasco","admin3":"002126"},{"geonameid":6543410,"name":"Asigliano Vercellese","admin3":"002007","localeAltName":null},{"geonameid":6543411,"name":"Caresanablot","admin3":"002031","localeAltName":null},{"geonameid":6543412,"name":"San Giacomo Vercellese","admin3":"002035"},{"geonameid":6543413,"name":"Cervatto","admin3":"002041"},{"geonameid":6543414,"name":"Rassa","admin3":"002110"},{"geonameid":6543416,"name":"Scopa","admin3":"002134"},{"geonameid":6543417,"name":"Vocca","admin3":"002166"},{"geonameid":6543799,"name":"Civiasco","admin3":"002043"},{"geonameid":6543800,"name":"Guardabosone","admin3":"002066"},{"geonameid":6543801,"name":"Moncrivello","admin3":"002079","localeAltName":null},{"geonameid":12032151,"name":"Alto Sermenza","admin3":"002170"},{"geonameid":12032152,"name":"Cellio con Breia","admin3":"002171"}],"alternateNames":[{"alternatenameId":1347215,"geonameid":3164564,"isoLanguage":"it","alternateName":"Vercelli","isPreferredName":true,"isShortName":true,"isColloquial":false,"isHistoric":false}]},"__N_SSG":true}