{"pageProps":{"locale":"ro","admin2":{"geonameid":665216,"name":"Comuna Teslui","country":"RO","admin1":"29","admin2":"129380","admin3":"","latitude":"44.5131600","longitude":"24.3560000"},"admin1":{"geonameid":671857,"name":"Olt","admin1":"29"},"locations":[{"geonameid":682185,"name":"Cherleștii din Deal","asciiname":"Cherlestii din Deal","alternatenames":"Cherlesti Vale,Cherlesti-din Vale,Cherlestii din Vale,Cherleşti Vale,Cherleştii din Vale","latitude":"44.5220700","longitude":"24.3376000","fclass":"P","fcode":"PPL","country":"RO","cc2":"RO","admin1":"29","admin2":"129380","admin3":"","admin4":"","population":397,"elevation":0,"gtopo30":160,"timezone":"Europe/Bucharest","moddate":"2013-04-21T00:00:00.000Z"},{"geonameid":682186,"name":"Cherleştii din Deal","asciiname":"Cherlestii din Deal","alternatenames":"Cherlesti Deal,Cherlesti-din Deal,Cherlestii din Deal,Cherleşti Deal,Cherleştii din Deal","latitude":"44.5333300","longitude":"24.3333300","fclass":"P","fcode":"PPL","country":"RO","cc2":"","admin1":"29","admin2":"129380","admin3":"","admin4":"","population":0,"elevation":0,"gtopo30":126,"timezone":"Europe/Bucharest","moddate":"2020-06-10T00:00:00.000Z"},{"geonameid":682184,"name":"Cherleștii Moșteni","asciiname":"Cherlestii Mosteni","alternatenames":"Cherlesti Mosteni,Cherleşti Moşteni,Mosteni,Moşteni","latitude":"44.5362500","longitude":"24.3375600","fclass":"P","fcode":"PPL","country":"RO","cc2":"RO","admin1":"29","admin2":"129380","admin3":"","admin4":"","population":334,"elevation":0,"gtopo30":175,"timezone":"Europe/Bucharest","moddate":"2013-04-21T00:00:00.000Z"},{"geonameid":681008,"name":"Comănița","asciiname":"Comanita","alternatenames":"","latitude":"44.5649300","longitude":"24.3476700","fclass":"P","fcode":"PPL","country":"RO","cc2":"","admin1":"29","admin2":"129380","admin3":"","admin4":"","population":471,"elevation":0,"gtopo30":205,"timezone":"Europe/Bucharest","moddate":"2013-04-21T00:00:00.000Z"},{"geonameid":680868,"name":"Corbu","asciiname":"Corbu","alternatenames":"Corbu,Corbul","latitude":"44.5485000","longitude":"24.4064900","fclass":"P","fcode":"PPL","country":"RO","cc2":"RO","admin1":"29","admin2":"129380","admin3":"","admin4":"","population":170,"elevation":0,"gtopo30":180,"timezone":"Europe/Bucharest","moddate":"2013-04-21T00:00:00.000Z"},{"geonameid":679534,"name":"Deleni","asciiname":"Deleni","alternatenames":"","latitude":"44.5661700","longitude":"24.3607300","fclass":"P","fcode":"PPL","country":"RO","cc2":"","admin1":"29","admin2":"129380","admin3":"","admin4":"","population":503,"elevation":0,"gtopo30":205,"timezone":"Europe/Bucharest","moddate":"2013-04-21T00:00:00.000Z"},{"geonameid":667656,"name":"Schitu Deleni","asciiname":"Schitu Deleni","alternatenames":"Schitu,Schitu-Deleni,Schitul-Deleni","latitude":"44.5727400","longitude":"24.3403500","fclass":"P","fcode":"PPL","country":"RO","cc2":"RO","admin1":"29","admin2":"129380","admin3":"","admin4":"","population":245,"elevation":0,"gtopo30":182,"timezone":"Europe/Bucharest","moddate":"2013-04-21T00:00:00.000Z"},{"geonameid":665218,"name":"Teslui","asciiname":"Teslui","alternatenames":"Teslui","latitude":"44.5166700","longitude":"24.3666700","fclass":"P","fcode":"PPLA2","country":"RO","cc2":"","admin1":"29","admin2":"129380","admin3":"","admin4":"","population":2822,"elevation":0,"gtopo30":160,"timezone":"Europe/Bucharest","moddate":"2012-06-12T00:00:00.000Z"}],"admin3":[],"alternateNames":[]},"__N_SSG":true}