{"pageProps":{"locale":"ro","admin2":{"geonameid":665057,"name":"Comuna Ţânţăreni","country":"RO","admin1":"19","admin2":"82680","admin3":"","latitude":"44.6187400","longitude":"23.5428500"},"admin1":{"geonameid":676898,"name":"Gorj","admin1":"19"},"locations":[{"geonameid":686128,"name":"Arpadia","asciiname":"Arpadia","alternatenames":"","latitude":"44.6388200","longitude":"23.5760400","fclass":"P","fcode":"PPL","country":"RO","cc2":"","admin1":"19","admin2":"82680","admin3":"","admin4":"","population":93,"elevation":0,"gtopo30":188,"timezone":"Europe/Bucharest","moddate":"2013-04-21T00:00:00.000Z"},{"geonameid":682802,"name":"Căpiteni","asciiname":"Capiteni","alternatenames":"Capinteni,Capiteni,Căpinteni,Căpiteni","latitude":"44.6166700","longitude":"23.5166700","fclass":"P","fcode":"PPLX","country":"RO","cc2":"","admin1":"19","admin2":"82680","admin3":"","admin4":"","population":0,"elevation":0,"gtopo30":128,"timezone":"Europe/Bucharest","moddate":"2016-02-07T00:00:00.000Z"},{"geonameid":682144,"name":"Chiciora","asciiname":"Chiciora","alternatenames":"","latitude":"44.6217100","longitude":"23.5745900","fclass":"P","fcode":"PPL","country":"RO","cc2":"","admin1":"19","admin2":"82680","admin3":"","admin4":"","population":292,"elevation":0,"gtopo30":227,"timezone":"Europe/Bucharest","moddate":"2013-04-21T00:00:00.000Z"},{"geonameid":678065,"name":"Florești","asciiname":"Floresti","alternatenames":"","latitude":"44.6191800","longitude":"23.5283800","fclass":"P","fcode":"PPL","country":"RO","cc2":"","admin1":"19","admin2":"82680","admin3":"","admin4":"","population":2917,"elevation":0,"gtopo30":142,"timezone":"Europe/Bucharest","moddate":"2013-04-21T00:00:00.000Z"},{"geonameid":665059,"name":"Ţânţăreni","asciiname":"Tantareni","alternatenames":"Tantarea,Tantareni,Tintareni,Tăntarea,Ţânţăreni,Ţînţăreni","latitude":"44.6000000","longitude":"23.4833300","fclass":"P","fcode":"PPLA2","country":"RO","cc2":"RO","admin1":"19","admin2":"82680","admin3":"","admin4":"","population":0,"elevation":0,"gtopo30":110,"timezone":"Europe/Bucharest","moddate":"2012-06-12T00:00:00.000Z"}],"admin3":[],"alternateNames":[]},"__N_SSG":true}