{"pageProps":{"locale":"ro","admin2":{"geonameid":686526,"name":"Comuna Albota","country":"RO","admin1":"03","admin2":"13935","admin3":"","latitude":"44.7828700","longitude":"24.8183800"},"admin1":{"geonameid":686192,"name":"Argeş","admin1":"03"},"locations":[{"geonameid":686523,"name":"Albota","asciiname":"Albota","alternatenames":"","latitude":"44.7833300","longitude":"24.8500000","fclass":"P","fcode":"PPLA2","country":"RO","cc2":"","admin1":"03","admin2":"13935","admin3":"","admin4":"","population":1865,"elevation":0,"gtopo30":302,"timezone":"Europe/Bucharest","moddate":"2015-11-10T00:00:00.000Z"},{"geonameid":686524,"name":"Albota de Jos","asciiname":"Albota de Jos","alternatenames":"Albota de Jos,Mosteni,Moşteni","latitude":"44.7666700","longitude":"24.8333300","fclass":"P","fcode":"PPL","country":"RO","cc2":"","admin1":"03","admin2":"13935","admin3":"","admin4":"","population":3866,"elevation":0,"gtopo30":312,"timezone":"Europe/Bucharest","moddate":"2016-02-07T00:00:00.000Z"},{"geonameid":686134,"name":"Arnota","asciiname":"Arnota","alternatenames":"","latitude":"44.7666700","longitude":"24.8166700","fclass":"P","fcode":"PPLX","country":"RO","cc2":"","admin1":"03","admin2":"13935","admin3":"","admin4":"","population":0,"elevation":0,"gtopo30":287,"timezone":"Europe/Bucharest","moddate":"2016-02-07T00:00:00.000Z"},{"geonameid":682383,"name":"Cerbu","asciiname":"Cerbu","alternatenames":"Cerbu,Cerbul,Garbul","latitude":"44.7582800","longitude":"24.8209300","fclass":"P","fcode":"PPL","country":"RO","cc2":"RO","admin1":"03","admin2":"13935","admin3":"","admin4":"","population":737,"elevation":0,"gtopo30":309,"timezone":"Europe/Bucharest","moddate":"2013-04-21T00:00:00.000Z"},{"geonameid":678651,"name":"Dumitreşti","asciiname":"Dumitresti","alternatenames":"","latitude":"44.8000000","longitude":"24.8333300","fclass":"P","fcode":"PPLX","country":"RO","cc2":"","admin1":"03","admin2":"13935","admin3":"","admin4":"","population":0,"elevation":0,"gtopo30":307,"timezone":"Europe/Bucharest","moddate":"2016-02-07T00:00:00.000Z"},{"geonameid":677917,"name":"Frătești","asciiname":"Fratesti","alternatenames":"","latitude":"44.7998600","longitude":"24.7903100","fclass":"P","fcode":"PPL","country":"RO","cc2":"","admin1":"03","admin2":"13935","admin3":"","admin4":"","population":78,"elevation":0,"gtopo30":354,"timezone":"Europe/Bucharest","moddate":"2013-04-21T00:00:00.000Z"},{"geonameid":676766,"name":"Grebleşti","asciiname":"Greblesti","alternatenames":"","latitude":"44.7666700","longitude":"24.8166700","fclass":"P","fcode":"PPLX","country":"RO","cc2":"","admin1":"03","admin2":"13935","admin3":"","admin4":"","population":0,"elevation":0,"gtopo30":287,"timezone":"Europe/Bucharest","moddate":"2016-02-07T00:00:00.000Z"},{"geonameid":676469,"name":"Gura Văii","asciiname":"Gura Vaii","alternatenames":"","latitude":"44.7968800","longitude":"24.8407900","fclass":"P","fcode":"PPL","country":"RO","cc2":"","admin1":"03","admin2":"13935","admin3":"","admin4":"","population":360,"elevation":0,"gtopo30":299,"timezone":"Europe/Bucharest","moddate":"2013-04-21T00:00:00.000Z"},{"geonameid":673834,"name":"Mareș","asciiname":"Mares","alternatenames":"","latitude":"44.7782400","longitude":"24.7900500","fclass":"P","fcode":"PPL","country":"RO","cc2":"","admin1":"03","admin2":"13935","admin3":"","admin4":"","population":1077,"elevation":0,"gtopo30":310,"timezone":"Europe/Bucharest","moddate":"2013-04-21T00:00:00.000Z"},{"geonameid":664782,"name":"Toneşti","asciiname":"Tonesti","alternatenames":"Tonesti,Tonestii,Toneşti","latitude":"44.7833300","longitude":"24.7833300","fclass":"P","fcode":"PPLX","country":"RO","cc2":"","admin1":"03","admin2":"13935","admin3":"","admin4":"","population":0,"elevation":0,"gtopo30":313,"timezone":"Europe/Bucharest","moddate":"2020-06-10T00:00:00.000Z"}],"admin3":[],"alternateNames":[]},"__N_SSG":true}