{"pageProps":{"locale":"ro","admin2":{"geonameid":665103,"name":"Comuna Tileagd","country":"RO","admin1":"05","admin2":"31716","admin3":"","latitude":"47.0655600","longitude":"22.2070700"},"admin1":{"geonameid":684878,"name":"Bihor","admin1":"05"},"locations":[{"geonameid":685709,"name":"Bălaia","asciiname":"Balaia","alternatenames":"","latitude":"47.1080900","longitude":"22.1719800","fclass":"P","fcode":"PPL","country":"RO","cc2":"","admin1":"05","admin2":"31716","admin3":"","admin4":"","population":831,"elevation":0,"gtopo30":190,"timezone":"Europe/Bucharest","moddate":"2013-04-21T00:00:00.000Z"},{"geonameid":683006,"name":"Călătani","asciiname":"Calatani","alternatenames":"Calatani,Calateni,Călătani,Călăţeni","latitude":"47.0468500","longitude":"22.1958100","fclass":"P","fcode":"PPL","country":"RO","cc2":"RO","admin1":"05","admin2":"31716","admin3":"","admin4":"","population":224,"elevation":0,"gtopo30":177,"timezone":"Europe/Bucharest","moddate":"2013-04-21T00:00:00.000Z"},{"geonameid":669796,"name":"Poșoloaca","asciiname":"Posoloaca","alternatenames":"Posalaca,Posalca,Posolaca,Poşalaca,Poşalca,Poşolaca","latitude":"47.0626500","longitude":"22.2414200","fclass":"P","fcode":"PPL","country":"RO","cc2":"RO","admin1":"05","admin2":"31716","admin3":"","admin4":"","population":373,"elevation":0,"gtopo30":182,"timezone":"Europe/Bucharest","moddate":"2013-04-21T00:00:00.000Z"},{"geonameid":665104,"name":"Tileagd","asciiname":"Tileagd","alternatenames":"Telegd,Tileagd","latitude":"47.0666700","longitude":"22.2000000","fclass":"P","fcode":"PPLA2","country":"RO","cc2":"","admin1":"05","admin2":"31716","admin3":"","admin4":"","population":6994,"elevation":0,"gtopo30":172,"timezone":"Europe/Bucharest","moddate":"2012-06-12T00:00:00.000Z"},{"geonameid":665102,"name":"Tilecuș","asciiname":"Tilecus","alternatenames":"","latitude":"47.0224400","longitude":"22.2183400","fclass":"P","fcode":"PPL","country":"RO","cc2":"","admin1":"05","admin2":"31716","admin3":"","admin4":"","population":970,"elevation":0,"gtopo30":211,"timezone":"Europe/Bucharest","moddate":"2013-04-21T00:00:00.000Z"},{"geonameid":664351,"name":"Uileacu de Criș","asciiname":"Uileacu de Cris","alternatenames":"Uileacu,Uileacu de Cris,Uileacu de Criş,Uileacul-de-Cris,Uileacul-de-Criş,Uilead-de-Cris,Uilead-de-Criş","latitude":"47.0815200","longitude":"22.2141500","fclass":"P","fcode":"PPL","country":"RO","cc2":"RO","admin1":"05","admin2":"31716","admin3":"","admin4":"","population":904,"elevation":0,"gtopo30":179,"timezone":"Europe/Bucharest","moddate":"2013-04-21T00:00:00.000Z"}],"admin3":[],"alternateNames":[]},"__N_SSG":true}