{"pageProps":{"locale":"ro","admin2":{"geonameid":680530,"name":"Comuna Costuleni","country":"RO","admin1":"23","admin2":"96423","admin3":"","latitude":"47.0105500","longitude":"27.8582900"},"admin1":{"geonameid":675809,"name":"Iaşi","admin1":"23"},"locations":[{"geonameid":680531,"name":"Costuleni","asciiname":"Costuleni","alternatenames":"","latitude":"47.0333300","longitude":"27.8500000","fclass":"P","fcode":"PPLA2","country":"RO","cc2":"","admin1":"23","admin2":"96423","admin3":"","admin4":"","population":4911,"elevation":0,"gtopo30":96,"timezone":"Europe/Bucharest","moddate":"2012-06-12T00:00:00.000Z"},{"geonameid":680429,"name":"Covasna","asciiname":"Covasna","alternatenames":"","latitude":"47.0025500","longitude":"27.8510600","fclass":"P","fcode":"PPL","country":"RO","cc2":"","admin1":"23","admin2":"96423","admin3":"","admin4":"","population":1403,"elevation":0,"gtopo30":114,"timezone":"Europe/Bucharest","moddate":"2013-04-21T00:00:00.000Z"},{"geonameid":680409,"name":"Cozia","asciiname":"Cozia","alternatenames":"","latitude":"47.0031900","longitude":"27.8943400","fclass":"P","fcode":"PPL","country":"RO","cc2":"","admin1":"23","admin2":"96423","admin3":"","admin4":"","population":1133,"elevation":0,"gtopo30":160,"timezone":"Europe/Bucharest","moddate":"2013-04-21T00:00:00.000Z"},{"geonameid":676193,"name":"Hilița","asciiname":"Hilita","alternatenames":"","latitude":"47.0074000","longitude":"27.8245300","fclass":"P","fcode":"PPL","country":"RO","cc2":"","admin1":"23","admin2":"96423","admin3":"","admin4":"","population":765,"elevation":0,"gtopo30":144,"timezone":"Europe/Bucharest","moddate":"2013-04-21T00:00:00.000Z"}],"admin3":[],"alternateNames":[]},"__N_SSG":true}