{"pageProps":{"locale":"ro","admin2":{"geonameid":680567,"name":"Oraș Costeşti","country":"RO","admin1":"03","admin2":"13668","admin3":"","latitude":"44.6666700","longitude":"24.8833300"},"admin1":{"geonameid":686192,"name":"Argeş","admin1":"03"},"locations":[{"geonameid":683648,"name":"Broșteni","asciiname":"Brosteni","alternatenames":"","latitude":"44.7166100","longitude":"24.8671500","fclass":"P","fcode":"PPL","country":"RO","cc2":"","admin1":"03","admin2":"13668","admin3":"","admin4":"","population":670,"elevation":0,"gtopo30":255,"timezone":"Europe/Bucharest","moddate":"2013-04-21T00:00:00.000Z"},{"geonameid":680581,"name":"Costeşti","asciiname":"Costesti","alternatenames":"Costesti,Costeşti","latitude":"44.6666700","longitude":"24.8833300","fclass":"P","fcode":"PPLA2","country":"RO","cc2":"","admin1":"03","admin2":"13668","admin3":"","admin4":"","population":10654,"elevation":0,"gtopo30":231,"timezone":"Europe/Bucharest","moddate":"2012-06-12T00:00:00.000Z"},{"geonameid":679705,"name":"Datcu","asciiname":"Datcu","alternatenames":"Datcu,Datcul","latitude":"44.7000000","longitude":"24.8666700","fclass":"P","fcode":"PPL","country":"RO","cc2":"","admin1":"03","admin2":"13668","admin3":"","admin4":"","population":0,"elevation":0,"gtopo30":245,"timezone":"Europe/Bucharest","moddate":"2016-02-07T00:00:00.000Z"},{"geonameid":675119,"name":"Lăceni","asciiname":"Laceni","alternatenames":"","latitude":"44.7165600","longitude":"24.8763400","fclass":"P","fcode":"PPL","country":"RO","cc2":"","admin1":"03","admin2":"13668","admin3":"","admin4":"","population":260,"elevation":0,"gtopo30":275,"timezone":"Europe/Bucharest","moddate":"2013-04-21T00:00:00.000Z"},{"geonameid":670713,"name":"Pârvu Roșu","asciiname":"Parvu Rosu","alternatenames":"Parvul Rosu,Piriu Rosu,Pârvul Rosu,Pîrîu Roşu","latitude":"44.7333300","longitude":"24.9000000","fclass":"P","fcode":"PPL","country":"RO","cc2":"","admin1":"03","admin2":"13668","admin3":"","admin4":"","population":643,"elevation":0,"gtopo30":287,"timezone":"Europe/Bucharest","moddate":"2015-11-10T00:00:00.000Z"},{"geonameid":670313,"name":"Podu Broșteni","asciiname":"Podu Brosteni","alternatenames":"Podu Brosteni,Podu Broşteni,Podul Brosteni,Podul Broşteni","latitude":"44.7430200","longitude":"24.8571400","fclass":"P","fcode":"PPL","country":"RO","cc2":"RO","admin1":"03","admin2":"13668","admin3":"","admin4":"","population":568,"elevation":0,"gtopo30":265,"timezone":"Europe/Bucharest","moddate":"2013-04-21T00:00:00.000Z"},{"geonameid":666638,"name":"Smei","asciiname":"Smei","alternatenames":"","latitude":"44.7297400","longitude":"24.8412200","fclass":"P","fcode":"PPL","country":"RO","cc2":"","admin1":"03","admin2":"13668","admin3":"","admin4":"","population":199,"elevation":0,"gtopo30":289,"timezone":"Europe/Bucharest","moddate":"2013-04-21T00:00:00.000Z"},{"geonameid":666099,"name":"Stârci","asciiname":"Starci","alternatenames":"Starcii-de Jos,Stircii de Jos,Stârcii-de Jos,Stîrcii de Jos","latitude":"44.6833300","longitude":"24.8333300","fclass":"P","fcode":"PPL","country":"RO","cc2":"","admin1":"03","admin2":"13668","admin3":"","admin4":"","population":252,"elevation":0,"gtopo30":254,"timezone":"Europe/Bucharest","moddate":"2015-11-10T00:00:00.000Z"},{"geonameid":666098,"name":"Stârcii de Sus","asciiname":"Starcii de Sus","alternatenames":"Starcii de Sus,Starcii-de Sus,Stircii de Sus,Stârcii de Sus,Stârcii-de Sus,Stîrcii de Sus","latitude":"44.6666700","longitude":"24.8500000","fclass":"P","fcode":"PPLX","country":"RO","cc2":"RO","admin1":"03","admin2":"13668","admin3":"","admin4":"","population":0,"elevation":0,"gtopo30":255,"timezone":"Europe/Bucharest","moddate":"2020-03-08T00:00:00.000Z"},{"geonameid":666097,"name":"Stârciu","asciiname":"Starciu","alternatenames":"Starciu,Stirciu,Stârciu,Stîrciu","latitude":"44.6833300","longitude":"24.8500000","fclass":"P","fcode":"PPL","country":"RO","cc2":"","admin1":"03","admin2":"13668","admin3":"","admin4":"","population":0,"elevation":0,"gtopo30":262,"timezone":"Europe/Bucharest","moddate":"2020-03-08T00:00:00.000Z"},{"geonameid":664978,"name":"Ţârleşti","asciiname":"Tarlesti","alternatenames":"Tarlesti,Tirlesti,Ţârleşti,Ţîrleşti","latitude":"44.7000000","longitude":"24.8833300","fclass":"P","fcode":"PPL","country":"RO","cc2":"RO","admin1":"03","admin2":"13668","admin3":"","admin4":"","population":0,"elevation":0,"gtopo30":265,"timezone":"Europe/Bucharest","moddate":"2020-03-08T00:00:00.000Z"},{"geonameid":665296,"name":"Teleasca","asciiname":"Teleasca","alternatenames":"Teleasa,Teleasca","latitude":"44.6833300","longitude":"24.8833300","fclass":"P","fcode":"PPLX","country":"RO","cc2":"","admin1":"03","admin2":"13668","admin3":"","admin4":"","population":0,"elevation":0,"gtopo30":254,"timezone":"Europe/Bucharest","moddate":"2016-02-07T00:00:00.000Z"},{"geonameid":665279,"name":"Teleşti","asciiname":"Telesti","alternatenames":"","latitude":"44.6833300","longitude":"24.8666700","fclass":"P","fcode":"PPL","country":"RO","cc2":"","admin1":"03","admin2":"13668","admin3":"","admin4":"","population":0,"elevation":0,"gtopo30":239,"timezone":"Europe/Bucharest","moddate":"2016-02-07T00:00:00.000Z"},{"geonameid":662133,"name":"Zorile","asciiname":"Zorile","alternatenames":"Baseni,Băseni,Zorile","latitude":"44.6833300","longitude":"24.8500000","fclass":"P","fcode":"PPLX","country":"RO","cc2":"","admin1":"03","admin2":"13668","admin3":"","admin4":"","population":0,"elevation":0,"gtopo30":262,"timezone":"Europe/Bucharest","moddate":"2016-02-07T00:00:00.000Z"}],"admin3":[],"alternateNames":[]},"__N_SSG":true}