{"pageProps":{"locale":"ro","admin2":{"geonameid":665191,"name":"Comuna Ţibăneşti","country":"RO","admin1":"23","admin2":"99780","admin3":"","latitude":"46.9175700","longitude":"27.3354700"},"admin1":{"geonameid":675809,"name":"Iaşi","admin1":"23"},"locations":[{"geonameid":677037,"name":"Glodenii Gândului","asciiname":"Glodenii Gandului","alternatenames":"Garbesti-Tibanesti,Girbesti-Tibanesti,Glodenii Gindului,Glodenii Gîndului,Gârbeşti-Ţibăneşti,Gîrbeşti-Ţibăneşti","latitude":"46.9515800","longitude":"27.2993800","fclass":"P","fcode":"PPL","country":"RO","cc2":"RO","admin1":"23","admin2":"99780","admin3":"","admin4":"","population":2117,"elevation":0,"gtopo30":218,"timezone":"Europe/Bucharest","moddate":"2013-04-21T00:00:00.000Z"},{"geonameid":676732,"name":"Griești","asciiname":"Griesti","alternatenames":"","latitude":"46.9030600","longitude":"27.3757900","fclass":"P","fcode":"PPL","country":"RO","cc2":"","admin1":"23","admin2":"99780","admin3":"","admin4":"","population":239,"elevation":0,"gtopo30":151,"timezone":"Europe/Bucharest","moddate":"2013-04-21T00:00:00.000Z"},{"geonameid":675239,"name":"Jigoreni","asciiname":"Jigoreni","alternatenames":"","latitude":"46.8964400","longitude":"27.3141600","fclass":"P","fcode":"PPL","country":"RO","cc2":"","admin1":"23","admin2":"99780","admin3":"","admin4":"","population":625,"elevation":0,"gtopo30":201,"timezone":"Europe/Bucharest","moddate":"2013-04-21T00:00:00.000Z"},{"geonameid":669171,"name":"Răsboieni","asciiname":"Rasboieni","alternatenames":"Rasboeni,Rasboieni,Razboeni,Răsboeni,Răsboieni,Războeni","latitude":"46.9317600","longitude":"27.3171600","fclass":"P","fcode":"PPL","country":"RO","cc2":"RO","admin1":"23","admin2":"99780","admin3":"","admin4":"","population":740,"elevation":0,"gtopo30":166,"timezone":"Europe/Bucharest","moddate":"2013-04-21T00:00:00.000Z"},{"geonameid":669045,"name":"Recea","asciiname":"Recea","alternatenames":"","latitude":"46.9311800","longitude":"27.3883500","fclass":"P","fcode":"PPL","country":"RO","cc2":"","admin1":"23","admin2":"99780","admin3":"","admin4":"","population":203,"elevation":0,"gtopo30":264,"timezone":"Europe/Bucharest","moddate":"2013-04-21T00:00:00.000Z"},{"geonameid":665193,"name":"Ţibăneşti","asciiname":"Tibanesti","alternatenames":"Tibanesti,Ţibăneşti","latitude":"46.9166700","longitude":"27.3333300","fclass":"P","fcode":"PPLA2","country":"RO","cc2":"","admin1":"23","admin2":"99780","admin3":"","admin4":"","population":7662,"elevation":0,"gtopo30":150,"timezone":"Europe/Bucharest","moddate":"2012-06-12T00:00:00.000Z"},{"geonameid":664492,"name":"Tungujei","asciiname":"Tungujei","alternatenames":"","latitude":"46.9253900","longitude":"27.3659500","fclass":"P","fcode":"PPL","country":"RO","cc2":"","admin1":"23","admin2":"99780","admin3":"","admin4":"","population":648,"elevation":0,"gtopo30":215,"timezone":"Europe/Bucharest","moddate":"2013-04-21T00:00:00.000Z"},{"geonameid":663258,"name":"Vălenii","asciiname":"Valenii","alternatenames":"Gaureni,Găureni,Valenii,Vălenii","latitude":"46.8940900","longitude":"27.2848600","fclass":"P","fcode":"PPL","country":"RO","cc2":"RO","admin1":"23","admin2":"99780","admin3":"","admin4":"","population":385,"elevation":0,"gtopo30":284,"timezone":"Europe/Bucharest","moddate":"2013-04-20T00:00:00.000Z"}],"admin3":[],"alternateNames":[]},"__N_SSG":true}