{"pageProps":{"locale":"ro","admin2":{"geonameid":666640,"name":"Comuna Smeeni","country":"RO","admin1":"11","admin2":"49545","admin3":"","latitude":"44.9881600","longitude":"26.9126100"},"admin1":{"geonameid":683121,"name":"Buzău","admin1":"11"},"locations":[{"geonameid":686563,"name":"Albești","asciiname":"Albesti","alternatenames":"Albescii,Albesti,Albeşti","latitude":"44.9901700","longitude":"26.9260800","fclass":"P","fcode":"PPL","country":"RO","cc2":"RO","admin1":"11","admin2":"49545","admin3":"","admin4":"","population":952,"elevation":0,"gtopo30":72,"timezone":"Europe/Bucharest","moddate":"2013-04-21T00:00:00.000Z"},{"geonameid":10942289,"name":"Bălaia","asciiname":"Balaia","alternatenames":"","latitude":"45.0132300","longitude":"26.8294300","fclass":"P","fcode":"PPL","country":"RO","cc2":"","admin1":"11","admin2":"49545","admin3":"","admin4":"","population":219,"elevation":0,"gtopo30":71,"timezone":"Europe/Bucharest","moddate":"2015-11-20T00:00:00.000Z"},{"geonameid":682920,"name":"Călțuna","asciiname":"Caltuna","alternatenames":"Caituna,Caltuna,Coltuna,Colţuna,Căituna,Călţuna","latitude":"44.9638500","longitude":"26.9511200","fclass":"P","fcode":"PPL","country":"RO","cc2":"RO","admin1":"11","admin2":"49545","admin3":"","admin4":"","population":593,"elevation":0,"gtopo30":68,"timezone":"Europe/Bucharest","moddate":"2013-04-21T00:00:00.000Z"},{"geonameid":674561,"name":"Luceni","asciiname":"Luceni","alternatenames":"","latitude":"44.9666700","longitude":"26.9666700","fclass":"P","fcode":"PPLX","country":"RO","cc2":"","admin1":"11","admin2":"49545","admin3":"","admin4":"","population":0,"elevation":0,"gtopo30":66,"timezone":"Europe/Bucharest","moddate":"2016-02-07T00:00:00.000Z"},{"geonameid":672918,"name":"Moisica","asciiname":"Moisica","alternatenames":"","latitude":"44.9969000","longitude":"26.8924700","fclass":"P","fcode":"PPL","country":"RO","cc2":"","admin1":"11","admin2":"49545","admin3":"","admin4":"","population":366,"elevation":0,"gtopo30":71,"timezone":"Europe/Bucharest","moddate":"2013-04-21T00:00:00.000Z"},{"geonameid":668185,"name":"Sălcioara","asciiname":"Salcioara","alternatenames":"","latitude":"45.0000000","longitude":"26.8666700","fclass":"P","fcode":"PPL","country":"RO","cc2":"","admin1":"11","admin2":"49545","admin3":"","admin4":"","population":0,"elevation":0,"gtopo30":64,"timezone":"Europe/Bucharest","moddate":"2016-02-07T00:00:00.000Z"},{"geonameid":666641,"name":"Smeeni","asciiname":"Smeeni","alternatenames":"Smeeni","latitude":"44.9833300","longitude":"26.8500000","fclass":"P","fcode":"PPLA2","country":"RO","cc2":"","admin1":"11","admin2":"49545","admin3":"","admin4":"","population":7015,"elevation":0,"gtopo30":78,"timezone":"Europe/Bucharest","moddate":"2012-06-12T00:00:00.000Z"},{"geonameid":664376,"name":"Udați-Lucieni","asciiname":"Udati-Lucieni","alternatenames":"Udati-Lucieni,Udatii-Lucieni,Udaţi-Lucieni,Udaţii-Lucieni","latitude":"44.9712800","longitude":"26.9717100","fclass":"P","fcode":"PPL","country":"RO","cc2":"RO","admin1":"11","admin2":"49545","admin3":"","admin4":"","population":371,"elevation":0,"gtopo30":64,"timezone":"Europe/Bucharest","moddate":"2013-04-21T00:00:00.000Z"},{"geonameid":664375,"name":"Udaţi-Mânzu","asciiname":"Udati-Manzu","alternatenames":"Udati-Manzu,Udati-Minzu,Udatii-Manzu,Udatii-Mânzu,Udaţi-Mânzu,Udaţi-Mînzu","latitude":"44.9833300","longitude":"26.9500000","fclass":"P","fcode":"PPL","country":"RO","cc2":"RO","admin1":"11","admin2":"49545","admin3":"","admin4":"","population":0,"elevation":0,"gtopo30":67,"timezone":"Europe/Bucharest","moddate":"2020-03-08T00:00:00.000Z"}],"admin3":[],"alternateNames":[]},"__N_SSG":true}