{"pageProps":{"locale":"ro","admin2":{"geonameid":666675,"name":"Comuna Slobozia Bradului","country":"RO","admin1":"40","admin2":"177655","admin3":"","latitude":"45.4920300","longitude":"27.0397700"},"admin1":{"geonameid":662447,"name":"Vrancea","admin1":"40","localeAltName":"Vrancea"},"locations":[{"geonameid":680750,"name":"Cornetu","asciiname":"Cornetu","alternatenames":"","latitude":"45.5045600","longitude":"27.0530500","fclass":"P","fcode":"PPL","country":"RO","cc2":"","admin1":"40","admin2":"177655","admin3":"","admin4":"","population":1839,"elevation":0,"gtopo30":161,"timezone":"Europe/Bucharest","moddate":"2013-04-21T00:00:00.000Z"},{"geonameid":682676,"name":"Coroteni","asciiname":"Coroteni","alternatenames":"Caroteni,Coroteni","latitude":"45.4819000","longitude":"27.0281700","fclass":"P","fcode":"PPL","country":"RO","cc2":"RO","admin1":"40","admin2":"177655","admin3":"","admin4":"","population":937,"elevation":0,"gtopo30":277,"timezone":"Europe/Bucharest","moddate":"2013-04-21T00:00:00.000Z"},{"geonameid":674927,"name":"Leeşti","asciiname":"Leesti","alternatenames":"","latitude":"45.5000000","longitude":"27.0333300","fclass":"P","fcode":"PPL","country":"RO","cc2":"","admin1":"40","admin2":"177655","admin3":"","admin4":"","population":0,"elevation":0,"gtopo30":229,"timezone":"Europe/Bucharest","moddate":"2016-02-07T00:00:00.000Z"},{"geonameid":674797,"name":"Liești","asciiname":"Liesti","alternatenames":"","latitude":"45.4992400","longitude":"27.0510400","fclass":"P","fcode":"PPL","country":"RO","cc2":"","admin1":"40","admin2":"177655","admin3":"","admin4":"","population":223,"elevation":0,"gtopo30":182,"timezone":"Europe/Bucharest","moddate":"2013-04-21T00:00:00.000Z"},{"geonameid":671881,"name":"Olăreni","asciiname":"Olareni","alternatenames":"","latitude":"45.4850900","longitude":"27.0070200","fclass":"P","fcode":"PPL","country":"RO","cc2":"","admin1":"40","admin2":"177655","admin3":"","admin4":"","population":106,"elevation":0,"gtopo30":359,"timezone":"Europe/Bucharest","moddate":"2013-04-21T00:00:00.000Z"},{"geonameid":666676,"name":"Slobozia Bradului","asciiname":"Slobozia Bradului","alternatenames":"Slobozia,Slobozia Bradului","latitude":"45.5000000","longitude":"27.0500000","fclass":"P","fcode":"PPLA2","country":"RO","cc2":"","admin1":"40","admin2":"177655","admin3":"","admin4":"","population":5060,"elevation":0,"gtopo30":171,"timezone":"Europe/Bucharest","moddate":"2012-06-12T00:00:00.000Z"},{"geonameid":663912,"name":"Valea Beciului","asciiname":"Valea Beciului","alternatenames":"","latitude":"45.4906100","longitude":"27.0424700","fclass":"P","fcode":"PPL","country":"RO","cc2":"","admin1":"40","admin2":"177655","admin3":"","admin4":"","population":151,"elevation":0,"gtopo30":211,"timezone":"Europe/Bucharest","moddate":"2018-09-14T00:00:00.000Z"}],"admin3":[],"alternateNames":[{"alternatenameId":391637,"geonameid":662447,"isoLanguage":"ro","alternateName":"Vrancea","isPreferredName":true,"isShortName":true,"isColloquial":false,"isHistoric":false}]},"__N_SSG":true}