{"pageProps":{"locale":"ro","admin2":{"geonameid":682621,"name":"Comuna Olanu","country":"RO","admin1":"39","admin2":"171806","admin3":"","latitude":"44.8741600","longitude":"24.2916900"},"admin1":{"geonameid":662892,"name":"Vâlcea","admin1":"39"},"locations":[{"geonameid":682622,"name":"Casa Veche","asciiname":"Casa Veche","alternatenames":"","latitude":"44.8676400","longitude":"24.3167900","fclass":"P","fcode":"PPL","country":"RO","cc2":"","admin1":"39","admin2":"171806","admin3":"","admin4":"","population":881,"elevation":0,"gtopo30":212,"timezone":"Europe/Bucharest","moddate":"2013-04-21T00:00:00.000Z"},{"geonameid":681764,"name":"Cioboți","asciiname":"Cioboti","alternatenames":"","latitude":"44.8501800","longitude":"24.2906700","fclass":"P","fcode":"PPL","country":"RO","cc2":"","admin1":"39","admin2":"171806","admin3":"","admin4":"","population":852,"elevation":0,"gtopo30":195,"timezone":"Europe/Bucharest","moddate":"2013-04-21T00:00:00.000Z"},{"geonameid":678931,"name":"Drăgioiu","asciiname":"Dragioiu","alternatenames":"Dragoiu,Dragoiul,Drăgoiu","latitude":"44.8910500","longitude":"24.2918000","fclass":"P","fcode":"PPL","country":"RO","cc2":"RO","admin1":"39","admin2":"171806","admin3":"","admin4":"","population":736,"elevation":0,"gtopo30":212,"timezone":"Europe/Bucharest","moddate":"2013-04-21T00:00:00.000Z"},{"geonameid":672258,"name":"Nicolești","asciiname":"Nicolesti","alternatenames":"Nicolesti,Nicoleşti,Niculesti,Niculeşti","latitude":"44.8869200","longitude":"24.2663800","fclass":"P","fcode":"PPL","country":"RO","cc2":"RO","admin1":"39","admin2":"171806","admin3":"","admin4":"","population":145,"elevation":0,"gtopo30":185,"timezone":"Europe/Bucharest","moddate":"2013-04-21T00:00:00.000Z"},{"geonameid":671884,"name":"Olanu","asciiname":"Olanu","alternatenames":"","latitude":"44.8666700","longitude":"24.3000000","fclass":"P","fcode":"PPLA2","country":"RO","cc2":"","admin1":"39","admin2":"171806","admin3":"","admin4":"","population":524,"elevation":0,"gtopo30":200,"timezone":"Europe/Bucharest","moddate":"2016-01-08T00:00:00.000Z"},{"geonameid":666057,"name":"Stoicănești","asciiname":"Stoicanesti","alternatenames":"Stoicanenesti,Stoicanesti,Stoicăneneşti,Stoicăneşti","latitude":"44.8812700","longitude":"24.2909600","fclass":"P","fcode":"PPL","country":"RO","cc2":"RO","admin1":"39","admin2":"171806","admin3":"","admin4":"","population":398,"elevation":0,"gtopo30":211,"timezone":"Europe/Bucharest","moddate":"2013-04-21T00:00:00.000Z"}],"admin3":[],"alternateNames":[]},"__N_SSG":true}