{"pageProps":{"locale":"ro","admin2":{"geonameid":681870,"name":"Oraş Câmpeni","country":"RO","admin1":"01","admin2":"1455","admin3":"","latitude":"46.3849300","longitude":"23.0455300"},"admin1":{"geonameid":686581,"name":"Alba","admin1":"01"},"locations":[{"geonameid":684248,"name":"Bonceşti","asciiname":"Boncesti","alternatenames":"","latitude":"46.3668300","longitude":"23.0827000","fclass":"P","fcode":"PPL","country":"RO","cc2":"","admin1":"01","admin2":"1455","admin3":"","admin4":"","population":0,"elevation":0,"gtopo30":542,"timezone":"Europe/Bucharest","moddate":"2016-02-07T00:00:00.000Z"},{"geonameid":684191,"name":"Borlești","asciiname":"Borlesti","alternatenames":"","latitude":"46.4096900","longitude":"23.0063800","fclass":"P","fcode":"PPL","country":"RO","cc2":"","admin1":"01","admin2":"1455","admin3":"","admin4":"","population":141,"elevation":0,"gtopo30":957,"timezone":"Europe/Bucharest","moddate":"2013-04-21T00:00:00.000Z"},{"geonameid":684072,"name":"Botești","asciiname":"Botesti","alternatenames":"","latitude":"46.3841100","longitude":"23.0063200","fclass":"P","fcode":"PPL","country":"RO","cc2":"","admin1":"01","admin2":"1455","admin3":"","admin4":"","population":158,"elevation":0,"gtopo30":785,"timezone":"Europe/Bucharest","moddate":"2013-04-21T00:00:00.000Z"},{"geonameid":681876,"name":"Câmpeni","asciiname":"Campeni","alternatenames":"Campeni,Cimpeni,Câmpeni,Cîmpeni,Kimpen',Kimpeni,Opstina Campeni,Opština Câmpeni,Topanfalva,Topánfalva,ken pei ni,kmph,Кимпени,Кимпень,کمپه,肯佩尼","latitude":"46.3666700","longitude":"23.0500000","fclass":"P","fcode":"PPLA2","country":"RO","cc2":"","admin1":"01","admin2":"1455","admin3":"","admin4":"","population":7932,"elevation":0,"gtopo30":559,"timezone":"Europe/Bucharest","moddate":"2012-06-12T00:00:00.000Z"},{"geonameid":682289,"name":"Certege","asciiname":"Certege","alternatenames":"","latitude":"46.4141800","longitude":"23.0265400","fclass":"P","fcode":"PPL","country":"RO","cc2":"","admin1":"01","admin2":"1455","admin3":"","admin4":"","population":97,"elevation":0,"gtopo30":1008,"timezone":"Europe/Bucharest","moddate":"2013-04-21T00:00:00.000Z"},{"geonameid":681260,"name":"Coasta Vâscului","asciiname":"Coasta Vascului","alternatenames":"","latitude":"46.4130300","longitude":"23.0537900","fclass":"P","fcode":"PPL","country":"RO","cc2":"","admin1":"01","admin2":"1455","admin3":"","admin4":"","population":133,"elevation":0,"gtopo30":849,"timezone":"Europe/Bucharest","moddate":"2013-04-21T00:00:00.000Z"},{"geonameid":679766,"name":"Dănduț","asciiname":"Dandut","alternatenames":"","latitude":"46.3573500","longitude":"23.0898300","fclass":"P","fcode":"PPL","country":"RO","cc2":"","admin1":"01","admin2":"1455","admin3":"","admin4":"","population":73,"elevation":0,"gtopo30":729,"timezone":"Europe/Bucharest","moddate":"2015-11-07T00:00:00.000Z"},{"geonameid":679669,"name":"Dealu Bistrii","asciiname":"Dealu Bistrii","alternatenames":"","latitude":"46.3653500","longitude":"23.0739500","fclass":"P","fcode":"PPL","country":"RO","cc2":"","admin1":"01","admin2":"1455","admin3":"","admin4":"","population":0,"elevation":0,"gtopo30":678,"timezone":"Europe/Bucharest","moddate":"2016-02-07T00:00:00.000Z"},{"geonameid":679663,"name":"Dealu Capsei","asciiname":"Dealu Capsei","alternatenames":"","latitude":"46.4051500","longitude":"23.0677000","fclass":"P","fcode":"PPL","country":"RO","cc2":"","admin1":"01","admin2":"1455","admin3":"","admin4":"","population":318,"elevation":0,"gtopo30":956,"timezone":"Europe/Bucharest","moddate":"2013-04-21T00:00:00.000Z"},{"geonameid":678834,"name":"Dric","asciiname":"Dric","alternatenames":"","latitude":"46.4045500","longitude":"23.0453400","fclass":"P","fcode":"PPL","country":"RO","cc2":"","admin1":"01","admin2":"1455","admin3":"","admin4":"","population":154,"elevation":0,"gtopo30":903,"timezone":"Europe/Bucharest","moddate":"2013-04-21T00:00:00.000Z"},{"geonameid":678833,"name":"Dricu Certejii","asciiname":"Dricu Certejii","alternatenames":"","latitude":"46.4000000","longitude":"23.0333300","fclass":"P","fcode":"PPLX","country":"RO","cc2":"","admin1":"01","admin2":"1455","admin3":"","admin4":"","population":0,"elevation":0,"gtopo30":884,"timezone":"Europe/Bucharest","moddate":"2016-02-07T00:00:00.000Z"},{"geonameid":678416,"name":"Fața Abrudului","asciiname":"Fata Abrudului","alternatenames":"","latitude":"46.3489100","longitude":"23.0590800","fclass":"P","fcode":"PPL","country":"RO","cc2":"","admin1":"01","admin2":"1455","admin3":"","admin4":"","population":161,"elevation":0,"gtopo30":707,"timezone":"Europe/Bucharest","moddate":"2013-04-21T00:00:00.000Z"},{"geonameid":678055,"name":"Florești","asciiname":"Floresti","alternatenames":"Flocesti,Floceşti,Floresti,Floreşti","latitude":"46.3905900","longitude":"23.0197000","fclass":"P","fcode":"PPL","country":"RO","cc2":"RO","admin1":"01","admin2":"1455","admin3":"","admin4":"","population":179,"elevation":0,"gtopo30":927,"timezone":"Europe/Bucharest","moddate":"2013-04-21T00:00:00.000Z"},{"geonameid":677763,"name":"Furduiești","asciiname":"Furduiesti","alternatenames":"","latitude":"46.3360900","longitude":"23.0794700","fclass":"P","fcode":"PPL","country":"RO","cc2":"","admin1":"01","admin2":"1455","admin3":"","admin4":"","population":96,"elevation":0,"gtopo30":868,"timezone":"Europe/Bucharest","moddate":"2013-04-21T00:00:00.000Z"},{"geonameid":673348,"name":"Mihoești","asciiname":"Mihoesti","alternatenames":"","latitude":"46.3701800","longitude":"23.0271400","fclass":"P","fcode":"PPL","country":"RO","cc2":"","admin1":"01","admin2":"1455","admin3":"","admin4":"","population":186,"elevation":0,"gtopo30":582,"timezone":"Europe/Bucharest","moddate":"2013-04-21T00:00:00.000Z"},{"geonameid":672762,"name":"Motorăști","asciiname":"Motorasti","alternatenames":"Motorasti,Motorestii,Motoreştii,Motorăşti","latitude":"46.3771900","longitude":"23.0427300","fclass":"P","fcode":"PPL","country":"RO","cc2":"RO","admin1":"01","admin2":"1455","admin3":"","admin4":"","population":108,"elevation":0,"gtopo30":645,"timezone":"Europe/Bucharest","moddate":"2013-04-21T00:00:00.000Z"},{"geonameid":671056,"name":"Peste Valea Bistrii","asciiname":"Peste Valea Bistrii","alternatenames":"","latitude":"46.4367900","longitude":"23.0418500","fclass":"P","fcode":"PPL","country":"RO","cc2":"","admin1":"01","admin2":"1455","admin3":"","admin4":"","population":31,"elevation":0,"gtopo30":1049,"timezone":"Europe/Bucharest","moddate":"2015-11-08T00:00:00.000Z"},{"geonameid":670275,"name":"Poduri","asciiname":"Poduri","alternatenames":"","latitude":"46.3541600","longitude":"23.0531800","fclass":"P","fcode":"PPL","country":"RO","cc2":"","admin1":"01","admin2":"1455","admin3":"","admin4":"","population":0,"elevation":0,"gtopo30":712,"timezone":"Europe/Bucharest","moddate":"2016-02-07T00:00:00.000Z"},{"geonameid":669706,"name":"Precupeşti","asciiname":"Precupesti","alternatenames":"","latitude":"46.4333300","longitude":"23.0166700","fclass":"P","fcode":"PPLX","country":"RO","cc2":"","admin1":"01","admin2":"1455","admin3":"","admin4":"","population":0,"elevation":0,"gtopo30":1093,"timezone":"Europe/Bucharest","moddate":"2016-02-07T00:00:00.000Z"},{"geonameid":666422,"name":"Sorlița","asciiname":"Sorlita","alternatenames":"","latitude":"46.3717700","longitude":"23.0159400","fclass":"P","fcode":"PPLX","country":"RO","cc2":"","admin1":"01","admin2":"1455","admin3":"","admin4":"","population":35,"elevation":0,"gtopo30":570,"timezone":"Europe/Bucharest","moddate":"2013-04-21T00:00:00.000Z"},{"geonameid":664803,"name":"Tomușești","asciiname":"Tomusesti","alternatenames":"","latitude":"46.4524000","longitude":"23.0143200","fclass":"P","fcode":"PPLX","country":"RO","cc2":"","admin1":"01","admin2":"1455","admin3":"","admin4":"","population":85,"elevation":0,"gtopo30":1167,"timezone":"Europe/Bucharest","moddate":"2013-04-21T00:00:00.000Z"},{"geonameid":663902,"name":"Valea Bistrii","asciiname":"Valea Bistrii","alternatenames":"","latitude":"46.3800900","longitude":"23.0686000","fclass":"P","fcode":"PPL","country":"RO","cc2":"","admin1":"01","admin2":"1455","admin3":"","admin4":"","population":379,"elevation":0,"gtopo30":626,"timezone":"Europe/Bucharest","moddate":"2013-04-20T00:00:00.000Z"},{"geonameid":663852,"name":"Valea Caselor","asciiname":"Valea Caselor","alternatenames":"","latitude":"46.3983600","longitude":"23.0336200","fclass":"P","fcode":"PPL","country":"RO","cc2":"","admin1":"01","admin2":"1455","admin3":"","admin4":"","population":141,"elevation":0,"gtopo30":860,"timezone":"Europe/Bucharest","moddate":"2013-04-20T00:00:00.000Z"},{"geonameid":662749,"name":"Vârși","asciiname":"Varsi","alternatenames":"","latitude":"46.3548500","longitude":"23.0734600","fclass":"P","fcode":"PPL","country":"RO","cc2":"","admin1":"01","admin2":"1455","admin3":"","admin4":"","population":156,"elevation":0,"gtopo30":589,"timezone":"Europe/Bucharest","moddate":"2015-11-08T00:00:00.000Z"}],"admin3":[],"alternateNames":[]},"__N_SSG":true}