{"pageProps":{"locale":"ro","admin2":{"geonameid":8306597,"name":"Oraş Buhuşi","country":"RO","admin1":"04","admin2":"20778","admin3":"","latitude":"46.7184500","longitude":"26.6995200"},"admin1":{"geonameid":685947,"name":"Bacău","admin1":"04"},"locations":[{"geonameid":683433,"name":"Budeşti","asciiname":"Budesti","alternatenames":"Bodesti,Bodeşti,Budesti,Budeşti","latitude":"46.7166700","longitude":"26.7000000","fclass":"P","fcode":"PPLX","country":"RO","cc2":"","admin1":"04","admin2":"20778","admin3":"","admin4":"","population":0,"elevation":0,"gtopo30":254,"timezone":"Europe/Bucharest","moddate":"2016-02-07T00:00:00.000Z"},{"geonameid":683426,"name":"Budeştii-Buhuşi","asciiname":"Budestii-Buhusi","alternatenames":"","latitude":"46.7166700","longitude":"26.7000000","fclass":"P","fcode":"PPLX","country":"RO","cc2":"","admin1":"04","admin2":"20778","admin3":"","admin4":"","population":0,"elevation":0,"gtopo30":254,"timezone":"Europe/Bucharest","moddate":"2016-02-07T00:00:00.000Z"},{"geonameid":683365,"name":"Buhuşi","asciiname":"Buhusi","alternatenames":"Buhus,Buhusi,Buhuş,Buhuşi","latitude":"46.7166700","longitude":"26.7000000","fclass":"P","fcode":"PPLA2","country":"RO","cc2":"","admin1":"04","admin2":"20778","admin3":"","admin4":"","population":18395,"elevation":0,"gtopo30":254,"timezone":"Europe/Bucharest","moddate":"2012-06-12T00:00:00.000Z"},{"geonameid":682377,"name":"Cerbu","asciiname":"Cerbu","alternatenames":"","latitude":"46.7166700","longitude":"26.6833300","fclass":"P","fcode":"PPLX","country":"RO","cc2":"","admin1":"04","admin2":"20778","admin3":"","admin4":"","population":0,"elevation":0,"gtopo30":212,"timezone":"Europe/Bucharest","moddate":"2016-02-07T00:00:00.000Z"},{"geonameid":681690,"name":"Ciolpani","asciiname":"Ciolpani","alternatenames":"","latitude":"46.7500000","longitude":"26.7166700","fclass":"P","fcode":"PPLX","country":"RO","cc2":"","admin1":"04","admin2":"20778","admin3":"","admin4":"","population":0,"elevation":0,"gtopo30":376,"timezone":"Europe/Bucharest","moddate":"2016-02-07T00:00:00.000Z"},{"geonameid":673805,"name":"Marginea","asciiname":"Marginea","alternatenames":"","latitude":"46.7293800","longitude":"26.7276800","fclass":"P","fcode":"PPLX","country":"RO","cc2":"","admin1":"04","admin2":"20778","admin3":"","admin4":"","population":153,"elevation":0,"gtopo30":310,"timezone":"Europe/Bucharest","moddate":"2013-04-21T00:00:00.000Z"},{"geonameid":672992,"name":"Mocani","asciiname":"Mocani","alternatenames":"","latitude":"46.7333300","longitude":"26.7000000","fclass":"P","fcode":"PPLX","country":"RO","cc2":"","admin1":"04","admin2":"20778","admin3":"","admin4":"","population":0,"elevation":0,"gtopo30":283,"timezone":"Europe/Bucharest","moddate":"2016-02-07T00:00:00.000Z"},{"geonameid":671730,"name":"Orbicu","asciiname":"Orbicu","alternatenames":"","latitude":"46.7500000","longitude":"26.6833300","fclass":"P","fcode":"PPLX","country":"RO","cc2":"","admin1":"04","admin2":"20778","admin3":"","admin4":"","population":0,"elevation":0,"gtopo30":243,"timezone":"Europe/Bucharest","moddate":"2016-02-07T00:00:00.000Z"},{"geonameid":670754,"name":"Pârâ Runcu","asciiname":"Para Runcu","alternatenames":"","latitude":"46.7166700","longitude":"26.7000000","fclass":"P","fcode":"PPLX","country":"RO","cc2":"","admin1":"04","admin2":"20778","admin3":"","admin4":"","population":0,"elevation":0,"gtopo30":254,"timezone":"Europe/Bucharest","moddate":"2016-02-07T00:00:00.000Z"},{"geonameid":668459,"name":"Runcu","asciiname":"Runcu","alternatenames":"Runc,Runcu","latitude":"46.7479500","longitude":"26.7462000","fclass":"P","fcode":"PPLX","country":"RO","cc2":"RO","admin1":"04","admin2":"20778","admin3":"","admin4":"","population":113,"elevation":0,"gtopo30":403,"timezone":"Europe/Bucharest","moddate":"2013-04-21T00:00:00.000Z"},{"geonameid":667637,"name":"Schitu-Runcu","asciiname":"Schitu-Runcu","alternatenames":"","latitude":"46.7166700","longitude":"26.7000000","fclass":"P","fcode":"PPLX","country":"RO","cc2":"","admin1":"04","admin2":"20778","admin3":"","admin4":"","population":0,"elevation":0,"gtopo30":254,"timezone":"Europe/Bucharest","moddate":"2016-02-07T00:00:00.000Z"}],"admin3":[],"alternateNames":[]},"__N_SSG":true}