{"pageProps":{"locale":"ro","admin2":{"geonameid":672956,"name":"Comuna Mogoş","country":"RO","admin1":"01","admin2":"5826","admin3":"","latitude":"46.2835600","longitude":"23.3187300"},"admin1":{"geonameid":686581,"name":"Alba","admin1":"01"},"locations":[{"geonameid":685379,"name":"Bărbești","asciiname":"Barbesti","alternatenames":"","latitude":"46.2759900","longitude":"23.3320800","fclass":"P","fcode":"PPL","country":"RO","cc2":"","admin1":"01","admin2":"5826","admin3":"","admin4":"","population":49,"elevation":0,"gtopo30":801,"timezone":"Europe/Bucharest","moddate":"2013-04-21T00:00:00.000Z"},{"geonameid":684796,"name":"Bârleşti","asciiname":"Barlesti","alternatenames":"Barlesti,Birlesti,Bârleşti,Bîrleşti,Mogos Barlesti,Mogos Birlesti,Mogos Bârleşti,Mogoş Bîrlesti","latitude":"46.2666700","longitude":"23.2833300","fclass":"P","fcode":"PPL","country":"RO","cc2":"RO","admin1":"01","admin2":"5826","admin3":"","admin4":"","population":0,"elevation":0,"gtopo30":798,"timezone":"Europe/Bucharest","moddate":"2020-03-08T00:00:00.000Z"},{"geonameid":684791,"name":"Bârleşti-Cătun","asciiname":"Barlesti-Catun","alternatenames":"","latitude":"46.2870800","longitude":"23.3798800","fclass":"P","fcode":"PPL","country":"RO","cc2":"","admin1":"01","admin2":"5826","admin3":"","admin4":"","population":0,"elevation":0,"gtopo30":660,"timezone":"Europe/Bucharest","moddate":"2015-11-06T00:00:00.000Z"},{"geonameid":684625,"name":"Bârzogani","asciiname":"Barzogani","alternatenames":"","latitude":"46.3000000","longitude":"23.3333300","fclass":"P","fcode":"PPL","country":"RO","cc2":"","admin1":"01","admin2":"5826","admin3":"","admin4":"","population":22,"elevation":0,"gtopo30":996,"timezone":"Europe/Bucharest","moddate":"2015-11-08T00:00:00.000Z"},{"geonameid":684500,"name":"Bocești","asciiname":"Bocesti","alternatenames":"Bocesti,Boceşti,Bozesti,Bozeşti","latitude":"46.2842200","longitude":"23.3470600","fclass":"P","fcode":"PPL","country":"RO","cc2":"RO","admin1":"01","admin2":"5826","admin3":"","admin4":"","population":37,"elevation":0,"gtopo30":782,"timezone":"Europe/Bucharest","moddate":"2013-04-21T00:00:00.000Z"},{"geonameid":684397,"name":"Bogdănești","asciiname":"Bogdanesti","alternatenames":"","latitude":"46.2917900","longitude":"23.3481200","fclass":"P","fcode":"PPL","country":"RO","cc2":"","admin1":"01","admin2":"5826","admin3":"","admin4":"","population":21,"elevation":0,"gtopo30":843,"timezone":"Europe/Bucharest","moddate":"2013-04-21T00:00:00.000Z"},{"geonameid":683156,"name":"Butești","asciiname":"Butesti","alternatenames":"","latitude":"46.2975500","longitude":"23.3489900","fclass":"P","fcode":"PPL","country":"RO","cc2":"","admin1":"01","admin2":"5826","admin3":"","admin4":"","population":54,"elevation":0,"gtopo30":906,"timezone":"Europe/Bucharest","moddate":"2013-04-21T00:00:00.000Z"},{"geonameid":682610,"name":"Căşeşti","asciiname":"Casesti","alternatenames":"","latitude":"46.2833300","longitude":"23.2833300","fclass":"P","fcode":"PPL","country":"RO","cc2":"","admin1":"01","admin2":"5826","admin3":"","admin4":"","population":0,"elevation":0,"gtopo30":931,"timezone":"Europe/Bucharest","moddate":"2016-02-07T00:00:00.000Z"},{"geonameid":681147,"name":"Cojocani","asciiname":"Cojocani","alternatenames":"Cojocani,Mogos Cojocani,Mogoş Cojocani","latitude":"46.2829000","longitude":"23.3684900","fclass":"P","fcode":"PPL","country":"RO","cc2":"RO","admin1":"01","admin2":"5826","admin3":"","admin4":"","population":72,"elevation":0,"gtopo30":664,"timezone":"Europe/Bucharest","moddate":"2013-04-21T00:00:00.000Z"},{"geonameid":680183,"name":"Cristești","asciiname":"Cristesti","alternatenames":"","latitude":"46.2796600","longitude":"23.3043900","fclass":"P","fcode":"PPL","country":"RO","cc2":"","admin1":"01","admin2":"5826","admin3":"","admin4":"","population":90,"elevation":0,"gtopo30":1004,"timezone":"Europe/Bucharest","moddate":"2013-04-21T00:00:00.000Z"},{"geonameid":678835,"name":"Drevedeni","asciiname":"Drevedeni","alternatenames":"","latitude":"46.2833300","longitude":"23.2833300","fclass":"P","fcode":"PPL","country":"RO","cc2":"","admin1":"01","admin2":"5826","admin3":"","admin4":"","population":0,"elevation":0,"gtopo30":931,"timezone":"Europe/Bucharest","moddate":"2016-02-07T00:00:00.000Z"},{"geonameid":673955,"name":"Mămăligani","asciiname":"Mamaligani","alternatenames":"Mamaligani,Mogos Mamaligani,Mogos Mamaligari,Mogoş Mămăligani,Mogoş Mămăligari,Mămăligani","latitude":"46.2932600","longitude":"23.2789400","fclass":"P","fcode":"PPL","country":"RO","cc2":"RO","admin1":"01","admin2":"5826","admin3":"","admin4":"","population":60,"elevation":0,"gtopo30":829,"timezone":"Europe/Bucharest","moddate":"2013-04-21T00:00:00.000Z"},{"geonameid":672957,"name":"Mogoș","asciiname":"Mogos","alternatenames":"Miclesti,Micleşti,Mogos,Mogos Miclesti,Mogos Micleşti,Mogoş","latitude":"46.2755400","longitude":"23.2803800","fclass":"P","fcode":"PPLA2","country":"RO","cc2":"RO","admin1":"01","admin2":"5826","admin3":"","admin4":"","population":158,"elevation":0,"gtopo30":791,"timezone":"Europe/Bucharest","moddate":"2013-04-21T00:00:00.000Z"},{"geonameid":672434,"name":"Negrești","asciiname":"Negresti","alternatenames":"Negesti,Negeşti,Negresti,Negreşti","latitude":"46.2687700","longitude":"23.3192500","fclass":"P","fcode":"PPL","country":"RO","cc2":"RO","admin1":"01","admin2":"5826","admin3":"","admin4":"","population":22,"elevation":0,"gtopo30":922,"timezone":"Europe/Bucharest","moddate":"2013-04-21T00:00:00.000Z"},{"geonameid":671813,"name":"Oncești","asciiname":"Oncesti","alternatenames":"","latitude":"46.3013600","longitude":"23.4163800","fclass":"P","fcode":"PPL","country":"RO","cc2":"","admin1":"01","admin2":"5826","admin3":"","admin4":"","population":60,"elevation":0,"gtopo30":613,"timezone":"Europe/Bucharest","moddate":"2013-04-21T00:00:00.000Z"},{"geonameid":669992,"name":"Poienile-Mogoş","asciiname":"Poienile-Mogos","alternatenames":"Poienile-Mogos,Poienile-Mogoş,Sularesti,Sulăreşti","latitude":"46.2833300","longitude":"23.2833300","fclass":"P","fcode":"PPL","country":"RO","cc2":"","admin1":"01","admin2":"5826","admin3":"","admin4":"","population":1087,"elevation":0,"gtopo30":931,"timezone":"Europe/Bucharest","moddate":"2016-02-07T00:00:00.000Z"},{"geonameid":664823,"name":"Tomești","asciiname":"Tomesti","alternatenames":"","latitude":"46.2993500","longitude":"23.3642300","fclass":"P","fcode":"PPL","country":"RO","cc2":"","admin1":"01","admin2":"5826","admin3":"","admin4":"","population":36,"elevation":0,"gtopo30":844,"timezone":"Europe/Bucharest","moddate":"2013-04-21T00:00:00.000Z"},{"geonameid":663911,"name":"Valea Bârluţeşti","asciiname":"Valea Barlutesti","alternatenames":"Valea Barlutesti,Valea Birlutesti,Valea Bârluţeşti,Valea Bîrluţeşti","latitude":"46.2833300","longitude":"23.2833300","fclass":"P","fcode":"PPL","country":"RO","cc2":"","admin1":"01","admin2":"5826","admin3":"","admin4":"","population":0,"elevation":0,"gtopo30":931,"timezone":"Europe/Bucharest","moddate":"2020-03-08T00:00:00.000Z"},{"geonameid":663910,"name":"Valea Bârnii","asciiname":"Valea Barnii","alternatenames":"Mogos Valea Barnii,Mogos Valea Birnii,Mogoş Valea Bârnii,Mogoş Valea Bîrnii,Valea Barnii,Valea Birnii,Valea Bârnii,Valea Bîrnii","latitude":"46.2666700","longitude":"23.3333300","fclass":"P","fcode":"PPL","country":"RO","cc2":"RO","admin1":"01","admin2":"5826","admin3":"","admin4":"","population":0,"elevation":0,"gtopo30":818,"timezone":"Europe/Bucharest","moddate":"2020-03-08T00:00:00.000Z"},{"geonameid":663909,"name":"Valea Bârnii Vale","asciiname":"Valea Barnii Vale","alternatenames":"Valea Barnii Vale,Valea Birnii Vale,Valea Bârnii Vale,Valea Bîrnii Vale","latitude":"46.2833300","longitude":"23.2833300","fclass":"P","fcode":"PPL","country":"RO","cc2":"","admin1":"01","admin2":"5826","admin3":"","admin4":"","population":0,"elevation":0,"gtopo30":931,"timezone":"Europe/Bucharest","moddate":"2020-03-08T00:00:00.000Z"},{"geonameid":663827,"name":"Valea Cocești","asciiname":"Valea Cocesti","alternatenames":"","latitude":"46.2966500","longitude":"23.2887000","fclass":"P","fcode":"PPL","country":"RO","cc2":"","admin1":"01","admin2":"5826","admin3":"","admin4":"","population":38,"elevation":0,"gtopo30":865,"timezone":"Europe/Bucharest","moddate":"2013-04-20T00:00:00.000Z"},{"geonameid":663824,"name":"Valea Coma","asciiname":"Valea Coma","alternatenames":"","latitude":"46.2833300","longitude":"23.2833300","fclass":"P","fcode":"PPL","country":"RO","cc2":"","admin1":"01","admin2":"5826","admin3":"","admin4":"","population":0,"elevation":0,"gtopo30":931,"timezone":"Europe/Bucharest","moddate":"2016-02-07T00:00:00.000Z"},{"geonameid":663758,"name":"Valea Giogești","asciiname":"Valea Giogesti","alternatenames":"","latitude":"46.3077800","longitude":"23.2837600","fclass":"P","fcode":"PPL","country":"RO","cc2":"","admin1":"01","admin2":"5826","admin3":"","admin4":"","population":60,"elevation":0,"gtopo30":931,"timezone":"Europe/Bucharest","moddate":"2013-04-20T00:00:00.000Z"},{"geonameid":663644,"name":"Valea Mlacii","asciiname":"Valea Mlacii","alternatenames":"","latitude":"46.2353000","longitude":"23.2583700","fclass":"P","fcode":"PPL","country":"RO","cc2":"","admin1":"01","admin2":"5826","admin3":"","admin4":"","population":49,"elevation":0,"gtopo30":1045,"timezone":"Europe/Bucharest","moddate":"2015-11-08T00:00:00.000Z"},{"geonameid":663352,"name":"Valea Țupilor","asciiname":"Valea Tupilor","alternatenames":"","latitude":"46.2633400","longitude":"23.2636200","fclass":"P","fcode":"PPL","country":"RO","cc2":"","admin1":"01","admin2":"5826","admin3":"","admin4":"","population":69,"elevation":0,"gtopo30":834,"timezone":"Europe/Bucharest","moddate":"2013-04-20T00:00:00.000Z"}],"admin3":[],"alternateNames":[]},"__N_SSG":true}