{"pageProps":{"locale":"ro","admin2":{"geonameid":684841,"name":"Comuna Bâlvăneşti","country":"RO","admin1":"26","admin2":"110688","admin3":"","latitude":"44.7975600","longitude":"22.6831300"},"admin1":{"geonameid":673612,"name":"Mehedinţi","admin1":"26"},"locations":[{"geonameid":684842,"name":"Bâlvăneşti","asciiname":"Balvanesti","alternatenames":"Balvanesti,Bilvanesti,Bâlvăneşti,Bîlvăneşti","latitude":"44.7975000","longitude":"22.6802800","fclass":"P","fcode":"PPLA2","country":"RO","cc2":"","admin1":"26","admin2":"110688","admin3":"","admin4":"","population":1131,"elevation":0,"gtopo30":520,"timezone":"Europe/Bucharest","moddate":"2012-06-12T00:00:00.000Z"},{"geonameid":684840,"name":"Bâlvăneștii de Jos","asciiname":"Balvanestii de Jos","alternatenames":"Balvanestii de Jos,Basesti,Bilvanestii de Jos,Bâlvăneştii de Jos,Bîlvăneştii de Jos,Băseşti","latitude":"44.7949300","longitude":"22.7221700","fclass":"P","fcode":"PPL","country":"RO","cc2":"RO","admin1":"26","admin2":"110688","admin3":"","admin4":"","population":196,"elevation":0,"gtopo30":331,"timezone":"Europe/Bucharest","moddate":"2013-04-21T00:00:00.000Z"},{"geonameid":682939,"name":"Călineștii de Jos","asciiname":"Calinestii de Jos","alternatenames":"Calinesti de Jos,Calinestii de Jos,Călineşti de Jos,Călineştii de Jos,Kalinesti-de Zos,Kalinešti-de Žos","latitude":"44.8102200","longitude":"22.6760300","fclass":"P","fcode":"PPL","country":"RO","cc2":"RO","admin1":"26","admin2":"110688","admin3":"","admin4":"","population":46,"elevation":0,"gtopo30":540,"timezone":"Europe/Bucharest","moddate":"2013-04-21T00:00:00.000Z"},{"geonameid":682938,"name":"Călineștii de Sus","asciiname":"Calinestii de Sus","alternatenames":"Calinesti de Sus,Calinestii de Sus,Călineşti de Sus,Călineştii de Sus,Kalinesti-de Sus,Kalinešti-de Sus","latitude":"44.8197400","longitude":"22.6483700","fclass":"P","fcode":"PPL","country":"RO","cc2":"RO","admin1":"26","admin2":"110688","admin3":"","admin4":"","population":102,"elevation":0,"gtopo30":607,"timezone":"Europe/Bucharest","moddate":"2013-04-21T00:00:00.000Z"},{"geonameid":862880,"name":"Linia de Sus","asciiname":"Linia de Sus","alternatenames":"","latitude":"44.8405600","longitude":"22.6663900","fclass":"P","fcode":"PPL","country":"RO","cc2":"","admin1":"26","admin2":"110688","admin3":"","admin4":"","population":0,"elevation":0,"gtopo30":640,"timezone":"Europe/Bucharest","moddate":"2016-02-07T00:00:00.000Z"},{"geonameid":671328,"name":"Pârlagele","asciiname":"Parlagele","alternatenames":"La Perlazu,Parlagele,Patarlaijele,Pirlagele,Pârlagele,Pîrlagele","latitude":"44.7657600","longitude":"22.6913200","fclass":"P","fcode":"PPL","country":"RO","cc2":"RO","admin1":"26","admin2":"110688","admin3":"","admin4":"","population":563,"elevation":0,"gtopo30":255,"timezone":"Europe/Bucharest","moddate":"2013-04-21T00:00:00.000Z"}],"admin3":[],"alternateNames":[]},"__N_SSG":true}