{"pageProps":{"locale":"ro","admin2":{"geonameid":677552,"name":"Comuna Geaca","country":"RO","admin1":"13","admin2":"57831","admin3":"","latitude":"46.8814100","longitude":"24.0625600"},"admin1":{"geonameid":681291,"name":"Cluj","admin1":"13"},"locations":[{"geonameid":682045,"name":"Chiriș","asciiname":"Chiris","alternatenames":"Belditanya,Bélditanya,Chiris,Chiriş","latitude":"46.8843700","longitude":"24.0417800","fclass":"P","fcode":"PPL","country":"RO","cc2":"","admin1":"13","admin2":"57831","admin3":"","admin4":"","population":117,"elevation":0,"gtopo30":292,"timezone":"Europe/Bucharest","moddate":"2013-04-21T00:00:00.000Z"},{"geonameid":680943,"name":"Continitu","asciiname":"Continitu","alternatenames":"","latitude":"46.8500000","longitude":"24.0833300","fclass":"P","fcode":"PPLX","country":"RO","cc2":"","admin1":"13","admin2":"57831","admin3":"","admin4":"","population":0,"elevation":0,"gtopo30":290,"timezone":"Europe/Bucharest","moddate":"2016-02-07T00:00:00.000Z"},{"geonameid":677553,"name":"Geaca","asciiname":"Geaca","alternatenames":"Geaca","latitude":"46.8666700","longitude":"24.1000000","fclass":"P","fcode":"PPLA2","country":"RO","cc2":"","admin1":"13","admin2":"57831","admin3":"","admin4":"","population":1734,"elevation":0,"gtopo30":398,"timezone":"Europe/Bucharest","moddate":"2012-06-12T00:00:00.000Z"},{"geonameid":675111,"name":"Lacu","asciiname":"Lacu","alternatenames":"Lacu,Lacul","latitude":"46.8850500","longitude":"24.1075600","fclass":"P","fcode":"PPL","country":"RO","cc2":"RO","admin1":"13","admin2":"57831","admin3":"","admin4":"","population":353,"elevation":0,"gtopo30":309,"timezone":"Europe/Bucharest","moddate":"2013-04-21T00:00:00.000Z"},{"geonameid":674923,"name":"Legii","asciiname":"Legii","alternatenames":"","latitude":"46.8559400","longitude":"24.0496200","fclass":"P","fcode":"PPL","country":"RO","cc2":"","admin1":"13","admin2":"57831","admin3":"","admin4":"","population":209,"elevation":0,"gtopo30":342,"timezone":"Europe/Bucharest","moddate":"2013-04-21T00:00:00.000Z"},{"geonameid":671755,"name":"Orăştinile","asciiname":"Orastinile","alternatenames":"","latitude":"46.8500000","longitude":"24.0833300","fclass":"P","fcode":"PPLX","country":"RO","cc2":"","admin1":"13","admin2":"57831","admin3":"","admin4":"","population":0,"elevation":0,"gtopo30":290,"timezone":"Europe/Bucharest","moddate":"2016-02-07T00:00:00.000Z"},{"geonameid":669498,"name":"Puini","asciiname":"Puini","alternatenames":"","latitude":"46.9087300","longitude":"24.0140800","fclass":"P","fcode":"PPL","country":"RO","cc2":"","admin1":"13","admin2":"57831","admin3":"","admin4":"","population":127,"elevation":0,"gtopo30":320,"timezone":"Europe/Bucharest","moddate":"2013-04-21T00:00:00.000Z"},{"geonameid":665859,"name":"Subpădure","asciiname":"Subpadure","alternatenames":"","latitude":"46.8500000","longitude":"24.0833300","fclass":"P","fcode":"PPLX","country":"RO","cc2":"","admin1":"13","admin2":"57831","admin3":"","admin4":"","population":0,"elevation":0,"gtopo30":290,"timezone":"Europe/Bucharest","moddate":"2016-02-07T00:00:00.000Z"},{"geonameid":665837,"name":"Sucutard","asciiname":"Sucutard","alternatenames":"Sucutard,Vasasszentgotthard,Vasasszentgotthárd","latitude":"46.8974200","longitude":"24.0682200","fclass":"P","fcode":"PPL","country":"RO","cc2":"","admin1":"13","admin2":"57831","admin3":"","admin4":"","population":396,"elevation":0,"gtopo30":285,"timezone":"Europe/Bucharest","moddate":"2013-04-21T00:00:00.000Z"},{"geonameid":663711,"name":"Valea Legii","asciiname":"Valea Legii","alternatenames":"","latitude":"46.8500000","longitude":"24.0833300","fclass":"P","fcode":"PPLX","country":"RO","cc2":"","admin1":"13","admin2":"57831","admin3":"","admin4":"","population":0,"elevation":0,"gtopo30":290,"timezone":"Europe/Bucharest","moddate":"2016-02-07T00:00:00.000Z"}],"admin3":[],"alternateNames":[]},"__N_SSG":true}