{"pageProps":{"locale":"ro","admin2":{"geonameid":8334820,"name":"Comuna Tãmãşeu","country":"RO","admin1":"05","admin2":"32153","admin3":"","latitude":"47.2209600","longitude":"21.9039900"},"admin1":{"geonameid":684878,"name":"Bihor","admin1":"05"},"locations":[{"geonameid":672180,"name":"Niuved","asciiname":"Niuved","alternatenames":"Niuved,Nyueved,Nyüved","latitude":"47.2338000","longitude":"21.8953000","fclass":"P","fcode":"PPL","country":"RO","cc2":"","admin1":"05","admin2":"32153","admin3":"","admin4":"","population":234,"elevation":0,"gtopo30":101,"timezone":"Europe/Bucharest","moddate":"2013-04-21T00:00:00.000Z"},{"geonameid":671338,"name":"Parhida","asciiname":"Parhida","alternatenames":"Parhida,Parhita,Pelbarthida,Pelbárthida","latitude":"47.2343700","longitude":"21.8716000","fclass":"P","fcode":"PPL","country":"RO","cc2":"RO","admin1":"05","admin2":"32153","admin3":"","admin4":"","population":512,"elevation":0,"gtopo30":100,"timezone":"Europe/Bucharest","moddate":"2013-04-21T00:00:00.000Z"},{"geonameid":681979,"name":"Satu Nou","asciiname":"Satu Nou","alternatenames":"Cat,Chiughiu,Chiugi,Căt,Ghiughi,Kuegyipuszta,Kuegypuszta,Kügyipuszta,Kügypuszta","latitude":"47.2000000","longitude":"21.9166700","fclass":"P","fcode":"PPL","country":"RO","cc2":"","admin1":"05","admin2":"32153","admin3":"","admin4":"","population":222,"elevation":0,"gtopo30":106,"timezone":"Europe/Bucharest","moddate":"2015-11-15T00:00:00.000Z"},{"geonameid":665560,"name":"Tămășeu","asciiname":"Tamaseu","alternatenames":"Paptamasi,Paptamási,Tamasau,Tamaseu,Tamasi,Tamasău,Tamási,Tămăşeu","latitude":"47.2211600","longitude":"21.9276000","fclass":"P","fcode":"PPLA2","country":"RO","cc2":"RO","admin1":"05","admin2":"32153","admin3":"","admin4":"","population":991,"elevation":0,"gtopo30":105,"timezone":"Europe/Bucharest","moddate":"2013-04-21T00:00:00.000Z"}],"admin3":[],"alternateNames":[]},"__N_SSG":true}