{"pageProps":{"locale":"ro","admin2":{"geonameid":682310,"name":"Comuna Cerneşti","country":"RO","admin1":"25","admin2":"107582","admin3":"","latitude":"47.5357600","longitude":"23.7836600"},"admin1":{"geonameid":673887,"name":"Maramureş","admin1":"25"},"locations":[{"geonameid":683738,"name":"Brebeni","asciiname":"Brebeni","alternatenames":"","latitude":"47.5035800","longitude":"23.7813600","fclass":"P","fcode":"PPL","country":"RO","cc2":"","admin1":"25","admin2":"107582","admin3":"","admin4":"","population":266,"elevation":0,"gtopo30":325,"timezone":"Europe/Bucharest","moddate":"2013-04-21T00:00:00.000Z"},{"geonameid":682313,"name":"Cerneşti","asciiname":"Cernesti","alternatenames":"","latitude":"47.5166700","longitude":"23.7500000","fclass":"P","fcode":"PPLA2","country":"RO","cc2":"","admin1":"25","admin2":"107582","admin3":"","admin4":"","population":3760,"elevation":0,"gtopo30":306,"timezone":"Europe/Bucharest","moddate":"2012-06-12T00:00:00.000Z"},{"geonameid":681711,"name":"Ciocotiș","asciiname":"Ciocotis","alternatenames":"","latitude":"47.5566600","longitude":"23.7965000","fclass":"P","fcode":"PPL","country":"RO","cc2":"","admin1":"25","admin2":"107582","admin3":"","admin4":"","population":914,"elevation":0,"gtopo30":401,"timezone":"Europe/Bucharest","moddate":"2013-04-21T00:00:00.000Z"},{"geonameid":678222,"name":"Fânațe","asciiname":"Fanate","alternatenames":"Finate,Fînaţe,Kovarfonac,Kővárfonác","latitude":"47.5333300","longitude":"23.7666700","fclass":"P","fcode":"PPL","country":"RO","cc2":"","admin1":"25","admin2":"107582","admin3":"","admin4":"","population":665,"elevation":0,"gtopo30":340,"timezone":"Europe/Bucharest","moddate":"2015-12-11T00:00:00.000Z"},{"geonameid":675374,"name":"Izvoarele","asciiname":"Izvoarele","alternatenames":"Bloaja,Izvoarele","latitude":"47.5951800","longitude":"23.8691400","fclass":"P","fcode":"PPL","country":"RO","cc2":"RO","admin1":"25","admin2":"107582","admin3":"","admin4":"","population":65,"elevation":0,"gtopo30":617,"timezone":"Europe/Bucharest","moddate":"2013-04-21T00:00:00.000Z"},{"geonameid":674103,"name":"Măgureni","asciiname":"Magureni","alternatenames":"","latitude":"47.4867200","longitude":"23.7435300","fclass":"P","fcode":"PPL","country":"RO","cc2":"","admin1":"25","admin2":"107582","admin3":"","admin4":"","population":259,"elevation":0,"gtopo30":377,"timezone":"Europe/Bucharest","moddate":"2013-04-21T00:00:00.000Z"},{"geonameid":664632,"name":"Trestia","asciiname":"Trestia","alternatenames":"","latitude":"47.5647400","longitude":"23.7936800","fclass":"P","fcode":"PPL","country":"RO","cc2":"","admin1":"25","admin2":"107582","admin3":"","admin4":"","population":740,"elevation":0,"gtopo30":435,"timezone":"Europe/Bucharest","moddate":"2013-04-21T00:00:00.000Z"}],"admin3":[],"alternateNames":[]},"__N_SSG":true}