{"pageProps":{"locale":"ro","admin2":{"geonameid":664795,"name":"Comuna Tomşani","country":"RO","admin1":"30","admin2":"135896","admin3":"","latitude":"44.9494100","longitude":"26.2958600"},"admin1":{"geonameid":669737,"name":"Prahova","admin1":"30"},"locations":[{"geonameid":680221,"name":"Crângu","asciiname":"Crangu","alternatenames":"Crangu,Crangul,Cringu,Crângu,Crângul,Crîngu","latitude":"44.9500000","longitude":"26.2833300","fclass":"P","fcode":"PPLX","country":"RO","cc2":"RO","admin1":"30","admin2":"135896","admin3":"","admin4":"","population":0,"elevation":0,"gtopo30":109,"timezone":"Europe/Bucharest","moddate":"2020-03-08T00:00:00.000Z"},{"geonameid":674621,"name":"Loloiasca","asciiname":"Loloiasca","alternatenames":"","latitude":"44.9680800","longitude":"26.2914100","fclass":"P","fcode":"PPL","country":"RO","cc2":"","admin1":"30","admin2":"135896","admin3":"","admin4":"","population":1575,"elevation":0,"gtopo30":122,"timezone":"Europe/Bucharest","moddate":"2013-04-21T00:00:00.000Z"},{"geonameid":674166,"name":"Magula","asciiname":"Magula","alternatenames":"Bagula,Magula","latitude":"44.9318500","longitude":"26.3011400","fclass":"P","fcode":"PPL","country":"RO","cc2":"RO","admin1":"30","admin2":"135896","admin3":"","admin4":"","population":2122,"elevation":0,"gtopo30":101,"timezone":"Europe/Bucharest","moddate":"2013-04-21T00:00:00.000Z"},{"geonameid":667886,"name":"Sătucu","asciiname":"Satucu","alternatenames":"Satucu,Satucul,Sătucu,Sătucul","latitude":"44.9548100","longitude":"26.2958500","fclass":"P","fcode":"PPL","country":"RO","cc2":"RO","admin1":"30","admin2":"135896","admin3":"","admin4":"","population":89,"elevation":0,"gtopo30":113,"timezone":"Europe/Bucharest","moddate":"2013-04-21T00:00:00.000Z"},{"geonameid":664797,"name":"Tomşani","asciiname":"Tomsani","alternatenames":"","latitude":"44.9500000","longitude":"26.2833300","fclass":"P","fcode":"PPLA2","country":"RO","cc2":"","admin1":"30","admin2":"135896","admin3":"","admin4":"","population":4550,"elevation":0,"gtopo30":109,"timezone":"Europe/Bucharest","moddate":"2012-06-12T00:00:00.000Z"}],"admin3":[],"alternateNames":[{"alternatenameId":8326236,"geonameid":669737,"isoLanguage":"en","alternateName":"Prahova","isPreferredName":true,"isShortName":true,"isColloquial":false,"isHistoric":false}]},"__N_SSG":true}