{"pageProps":{"locale":"ro","admin2":{"geonameid":8334912,"name":"Oraş Moldova Nouã","country":"RO","admin1":"12","admin2":"51056","admin3":"","latitude":"44.7505300","longitude":"21.6549300"},"admin1":{"geonameid":682714,"name":"Caraş-Severin","admin1":"12"},"locations":[{"geonameid":684105,"name":"Boşneag","asciiname":"Bosneag","alternatenames":"","latitude":"44.7333300","longitude":"21.6666700","fclass":"P","fcode":"PPLX","country":"RO","cc2":"","admin1":"12","admin2":"51056","admin3":"","admin4":"","population":0,"elevation":0,"gtopo30":153,"timezone":"Europe/Bucharest","moddate":"2016-02-07T00:00:00.000Z"},{"geonameid":674240,"name":"Măcești","asciiname":"Macesti","alternatenames":"Macesti,Macevic,Macevici,Mačevic,Măceşti","latitude":"44.7552700","longitude":"21.6091000","fclass":"P","fcode":"PPL","country":"RO","cc2":"RO","admin1":"12","admin2":"51056","admin3":"","admin4":"","population":718,"elevation":0,"gtopo30":89,"timezone":"Europe/Bucharest","moddate":"2013-04-21T00:00:00.000Z"},{"geonameid":672912,"name":"Moldova Nouă","asciiname":"Moldova Noua","alternatenames":"Moldova Noua,Moldova Nouă,Moldova-Noue,Moldova-Noueh,Nova Moldava,Nová Moldava,Opstina Moldova Noua,Opština Moldova Nouã,Ujmoldova,mwldwa nwyh,mwldwfa nwa,xin mo er duo wa,Újmoldova,Молдова-Ноуе,Молдова-Ноуэ,Нова Молдава,مولدوا نوئه,مولدوفا نوا,新摩爾多瓦","latitude":"44.7375000","longitude":"21.6669400","fclass":"P","fcode":"PPLA2","country":"RO","cc2":"","admin1":"12","admin2":"51056","admin3":"","admin4":"","population":13263,"elevation":0,"gtopo30":170,"timezone":"Europe/Bucharest","moddate":"2012-06-12T00:00:00.000Z"},{"geonameid":672909,"name":"Moldova Veche","asciiname":"Moldova Veche","alternatenames":"Modava,Moldova Veche,Mudava,Stara Moldava,Suma Moldova,mdawh,مداوه","latitude":"44.7252800","longitude":"21.6180600","fclass":"P","fcode":"PPL","country":"RO","cc2":"RO","admin1":"12","admin2":"51056","admin3":"","admin4":"","population":0,"elevation":0,"gtopo30":73,"timezone":"Europe/Bucharest","moddate":"2016-02-07T00:00:00.000Z"},{"geonameid":672898,"name":"Moldovița","asciiname":"Moldovita","alternatenames":"Karlovo Selo,Moldovita,Moldoviţa","latitude":"44.7845400","longitude":"21.7132700","fclass":"P","fcode":"PPL","country":"RO","cc2":"RO","admin1":"12","admin2":"51056","admin3":"","admin4":"","population":333,"elevation":0,"gtopo30":657,"timezone":"Europe/Bucharest","moddate":"2013-04-21T00:00:00.000Z"},{"geonameid":666330,"name":"Ştaieru Boşneagului","asciiname":"Staieru Bosneagului","alternatenames":"","latitude":"44.7333300","longitude":"21.6833300","fclass":"P","fcode":"PPLX","country":"RO","cc2":"","admin1":"12","admin2":"51056","admin3":"","admin4":"","population":0,"elevation":0,"gtopo30":228,"timezone":"Europe/Bucharest","moddate":"2016-02-07T00:00:00.000Z"}],"admin3":[],"alternateNames":[]},"__N_SSG":true}