{"pageProps":{"locale":"ro","admin2":{"geonameid":671915,"name":"Comuna Ohaba Lungă","country":"RO","admin1":"36","admin2":"157969","admin3":"","latitude":"45.9181200","longitude":"21.9909400"},"admin1":{"geonameid":665091,"name":"Timiş","admin1":"36"},"locations":[{"geonameid":678799,"name":"Dubești","asciiname":"Dubesti","alternatenames":"","latitude":"45.9298800","longitude":"22.0266600","fclass":"P","fcode":"PPL","country":"RO","cc2":"","admin1":"36","admin2":"157969","admin3":"","admin4":"","population":356,"elevation":0,"gtopo30":248,"timezone":"Europe/Bucharest","moddate":"2013-04-21T00:00:00.000Z"},{"geonameid":675724,"name":"Ierșnic","asciiname":"Iersnic","alternatenames":"","latitude":"45.8850500","longitude":"22.0058800","fclass":"P","fcode":"PPL","country":"RO","cc2":"","admin1":"36","admin2":"157969","admin3":"","admin4":"","population":220,"elevation":0,"gtopo30":160,"timezone":"Europe/Bucharest","moddate":"2013-04-21T00:00:00.000Z"},{"geonameid":671916,"name":"Ohaba Lungă","asciiname":"Ohaba Lunga","alternatenames":"Hosszuszabadi,Hosszúszabadi,Ohaba Lunga,Ohaba Lungă,Ohabarumunyaszka,Ohábarumunyaszka","latitude":"45.9074000","longitude":"21.9853500","fclass":"P","fcode":"PPLA2","country":"RO","cc2":"RO","admin1":"36","admin2":"157969","admin3":"","admin4":"","population":418,"elevation":0,"gtopo30":154,"timezone":"Europe/Bucharest","moddate":"2013-04-21T00:00:00.000Z"},{"geonameid":671911,"name":"Ohaba Română","asciiname":"Ohaba Romana","alternatenames":"Ohaba Romana,Ohaba Romina,Ohaba Română,Ohaba Romînă,Racszabadi,Rácszabadi","latitude":"45.9501600","longitude":"21.9458500","fclass":"P","fcode":"PPL","country":"RO","cc2":"RO","admin1":"36","admin2":"157969","admin3":"","admin4":"","population":353,"elevation":0,"gtopo30":167,"timezone":"Europe/Bucharest","moddate":"2013-04-21T00:00:00.000Z"}],"admin3":[],"alternateNames":[]},"__N_SSG":true}