{"pageProps":{"locale":"ro","admin2":{"geonameid":675842,"name":"Comuna Iana","country":"RO","admin1":"38","admin2":"164339","admin3":"","latitude":"46.4043800","longitude":"27.5526500"},"admin1":{"geonameid":663116,"name":"Vaslui","admin1":"38"},"locations":[{"geonameid":676372,"name":"Hălărești","asciiname":"Halaresti","alternatenames":"","latitude":"46.3944700","longitude":"27.5561400","fclass":"P","fcode":"PPL","country":"RO","cc2":"","admin1":"38","admin2":"164339","admin3":"","admin4":"","population":1012,"elevation":0,"gtopo30":194,"timezone":"Europe/Bucharest","moddate":"2013-04-21T00:00:00.000Z"},{"geonameid":675843,"name":"Iana","asciiname":"Iana","alternatenames":"Iana","latitude":"46.3833300","longitude":"27.5500000","fclass":"P","fcode":"PPLA2","country":"RO","cc2":"","admin1":"38","admin2":"164339","admin3":"","admin4":"","population":3936,"elevation":0,"gtopo30":105,"timezone":"Europe/Bucharest","moddate":"2012-06-12T00:00:00.000Z"},{"geonameid":670644,"name":"Piscu Ienei","asciiname":"Piscu Ienei","alternatenames":"Piscu Ene,Piscu Ienei,Piscu-Enei","latitude":"46.3833300","longitude":"27.5500000","fclass":"P","fcode":"PPL","country":"RO","cc2":"","admin1":"38","admin2":"164339","admin3":"","admin4":"","population":0,"elevation":0,"gtopo30":105,"timezone":"Europe/Bucharest","moddate":"2016-02-07T00:00:00.000Z"},{"geonameid":669048,"name":"Recea","asciiname":"Recea","alternatenames":"","latitude":"46.4462100","longitude":"27.5506200","fclass":"P","fcode":"PPL","country":"RO","cc2":"","admin1":"38","admin2":"164339","admin3":"","admin4":"","population":415,"elevation":0,"gtopo30":210,"timezone":"Europe/Bucharest","moddate":"2013-04-21T00:00:00.000Z"},{"geonameid":667186,"name":"Siliștea","asciiname":"Silistea","alternatenames":"","latitude":"46.4276300","longitude":"27.5563400","fclass":"P","fcode":"PPL","country":"RO","cc2":"","admin1":"38","admin2":"164339","admin3":"","admin4":"","population":815,"elevation":0,"gtopo30":164,"timezone":"Europe/Bucharest","moddate":"2013-04-21T00:00:00.000Z"},{"geonameid":665150,"name":"Ţifeşti","asciiname":"Tifesti","alternatenames":"","latitude":"46.4333300","longitude":"27.5500000","fclass":"P","fcode":"PPL","country":"RO","cc2":"","admin1":"38","admin2":"164339","admin3":"","admin4":"","population":0,"elevation":0,"gtopo30":218,"timezone":"Europe/Bucharest","moddate":"2016-02-07T00:00:00.000Z"},{"geonameid":663990,"name":"Vadurile","asciiname":"Vadurile","alternatenames":"Politeni,Poliţeni,Vadurile","latitude":"46.3731900","longitude":"27.5454400","fclass":"P","fcode":"PPL","country":"RO","cc2":"RO","admin1":"38","admin2":"164339","admin3":"","admin4":"","population":339,"elevation":0,"gtopo30":102,"timezone":"Europe/Bucharest","moddate":"2013-04-20T00:00:00.000Z"}],"admin3":[],"alternateNames":[]},"__N_SSG":true}