{"pageProps":{"locale":"ro","admin2":{"geonameid":667703,"name":"Comuna Scheia","country":"RO","admin1":"34","admin2":"146432","admin3":"","latitude":"47.6503000","longitude":"26.1809400"},"admin1":{"geonameid":665849,"name":"Suceava","admin1":"34"},"locations":[{"geonameid":683255,"name":"Buninţi","asciiname":"Buninti","alternatenames":"","latitude":"47.6666700","longitude":"26.1833300","fclass":"P","fcode":"PPLX","country":"RO","cc2":"","admin1":"34","admin2":"146432","admin3":"","admin4":"","population":0,"elevation":0,"gtopo30":423,"timezone":"Europe/Bucharest","moddate":"2016-02-07T00:00:00.000Z"},{"geonameid":680978,"name":"Conacu","asciiname":"Conacu","alternatenames":"","latitude":"47.6500000","longitude":"26.2333300","fclass":"P","fcode":"PPL","country":"RO","cc2":"","admin1":"34","admin2":"146432","admin3":"","admin4":"","population":0,"elevation":0,"gtopo30":307,"timezone":"Europe/Bucharest","moddate":"2016-02-07T00:00:00.000Z"},{"geonameid":678026,"name":"Florinta","asciiname":"Florinta","alternatenames":"","latitude":"47.6460100","longitude":"26.1289800","fclass":"P","fcode":"PPL","country":"RO","cc2":"","admin1":"34","admin2":"146432","admin3":"","admin4":"","population":87,"elevation":0,"gtopo30":434,"timezone":"Europe/Bucharest","moddate":"2013-04-21T00:00:00.000Z"},{"geonameid":673347,"name":"Mihoveni","asciiname":"Mihoveni","alternatenames":"","latitude":"47.6799400","longitude":"26.1822000","fclass":"P","fcode":"PPL","country":"RO","cc2":"","admin1":"34","admin2":"146432","admin3":"","admin4":"","population":2152,"elevation":0,"gtopo30":374,"timezone":"Europe/Bucharest","moddate":"2013-04-21T00:00:00.000Z"},{"geonameid":667706,"name":"Scheia","asciiname":"Scheia","alternatenames":"","latitude":"47.6500000","longitude":"26.2333300","fclass":"P","fcode":"PPLA2","country":"RO","cc2":"","admin1":"34","admin2":"146432","admin3":"","admin4":"","population":7533,"elevation":0,"gtopo30":307,"timezone":"Europe/Bucharest","moddate":"2012-06-12T00:00:00.000Z"},{"geonameid":667296,"name":"Sfântu Ilie","asciiname":"Sfantu Ilie","alternatenames":"Sfantu Ilie,Sfantu-Ilie,Sfintu Ilie,Sfântu Ilie,Sfântu-Ilie,Sfîntu Ilie","latitude":"47.6333300","longitude":"26.2166700","fclass":"P","fcode":"PPL","country":"RO","cc2":"","admin1":"34","admin2":"146432","admin3":"","admin4":"","population":0,"elevation":0,"gtopo30":400,"timezone":"Europe/Bucharest","moddate":"2020-03-08T00:00:00.000Z"}],"admin3":[],"alternateNames":[{"alternatenameId":393492,"geonameid":665849,"isoLanguage":"en","alternateName":"Suceava","isPreferredName":true,"isShortName":true,"isColloquial":false,"isHistoric":false}]},"__N_SSG":true}