{"pageProps":{"locale":"ro","admin2":{"geonameid":676211,"name":"Comuna Hida","country":"RO","admin1":"31","admin2":"141447","admin3":"","latitude":"47.0783100","longitude":"23.3384100"},"admin1":{"geonameid":668248,"name":"Sălaj","admin1":"31"},"locations":[{"geonameid":685820,"name":"Baica","asciiname":"Baica","alternatenames":"Baica,Baita,Baiţa","latitude":"47.0769400","longitude":"23.3018600","fclass":"P","fcode":"PPL","country":"RO","cc2":"RO","admin1":"31","admin2":"141447","admin3":"","admin4":"","population":173,"elevation":0,"gtopo30":239,"timezone":"Europe/Bucharest","moddate":"2013-04-21T00:00:00.000Z"},{"geonameid":676212,"name":"Hida","asciiname":"Hida","alternatenames":"Hida,Hidalma,Hidalmas,Hidalmás","latitude":"47.0666700","longitude":"23.2833300","fclass":"P","fcode":"PPLA2","country":"RO","cc2":"","admin1":"31","admin2":"141447","admin3":"","admin4":"","population":3083,"elevation":0,"gtopo30":320,"timezone":"Europe/Bucharest","moddate":"2012-06-12T00:00:00.000Z"},{"geonameid":673290,"name":"Miluani","asciiname":"Miluani","alternatenames":"Miluani","latitude":"47.0143300","longitude":"23.3315200","fclass":"P","fcode":"PPL","country":"RO","cc2":"","admin1":"31","admin2":"141447","admin3":"","admin4":"","population":136,"elevation":0,"gtopo30":308,"timezone":"Europe/Bucharest","moddate":"2013-04-21T00:00:00.000Z"},{"geonameid":671501,"name":"Păduriș","asciiname":"Paduris","alternatenames":"","latitude":"47.0980800","longitude":"23.4123700","fclass":"P","fcode":"PPL","country":"RO","cc2":"","admin1":"31","admin2":"141447","admin3":"","admin4":"","population":56,"elevation":0,"gtopo30":419,"timezone":"Europe/Bucharest","moddate":"2013-04-21T00:00:00.000Z"},{"geonameid":669351,"name":"Racâş","asciiname":"Racas","alternatenames":"Racas,Racis,Racâş,Racîş","latitude":"47.1000000","longitude":"23.3166700","fclass":"P","fcode":"PPL","country":"RO","cc2":"RO","admin1":"31","admin2":"141447","admin3":"","admin4":"","population":0,"elevation":0,"gtopo30":368,"timezone":"Europe/Bucharest","moddate":"2020-03-08T00:00:00.000Z"},{"geonameid":666956,"name":"Sânpetru Almașului","asciiname":"Sanpetru Almasului","alternatenames":"Fuezesszentpeter,Füzesszentpéter,Sinpetru Almasului,Sînpetru Almașului","latitude":"47.0666700","longitude":"23.3500000","fclass":"P","fcode":"PPL","country":"RO","cc2":"","admin1":"31","admin2":"141447","admin3":"","admin4":"","population":436,"elevation":0,"gtopo30":366,"timezone":"Europe/Bucharest","moddate":"2015-12-28T00:00:00.000Z"},{"geonameid":665885,"name":"Stupini","asciiname":"Stupini","alternatenames":"Stramba,Strimba,Strâmba,Strîmba,Stupini","latitude":"47.0734600","longitude":"23.3820600","fclass":"P","fcode":"PPL","country":"RO","cc2":"RO","admin1":"31","admin2":"141447","admin3":"","admin4":"","population":240,"elevation":0,"gtopo30":297,"timezone":"Europe/Bucharest","moddate":"2013-04-21T00:00:00.000Z"},{"geonameid":664633,"name":"Trestia","asciiname":"Trestia","alternatenames":"","latitude":"47.1143300","longitude":"23.3353300","fclass":"P","fcode":"PPL","country":"RO","cc2":"","admin1":"31","admin2":"141447","admin3":"","admin4":"","population":397,"elevation":0,"gtopo30":274,"timezone":"Europe/Bucharest","moddate":"2013-04-21T00:00:00.000Z"}],"admin3":[],"alternateNames":[]},"__N_SSG":true}