{"pageProps":{"locale":"en","admin2":{"geonameid":2646127,"name":"Inverclyde","country":"GB","admin1":"SCT","admin2":"V4","admin3":"","latitude":"55.9000000","longitude":"-4.7500000"},"admin1":{"geonameid":2638360,"name":"Scotland","admin1":"SCT"},"locations":[{"geonameid":2648259,"name":"Gourock","asciiname":"Gourock","alternatenames":"Guireag,Gurok,Гурок","latitude":"55.9615700","longitude":"-4.8178900","fclass":"P","fcode":"PPL","country":"GB","cc2":"","admin1":"SCT","admin2":"V4","admin3":"","admin4":"","population":10570,"elevation":0,"gtopo30":10,"timezone":"Europe/London","moddate":"2017-06-12T00:00:00.000Z"},{"geonameid":2647948,"name":"Greenock","asciiname":"Greenock","alternatenames":"Greenock,Grianaig,Grijnok,Grinok,Grinokas,Qrinok,ge li nuo ke,geulinog,grynwk,gurinokku,Грийнок,Гринок,Грінок,گرینوک,გრინოკი,グリーノック,格里诺克,그리녹","latitude":"55.9483800","longitude":"-4.7612100","fclass":"P","fcode":"PPLA2","country":"GB","cc2":"","admin1":"SCT","admin2":"V4","admin3":"","admin4":"","population":43690,"elevation":0,"gtopo30":12,"timezone":"Europe/London","moddate":"2017-06-15T00:00:00.000Z"},{"geonameid":2646102,"name":"Inverkip","asciiname":"Inverkip","alternatenames":"Inverkip","latitude":"55.9083100","longitude":"-4.8705100","fclass":"P","fcode":"PPL","country":"GB","cc2":"","admin1":"SCT","admin2":"V4","admin3":"","admin4":"","population":3060,"elevation":0,"gtopo30":9,"timezone":"Europe/London","moddate":"2017-06-12T00:00:00.000Z"},{"geonameid":2645611,"name":"Kilmacolm","asciiname":"Kilmacolm","alternatenames":"","latitude":"55.8947000","longitude":"-4.6264300","fclass":"P","fcode":"PPL","country":"GB","cc2":"","admin1":"SCT","admin2":"V4","admin3":"","admin4":"","population":3980,"elevation":0,"gtopo30":101,"timezone":"Europe/London","moddate":"2017-06-12T00:00:00.000Z"},{"geonameid":7290452,"name":"Larkfield","asciiname":"Larkfield","alternatenames":"","latitude":"55.9434300","longitude":"-4.8185800","fclass":"P","fcode":"PPL","country":"GB","cc2":"","admin1":"SCT","admin2":"V4","admin3":"","admin4":"","population":0,"elevation":0,"gtopo30":80,"timezone":"Europe/London","moddate":"2010-05-25T00:00:00.000Z"},{"geonameid":2640060,"name":"Port Glasgow","asciiname":"Port Glasgow","alternatenames":"Port Ghlaschu,Port Ghlaschú,Port Glasgow,Port Glesga,Port-Glazgo,Порт-Глазго","latitude":"55.9346400","longitude":"-4.6895000","fclass":"P","fcode":"PPL","country":"GB","cc2":"","admin1":"SCT","admin2":"V4","admin3":"","admin4":"","population":15190,"elevation":0,"gtopo30":7,"timezone":"Europe/London","moddate":"2017-06-12T00:00:00.000Z"},{"geonameid":11592207,"name":"Quarrier's Village","asciiname":"Quarrier's Village","alternatenames":"","latitude":"55.8663800","longitude":"-4.6226700","fclass":"P","fcode":"PPL","country":"GB","cc2":"","admin1":"SCT","admin2":"V4","admin3":"","admin4":"","population":750,"elevation":0,"gtopo30":63,"timezone":"Europe/London","moddate":"2017-06-14T00:00:00.000Z"},{"geonameid":2634545,"name":"Wemyss Bay","asciiname":"Wemyss Bay","alternatenames":"Wemyss Bay","latitude":"55.8761400","longitude":"-4.8895000","fclass":"P","fcode":"PPL","country":"GB","cc2":"","admin1":"SCT","admin2":"V4","admin3":"","admin4":"","population":2580,"elevation":0,"gtopo30":10,"timezone":"Europe/London","moddate":"2017-06-15T00:00:00.000Z"}],"admin3":[],"alternateNames":[]},"__N_SSG":true}