{"pageProps":{"locale":"en","admin2":{"geonameid":11353076,"name":"Armagh City Banbridge and Craigavon","country":"GB","admin1":"NIR","admin2":"N09000002","admin3":"","latitude":"54.3692200","longitude":"-6.4565100"},"admin1":{"geonameid":2641364,"name":"Northern Ireland","admin1":"NIR"},"locations":[{"geonameid":2657694,"name":"Acton","asciiname":"Acton","alternatenames":"","latitude":"54.3000000","longitude":"-6.3666700","fclass":"P","fcode":"PPL","country":"GB","cc2":"","admin1":"NIR","admin2":"N09000002","admin3":"","admin4":"","population":0,"elevation":0,"gtopo30":38,"timezone":"Europe/London","moddate":"2016-12-04T00:00:00.000Z"},{"geonameid":2657644,"name":"Aghagallon","asciiname":"Aghagallon","alternatenames":"Aghagallon,Aughagallen","latitude":"54.5089000","longitude":"-6.2946900","fclass":"P","fcode":"PPL","country":"GB","cc2":"GB","admin1":"NIR","admin2":"N09000002","admin3":"","admin4":"","population":0,"elevation":0,"gtopo30":30,"timezone":"Europe/London","moddate":"2016-12-04T00:00:00.000Z"},{"geonameid":2657638,"name":"Aghory","asciiname":"Aghory","alternatenames":"","latitude":"54.3500000","longitude":"-6.4833300","fclass":"P","fcode":"PPL","country":"GB","cc2":"","admin1":"NIR","admin2":"N09000002","admin3":"","admin4":"","population":0,"elevation":0,"gtopo30":52,"timezone":"Europe/London","moddate":"2016-12-04T00:00:00.000Z"},{"geonameid":2657300,"name":"Annaclone","asciiname":"Annaclone","alternatenames":"Annaclone","latitude":"54.3000000","longitude":"-6.1833300","fclass":"P","fcode":"PPL","country":"GB","cc2":"","admin1":"NIR","admin2":"N09000002","admin3":"","admin4":"","population":0,"elevation":0,"gtopo30":110,"timezone":"Europe/London","moddate":"2016-12-04T00:00:00.000Z"},{"geonameid":2657298,"name":"Annaghmore","asciiname":"Annaghmore","alternatenames":"Annaghmore","latitude":"54.4500000","longitude":"-6.6000000","fclass":"P","fcode":"PPL","country":"GB","cc2":"","admin1":"NIR","admin2":"N09000002","admin3":"","admin4":"","population":0,"elevation":0,"gtopo30":17,"timezone":"Europe/London","moddate":"2016-12-04T00:00:00.000Z"},{"geonameid":2657296,"name":"Annaloist","asciiname":"Annaloist","alternatenames":"","latitude":"54.4833300","longitude":"-6.3666700","fclass":"P","fcode":"PPL","country":"GB","cc2":"","admin1":"NIR","admin2":"N09000002","admin3":"","admin4":"","population":0,"elevation":0,"gtopo30":12,"timezone":"Europe/London","moddate":"2016-12-04T00:00:00.000Z"},{"geonameid":2657060,"name":"Armagh","asciiname":"Armagh","alternatenames":"Ard Maghey,Ard Mhacha,Arma,Armagh,a ma,ama,arma,armagh,Арма,Արմա,آرما,آرماغ,آرماہ,アーマー,阿馬,아마","latitude":"54.3500000","longitude":"-6.6666700","fclass":"P","fcode":"PPLA2","country":"GB","cc2":"","admin1":"NIR","admin2":"N09000002","admin3":"","admin4":"","population":14801,"elevation":0,"gtopo30":37,"timezone":"Europe/London","moddate":"2016-12-04T00:00:00.000Z"},{"geonameid":2656957,"name":"Ashfield","asciiname":"Ashfield","alternatenames":"","latitude":"54.4000000","longitude":"-6.2000000","fclass":"P","fcode":"PPL","country":"GB","cc2":"","admin1":"NIR","admin2":"N09000002","admin3":"","admin4":"","population":0,"elevation":0,"gtopo30":86,"timezone":"Europe/London","moddate":"2016-12-04T00:00:00.000Z"},{"geonameid":2656562,"name":"Balleer","asciiname":"Balleer","alternatenames":"","latitude":"54.2666700","longitude":"-6.6666700","fclass":"P","fcode":"PPL","country":"GB","cc2":"","admin1":"NIR","admin2":"N09000002","admin3":"","admin4":"","population":0,"elevation":0,"gtopo30":96,"timezone":"Europe/London","moddate":"2016-12-04T00:00:00.000Z"},{"geonameid":2656478,"name":"Ballynaskeagh","asciiname":"Ballynaskeagh","alternatenames":"Ballinaskeagh,Ballynaskeagh","latitude":"54.2833300","longitude":"-6.2333300","fclass":"P","fcode":"PPL","country":"GB","cc2":"GB","admin1":"NIR","admin2":"N09000002","admin3":"","admin4":"","population":0,"elevation":0,"gtopo30":123,"timezone":"Europe/London","moddate":"2016-12-04T00:00:00.000Z"},{"geonameid":2656468,"name":"Ballyroney","asciiname":"Ballyroney","alternatenames":"","latitude":"54.2666700","longitude":"-6.1333300","fclass":"P","fcode":"PPL","country":"GB","cc2":"","admin1":"NIR","admin2":"N09000002","admin3":"","admin4":"","population":0,"elevation":0,"gtopo30":76,"timezone":"Europe/London","moddate":"2016-12-04T00:00:00.000Z"},{"geonameid":2656407,"name":"Banbridge","asciiname":"Banbridge","alternatenames":"Banbridzh,Банбридж","latitude":"54.3500000","longitude":"-6.2833300","fclass":"P","fcode":"PPLA2","country":"GB","cc2":"","admin1":"NIR","admin2":"N09000002","admin3":"","admin4":"","population":16173,"elevation":0,"gtopo30":94,"timezone":"Europe/London","moddate":"2016-12-04T00:00:00.000Z"},{"geonameid":2655421,"name":"Blackwatertown","asciiname":"Blackwatertown","alternatenames":"Blackwatertown","latitude":"54.4166700","longitude":"-6.7000000","fclass":"P","fcode":"PPL","country":"GB","cc2":"","admin1":"NIR","admin2":"N09000002","admin3":"","admin4":"","population":0,"elevation":0,"gtopo30":22,"timezone":"Europe/London","moddate":"2016-12-04T00:00:00.000Z"},{"geonameid":2655216,"name":"Bondville","asciiname":"Bondville","alternatenames":"","latitude":"54.3166700","longitude":"-6.8500000","fclass":"P","fcode":"PPL","country":"GB","cc2":"","admin1":"NIR","admin2":"N09000002","admin3":"","admin4":"","population":0,"elevation":0,"gtopo30":43,"timezone":"Europe/London","moddate":"2016-12-04T00:00:00.000Z"},{"geonameid":2653990,"name":"Callan Bridge","asciiname":"Callan Bridge","alternatenames":"","latitude":"54.3000000","longitude":"-6.7000000","fclass":"P","fcode":"PPL","country":"GB","cc2":"","admin1":"NIR","admin2":"N09000002","admin3":"","admin4":"","population":0,"elevation":0,"gtopo30":94,"timezone":"Europe/London","moddate":"2016-12-04T00:00:00.000Z"},{"geonameid":2653738,"name":"Carnagh","asciiname":"Carnagh","alternatenames":"","latitude":"54.1942500","longitude":"-6.7233000","fclass":"P","fcode":"PPL","country":"GB","cc2":"","admin1":"NIR","admin2":"N09000002","admin3":"","admin4":"","population":0,"elevation":0,"gtopo30":185,"timezone":"Europe/London","moddate":"2016-12-04T00:00:00.000Z"},{"geonameid":2653334,"name":"Charlestown","asciiname":"Charlestown","alternatenames":"Bannfoot,Charlestown","latitude":"54.5000000","longitude":"-6.5166700","fclass":"P","fcode":"PPL","country":"GB","cc2":"GB","admin1":"NIR","admin2":"N09000002","admin3":"","admin4":"","population":0,"elevation":0,"gtopo30":12,"timezone":"Europe/London","moddate":"2016-12-04T00:00:00.000Z"},{"geonameid":2653036,"name":"Church Hill","asciiname":"Church Hill","alternatenames":"","latitude":"54.4833300","longitude":"-6.6333300","fclass":"P","fcode":"PPL","country":"GB","cc2":"","admin1":"NIR","admin2":"N09000002","admin3":"","admin4":"","population":0,"elevation":0,"gtopo30":13,"timezone":"Europe/London","moddate":"2016-12-04T00:00:00.000Z"},{"geonameid":2652939,"name":"Clare","asciiname":"Clare","alternatenames":"","latitude":"54.3833300","longitude":"-6.3333300","fclass":"P","fcode":"PPL","country":"GB","cc2":"","admin1":"NIR","admin2":"N09000002","admin3":"","admin4":"","population":0,"elevation":0,"gtopo30":67,"timezone":"Europe/London","moddate":"2016-12-04T00:00:00.000Z"},{"geonameid":2652940,"name":"Clare","asciiname":"Clare","alternatenames":"","latitude":"54.3333300","longitude":"-6.4500000","fclass":"P","fcode":"PPL","country":"GB","cc2":"","admin1":"NIR","admin2":"N09000002","admin3":"","admin4":"","population":0,"elevation":0,"gtopo30":53,"timezone":"Europe/London","moddate":"2016-12-04T00:00:00.000Z"},{"geonameid":2652384,"name":"Corbet Milltown","asciiname":"Corbet Milltown","alternatenames":"Corbet,Corbet Milltown","latitude":"54.3333300","longitude":"-6.2000000","fclass":"P","fcode":"PPL","country":"GB","cc2":"GB","admin1":"NIR","admin2":"N09000002","admin3":"","admin4":"","population":0,"elevation":0,"gtopo30":65,"timezone":"Europe/London","moddate":"2016-12-04T00:00:00.000Z"},{"geonameid":3345440,"name":"Craigavon","asciiname":"Craigavon","alternatenames":"Craigavon,Creag Abhann,Districtul Craigavon,Krejgavon,Krejgejvun,ke lei jia wen,krygaywn,qryygbwn,Крейгавон,Крейгейвън,Крејгавон,קרייגבון,کریگایون,کریگ‌آوون,克雷加文","latitude":"54.4470900","longitude":"-6.3870000","fclass":"P","fcode":"PPLA2","country":"GB","cc2":"","admin1":"NIR","admin2":"N09000002","admin3":"","admin4":"","population":59236,"elevation":0,"gtopo30":34,"timezone":"Europe/London","moddate":"2016-12-04T00:00:00.000Z"},{"geonameid":2651519,"name":"Darkley","asciiname":"Darkley","alternatenames":"Darkley","latitude":"54.2166700","longitude":"-6.6833300","fclass":"P","fcode":"PPL","country":"GB","cc2":"","admin1":"NIR","admin2":"N09000002","admin3":"","admin4":"","population":0,"elevation":0,"gtopo30":202,"timezone":"Europe/London","moddate":"2016-12-04T00:00:00.000Z"},{"geonameid":2651330,"name":"Derrymacash","asciiname":"Derrymacash","alternatenames":"Derrymacash","latitude":"54.4778200","longitude":"-6.4009100","fclass":"P","fcode":"PPL","country":"GB","cc2":"","admin1":"NIR","admin2":"N09000002","admin3":"","admin4":"","population":0,"elevation":0,"gtopo30":21,"timezone":"Europe/London","moddate":"2016-12-04T00:00:00.000Z"},{"geonameid":2651325,"name":"Derrytrasna","asciiname":"Derrytrasna","alternatenames":"Derrytrasna","latitude":"54.5000000","longitude":"-6.4666700","fclass":"P","fcode":"PPL","country":"GB","cc2":"","admin1":"NIR","admin2":"N09000002","admin3":"","admin4":"","population":0,"elevation":0,"gtopo30":15,"timezone":"Europe/London","moddate":"2016-12-04T00:00:00.000Z"},{"geonameid":2651131,"name":"Donaghcloney","asciiname":"Donaghcloney","alternatenames":"","latitude":"54.4185300","longitude":"-6.2584300","fclass":"P","fcode":"PPL","country":"GB","cc2":"","admin1":"NIR","admin2":"N09000002","admin3":"","admin4":"","population":0,"elevation":0,"gtopo30":53,"timezone":"Europe/London","moddate":"2016-12-04T00:00:00.000Z"},{"geonameid":2650977,"name":"Dromore","asciiname":"Dromore","alternatenames":"An Droim Mor,An Droim Mór,Dromor,Dromore,Droumor,Дромор,Дроумор","latitude":"54.4137400","longitude":"-6.1490800","fclass":"P","fcode":"PPL","country":"GB","cc2":"","admin1":"NIR","admin2":"N09000002","admin3":"","admin4":"","population":0,"elevation":0,"gtopo30":77,"timezone":"Europe/London","moddate":"2016-12-04T00:00:00.000Z"},{"geonameid":2650941,"name":"Drumcree","asciiname":"Drumcree","alternatenames":"","latitude":"54.4333300","longitude":"-6.4666700","fclass":"P","fcode":"PPL","country":"GB","cc2":"","admin1":"NIR","admin2":"N09000002","admin3":"","admin4":"","population":0,"elevation":0,"gtopo30":26,"timezone":"Europe/London","moddate":"2016-12-04T00:00:00.000Z"},{"geonameid":2650916,"name":"Drumnasoo","asciiname":"Drumnasoo","alternatenames":"","latitude":"54.4000000","longitude":"-6.4666700","fclass":"P","fcode":"PPL","country":"GB","cc2":"","admin1":"NIR","admin2":"N09000002","admin3":"","admin4":"","population":0,"elevation":0,"gtopo30":24,"timezone":"Europe/London","moddate":"2016-12-04T00:00:00.000Z"},{"geonameid":2650724,"name":"Dungormley","asciiname":"Dungormley","alternatenames":"Dungormley,Dungormly","latitude":"54.2166700","longitude":"-6.5833300","fclass":"P","fcode":"PPL","country":"GB","cc2":"GB","admin1":"NIR","admin2":"N09000002","admin3":"","admin4":"","population":0,"elevation":0,"gtopo30":296,"timezone":"Europe/London","moddate":"2016-12-04T00:00:00.000Z"},{"geonameid":2648669,"name":"Gilford","asciiname":"Gilford","alternatenames":"","latitude":"54.3725600","longitude":"-6.3612600","fclass":"P","fcode":"PPL","country":"GB","cc2":"","admin1":"NIR","admin2":"N09000002","admin3":"","admin4":"","population":1583,"elevation":0,"gtopo30":28,"timezone":"Europe/London","moddate":"2016-12-04T00:00:00.000Z"},{"geonameid":2648217,"name":"Grange Blundel","asciiname":"Grange Blundel","alternatenames":"","latitude":"54.4000000","longitude":"-6.6333300","fclass":"P","fcode":"PPL","country":"GB","cc2":"","admin1":"NIR","admin2":"N09000002","admin3":"","admin4":"","population":0,"elevation":0,"gtopo30":38,"timezone":"Europe/London","moddate":"2016-12-04T00:00:00.000Z"},{"geonameid":2647569,"name":"Hamiltons Bawn","asciiname":"Hamiltons Bawn","alternatenames":"Hamiltons Bawn","latitude":"54.3333300","longitude":"-6.5333300","fclass":"P","fcode":"PPL","country":"GB","cc2":"","admin1":"NIR","admin2":"N09000002","admin3":"","admin4":"","population":0,"elevation":0,"gtopo30":99,"timezone":"Europe/London","moddate":"2018-07-04T00:00:00.000Z"},{"geonameid":2646896,"name":"Hillhead","asciiname":"Hillhead","alternatenames":"Hillhead","latitude":"54.3166700","longitude":"-6.1333300","fclass":"P","fcode":"PPL","country":"GB","cc2":"","admin1":"NIR","admin2":"N09000002","admin3":"","admin4":"","population":0,"elevation":0,"gtopo30":125,"timezone":"Europe/London","moddate":"2016-12-04T00:00:00.000Z"},{"geonameid":2645923,"name":"Katesbridge","asciiname":"Katesbridge","alternatenames":"Katesbridge","latitude":"54.2833300","longitude":"-6.1333300","fclass":"P","fcode":"PPL","country":"GB","cc2":"","admin1":"NIR","admin2":"N09000002","admin3":"","admin4":"","population":0,"elevation":0,"gtopo30":100,"timezone":"Europe/London","moddate":"2016-12-04T00:00:00.000Z"},{"geonameid":2645917,"name":"Keady","asciiname":"Keady","alternatenames":"Keady","latitude":"54.2500000","longitude":"-6.7000000","fclass":"P","fcode":"PPL","country":"GB","cc2":"","admin1":"NIR","admin2":"N09000002","admin3":"","admin4":"","population":3171,"elevation":0,"gtopo30":148,"timezone":"Europe/London","moddate":"2016-12-04T00:00:00.000Z"},{"geonameid":2645614,"name":"Killylea","asciiname":"Killylea","alternatenames":"Killylea","latitude":"54.3500000","longitude":"-6.7833300","fclass":"P","fcode":"PPL","country":"GB","cc2":"","admin1":"NIR","admin2":"N09000002","admin3":"","admin4":"","population":0,"elevation":0,"gtopo30":69,"timezone":"Europe/London","moddate":"2016-12-04T00:00:00.000Z"},{"geonameid":2645586,"name":"Kilmore","asciiname":"Kilmore","alternatenames":"Kilmore","latitude":"54.4000000","longitude":"-6.5500000","fclass":"P","fcode":"PPL","country":"GB","cc2":"","admin1":"NIR","admin2":"N09000002","admin3":"","admin4":"","population":0,"elevation":0,"gtopo30":45,"timezone":"Europe/London","moddate":"2016-12-04T00:00:00.000Z"},{"geonameid":8504561,"name":"Knockmenagh","asciiname":"Knockmenagh","alternatenames":"","latitude":"54.4431900","longitude":"-6.3901400","fclass":"P","fcode":"PPLX","country":"GB","cc2":"","admin1":"NIR","admin2":"N09000002","admin3":"","admin4":"","population":0,"elevation":0,"gtopo30":41,"timezone":"Europe/London","moddate":"2016-12-04T00:00:00.000Z"},{"geonameid":2644787,"name":"Lawrencetown","asciiname":"Lawrencetown","alternatenames":"","latitude":"54.3792600","longitude":"-6.3094100","fclass":"P","fcode":"PPL","country":"GB","cc2":"","admin1":"NIR","admin2":"N09000002","admin3":"","admin4":"","population":0,"elevation":0,"gtopo30":43,"timezone":"Europe/London","moddate":"2016-12-04T00:00:00.000Z"},{"geonameid":2644392,"name":"Listullycurran","asciiname":"Listullycurran","alternatenames":"Listullycurran,Listullycurraun","latitude":"54.4333300","longitude":"-6.1333300","fclass":"P","fcode":"PPL","country":"GB","cc2":"GB","admin1":"NIR","admin2":"N09000002","admin3":"","admin4":"","population":0,"elevation":0,"gtopo30":126,"timezone":"Europe/London","moddate":"2016-12-04T00:00:00.000Z"},{"geonameid":2643566,"name":"Loughbrickland","asciiname":"Loughbrickland","alternatenames":"Loughbrickland","latitude":"54.3166700","longitude":"-6.3000000","fclass":"P","fcode":"PPL","country":"GB","cc2":"","admin1":"NIR","admin2":"N09000002","admin3":"","admin4":"","population":0,"elevation":0,"gtopo30":93,"timezone":"Europe/London","moddate":"2016-12-04T00:00:00.000Z"},{"geonameid":2643563,"name":"Loughgall","asciiname":"Loughgall","alternatenames":"Longhgall,Loughgall","latitude":"54.4100900","longitude":"-6.6012800","fclass":"P","fcode":"PPL","country":"GB","cc2":"GB","admin1":"NIR","admin2":"N09000002","admin3":"","admin4":"","population":0,"elevation":0,"gtopo30":26,"timezone":"Europe/London","moddate":"2016-12-04T00:00:00.000Z"},{"geonameid":2643562,"name":"Loughgilly","asciiname":"Loughgilly","alternatenames":"Loughgilly","latitude":"54.2666700","longitude":"-6.4666700","fclass":"P","fcode":"PPL","country":"GB","cc2":"","admin1":"NIR","admin2":"N09000002","admin3":"","admin4":"","population":0,"elevation":0,"gtopo30":60,"timezone":"Europe/London","moddate":"2016-12-04T00:00:00.000Z"},{"geonameid":2643529,"name":"Lower Darkley","asciiname":"Lower Darkley","alternatenames":"","latitude":"54.2333300","longitude":"-6.6666700","fclass":"P","fcode":"PPL","country":"GB","cc2":"","admin1":"NIR","admin2":"N09000002","admin3":"","admin4":"","population":0,"elevation":0,"gtopo30":145,"timezone":"Europe/London","moddate":"2016-12-04T00:00:00.000Z"},{"geonameid":2643360,"name":"Lurgan","asciiname":"Lurgan","alternatenames":"An Lorgain,Lerganas,Lurgan,Лурган,Лърган","latitude":"54.4568000","longitude":"-6.3235200","fclass":"P","fcode":"PPL","country":"GB","cc2":"","admin1":"NIR","admin2":"N09000002","admin3":"","admin4":"","population":0,"elevation":0,"gtopo30":50,"timezone":"Europe/London","moddate":"2016-12-05T00:00:00.000Z"},{"geonameid":2643240,"name":"Maddan","asciiname":"Maddan","alternatenames":"Maddan,Madden","latitude":"54.2833300","longitude":"-6.7666700","fclass":"P","fcode":"PPL","country":"GB","cc2":"GB","admin1":"NIR","admin2":"N09000002","admin3":"","admin4":"","population":0,"elevation":0,"gtopo30":85,"timezone":"Europe/London","moddate":"2016-12-04T00:00:00.000Z"},{"geonameid":2643205,"name":"Magheralin","asciiname":"Magheralin","alternatenames":"","latitude":"54.4669500","longitude":"-6.2598000","fclass":"P","fcode":"PPL","country":"GB","cc2":"","admin1":"NIR","admin2":"N09000002","admin3":"","admin4":"","population":1172,"elevation":0,"gtopo30":38,"timezone":"Europe/London","moddate":"2016-12-04T00:00:00.000Z"},{"geonameid":2643026,"name":"Market Hill","asciiname":"Market Hill","alternatenames":"Market Hill","latitude":"54.3000000","longitude":"-6.5166700","fclass":"P","fcode":"PPL","country":"GB","cc2":"","admin1":"NIR","admin2":"N09000002","admin3":"","admin4":"","population":0,"elevation":0,"gtopo30":102,"timezone":"Europe/London","moddate":"2018-07-04T00:00:00.000Z"},{"geonameid":9319471,"name":"Markethill","asciiname":"Markethill","alternatenames":"","latitude":"54.2980700","longitude":"-6.5218400","fclass":"P","fcode":"PPL","country":"GB","cc2":"","admin1":"NIR","admin2":"N09000002","admin3":"","admin4":"","population":0,"elevation":0,"gtopo30":97,"timezone":"Europe/London","moddate":"2016-12-04T00:00:00.000Z"},{"geonameid":2642577,"name":"Middletown","asciiname":"Middletown","alternatenames":"","latitude":"54.2935100","longitude":"-6.8409100","fclass":"P","fcode":"PPL","country":"GB","cc2":"","admin1":"NIR","admin2":"N09000002","admin3":"","admin4":"","population":0,"elevation":0,"gtopo30":48,"timezone":"Europe/London","moddate":"2016-12-04T00:00:00.000Z"},{"geonameid":2642516,"name":"Millford","asciiname":"Millford","alternatenames":"","latitude":"54.3333300","longitude":"-6.6833300","fclass":"P","fcode":"PPL","country":"GB","cc2":"","admin1":"NIR","admin2":"N09000002","admin3":"","admin4":"","population":0,"elevation":0,"gtopo30":46,"timezone":"Europe/London","moddate":"2016-12-04T00:00:00.000Z"},{"geonameid":2642493,"name":"Milltown","asciiname":"Milltown","alternatenames":"","latitude":"54.5000000","longitude":"-6.5666700","fclass":"P","fcode":"PPL","country":"GB","cc2":"","admin1":"NIR","admin2":"N09000002","admin3":"","admin4":"","population":0,"elevation":0,"gtopo30":15,"timezone":"Europe/London","moddate":"2016-12-04T00:00:00.000Z"},{"geonameid":2642494,"name":"Milltown","asciiname":"Milltown","alternatenames":"","latitude":"54.2666700","longitude":"-6.2500000","fclass":"P","fcode":"PPL","country":"GB","cc2":"","admin1":"NIR","admin2":"N09000002","admin3":"","admin4":"","population":0,"elevation":0,"gtopo30":108,"timezone":"Europe/London","moddate":"2016-12-04T00:00:00.000Z"},{"geonameid":2642284,"name":"Moorefield","asciiname":"Moorefield","alternatenames":"","latitude":"54.4500000","longitude":"-6.2500000","fclass":"P","fcode":"PPL","country":"GB","cc2":"","admin1":"NIR","admin2":"N09000002","admin3":"","admin4":"","population":0,"elevation":0,"gtopo30":49,"timezone":"Europe/London","moddate":"2016-12-04T00:00:00.000Z"},{"geonameid":2642079,"name":"Mowhan","asciiname":"Mowhan","alternatenames":"Moughan,Mowhan","latitude":"54.2666700","longitude":"-6.5166700","fclass":"P","fcode":"PPL","country":"GB","cc2":"GB","admin1":"NIR","admin2":"N09000002","admin3":"","admin4":"","population":0,"elevation":0,"gtopo30":103,"timezone":"Europe/London","moddate":"2016-12-04T00:00:00.000Z"},{"geonameid":2642077,"name":"Moy","asciiname":"Moy","alternatenames":"Moy","latitude":"54.4500000","longitude":"-6.6666700","fclass":"P","fcode":"PPL","country":"GB","cc2":"","admin1":"NIR","admin2":"N09000002","admin3":"","admin4":"","population":1234,"elevation":0,"gtopo30":19,"timezone":"Europe/London","moddate":"2016-12-04T00:00:00.000Z"},{"geonameid":2642072,"name":"Moyallan","asciiname":"Moyallan","alternatenames":"Moyallan,Moyallon","latitude":"54.4000000","longitude":"-6.3833300","fclass":"P","fcode":"PPL","country":"GB","cc2":"GB","admin1":"NIR","admin2":"N09000002","admin3":"","admin4":"","population":0,"elevation":0,"gtopo30":24,"timezone":"Europe/London","moddate":"2016-12-04T00:00:00.000Z"},{"geonameid":2640085,"name":"Portadown","asciiname":"Portadown","alternatenames":"Port an Dunain,Port an Dúnáin,Portadaun,Portadaunas,Portadoun,Portadown,Портадаун","latitude":"54.4230200","longitude":"-6.4443400","fclass":"P","fcode":"PPL","country":"GB","cc2":"","admin1":"NIR","admin2":"N09000002","admin3":"","admin4":"","population":22000,"elevation":0,"gtopo30":22,"timezone":"Europe/London","moddate":"2016-12-04T00:00:00.000Z"},{"geonameid":2639940,"name":"Poyntz Pass","asciiname":"Poyntz Pass","alternatenames":"Pointz Pass,Poyntz Pass","latitude":"54.3000000","longitude":"-6.4000000","fclass":"P","fcode":"PPL","country":"GB","cc2":"GB","admin1":"NIR","admin2":"N09000002","admin3":"","admin4":"","population":0,"elevation":0,"gtopo30":112,"timezone":"Europe/London","moddate":"2016-12-04T00:00:00.000Z"},{"geonameid":2639621,"name":"Rathfriland","asciiname":"Rathfriland","alternatenames":"Rathfriland,Rathfryland","latitude":"54.2500000","longitude":"-6.1666700","fclass":"P","fcode":"PPL","country":"GB","cc2":"","admin1":"NIR","admin2":"N09000002","admin3":"","admin4":"","population":2063,"elevation":0,"gtopo30":84,"timezone":"Europe/London","moddate":"2016-12-04T00:00:00.000Z"},{"geonameid":2639390,"name":"Rich Hill","asciiname":"Rich Hill","alternatenames":"","latitude":"54.3833300","longitude":"-6.5500000","fclass":"P","fcode":"PPL","country":"GB","cc2":"","admin1":"NIR","admin2":"N09000002","admin3":"","admin4":"","population":0,"elevation":0,"gtopo30":39,"timezone":"Europe/London","moddate":"2016-12-04T00:00:00.000Z"},{"geonameid":2638399,"name":"Scarva","asciiname":"Scarva","alternatenames":"Scarva","latitude":"54.3333300","longitude":"-6.3666700","fclass":"P","fcode":"PPL","country":"GB","cc2":"","admin1":"NIR","admin2":"N09000002","admin3":"","admin4":"","population":0,"elevation":0,"gtopo30":28,"timezone":"Europe/London","moddate":"2016-12-04T00:00:00.000Z"},{"geonameid":2638364,"name":"Scotch Street","asciiname":"Scotch Street","alternatenames":"Scotch Street","latitude":"54.4500000","longitude":"-6.5166700","fclass":"P","fcode":"PPL","country":"GB","cc2":"","admin1":"NIR","admin2":"N09000002","admin3":"","admin4":"","population":0,"elevation":0,"gtopo30":33,"timezone":"Europe/London","moddate":"2016-12-04T00:00:00.000Z"},{"geonameid":2638306,"name":"Seagoe","asciiname":"Seagoe","alternatenames":"","latitude":"54.4333300","longitude":"-6.4166700","fclass":"P","fcode":"PPL","country":"GB","cc2":"","admin1":"NIR","admin2":"N09000002","admin3":"","admin4":"","population":0,"elevation":0,"gtopo30":45,"timezone":"Europe/London","moddate":"2016-12-04T00:00:00.000Z"},{"geonameid":2638285,"name":"Seapatrick","asciiname":"Seapatrick","alternatenames":"Newtown,Seapatrick","latitude":"54.3655600","longitude":"-6.2774400","fclass":"P","fcode":"PPL","country":"GB","cc2":"GB","admin1":"NIR","admin2":"N09000002","admin3":"","admin4":"","population":0,"elevation":0,"gtopo30":73,"timezone":"Europe/London","moddate":"2018-07-09T00:00:00.000Z"},{"geonameid":2637733,"name":"Skerries","asciiname":"Skerries","alternatenames":"","latitude":"54.2666700","longitude":"-6.8333300","fclass":"P","fcode":"PPL","country":"GB","cc2":"","admin1":"NIR","admin2":"N09000002","admin3":"","admin4":"","population":0,"elevation":0,"gtopo30":98,"timezone":"Europe/London","moddate":"2016-12-04T00:00:00.000Z"},{"geonameid":2636271,"name":"Tandragee","asciiname":"Tandragee","alternatenames":"Tanderagee","latitude":"54.3548600","longitude":"-6.4139600","fclass":"P","fcode":"PPL","country":"GB","cc2":"","admin1":"NIR","admin2":"N09000002","admin3":"","admin4":"","population":3122,"elevation":0,"gtopo30":63,"timezone":"Europe/London","moddate":"2016-12-04T00:00:00.000Z"},{"geonameid":2636187,"name":"Tassagh","asciiname":"Tassagh","alternatenames":"","latitude":"54.2666700","longitude":"-6.6833300","fclass":"P","fcode":"PPL","country":"GB","cc2":"","admin1":"NIR","admin2":"N09000002","admin3":"","admin4":"","population":0,"elevation":0,"gtopo30":129,"timezone":"Europe/London","moddate":"2016-12-04T00:00:00.000Z"},{"geonameid":2655629,"name":"The Birches","asciiname":"The Birches","alternatenames":"The Birches","latitude":"54.4833300","longitude":"-6.5500000","fclass":"P","fcode":"PPL","country":"GB","cc2":"","admin1":"NIR","admin2":"N09000002","admin3":"","admin4":"","population":0,"elevation":0,"gtopo30":14,"timezone":"Europe/London","moddate":"2019-02-21T00:00:00.000Z"},{"geonameid":2651275,"name":"The Diamond","asciiname":"The Diamond","alternatenames":"","latitude":"54.3833300","longitude":"-6.1166700","fclass":"P","fcode":"PPL","country":"GB","cc2":"","admin1":"NIR","admin2":"N09000002","admin3":"","admin4":"","population":0,"elevation":0,"gtopo30":123,"timezone":"Europe/London","moddate":"2016-12-04T00:00:00.000Z"},{"geonameid":2635279,"name":"Tynan","asciiname":"Tynan","alternatenames":"Tynan","latitude":"54.3333300","longitude":"-6.8333300","fclass":"P","fcode":"PPL","country":"GB","cc2":"","admin1":"NIR","admin2":"N09000002","admin3":"","admin4":"","population":0,"elevation":0,"gtopo30":58,"timezone":"Europe/London","moddate":"2016-12-04T00:00:00.000Z"},{"geonameid":2634769,"name":"Waringsford","asciiname":"Waringsford","alternatenames":"Waringsford","latitude":"54.3666700","longitude":"-6.1166700","fclass":"P","fcode":"PPL","country":"GB","cc2":"","admin1":"NIR","admin2":"N09000002","admin3":"","admin4":"","population":0,"elevation":0,"gtopo30":126,"timezone":"Europe/London","moddate":"2016-12-04T00:00:00.000Z"},{"geonameid":2634768,"name":"Waringstown","asciiname":"Waringstown","alternatenames":"","latitude":"54.4343100","longitude":"-6.2992900","fclass":"P","fcode":"PPL","country":"GB","cc2":"","admin1":"NIR","admin2":"N09000002","admin3":"","admin4":"","population":2856,"elevation":0,"gtopo30":50,"timezone":"Europe/London","moddate":"2016-12-04T00:00:00.000Z"}],"admin3":[],"alternateNames":[]},"__N_SSG":true}