{"pageProps":{"locale":"ro","admin2":{"geonameid":662966,"name":"Comuna Vidra","country":"RO","admin1":"40","admin2":"178377","admin3":"","latitude":"45.9142000","longitude":"26.9050600"},"admin1":{"geonameid":662447,"name":"Vrancea","admin1":"40","localeAltName":"Vrancea"},"locations":[{"geonameid":683250,"name":"Burca","asciiname":"Burca","alternatenames":"","latitude":"45.9122400","longitude":"26.9490500","fclass":"P","fcode":"PPL","country":"RO","cc2":"","admin1":"40","admin2":"178377","admin3":"","admin4":"","population":1434,"elevation":0,"gtopo30":216,"timezone":"Europe/Bucharest","moddate":"2013-04-21T00:00:00.000Z"},{"geonameid":682976,"name":"Căliman","asciiname":"Caliman","alternatenames":"Caliman,Calimanul,Căliman,Călimanul","latitude":"45.9000000","longitude":"26.9166700","fclass":"P","fcode":"PPL","country":"RO","cc2":"","admin1":"40","admin2":"178377","admin3":"","admin4":"","population":0,"elevation":0,"gtopo30":314,"timezone":"Europe/Bucharest","moddate":"2016-02-07T00:00:00.000Z"},{"geonameid":680028,"name":"Cucueţi","asciiname":"Cucueti","alternatenames":"Cucueti,Cucuetii,Cucueţi,Cucueţii","latitude":"45.9166700","longitude":"26.9833300","fclass":"P","fcode":"PPL","country":"RO","cc2":"","admin1":"40","admin2":"178377","admin3":"","admin4":"","population":0,"elevation":0,"gtopo30":239,"timezone":"Europe/Bucharest","moddate":"2016-02-07T00:00:00.000Z"},{"geonameid":680023,"name":"Cucueţii de sub Măgură","asciiname":"Cucuetii de sub Magura","alternatenames":"Cucuctii de Sub Magura,Cucuctii de Sub Măgura,Cucuetii de sub Magura,Cucueţii de sub Măgură","latitude":"45.9000000","longitude":"26.9500000","fclass":"P","fcode":"PPL","country":"RO","cc2":"","admin1":"40","admin2":"178377","admin3":"","admin4":"","population":0,"elevation":0,"gtopo30":348,"timezone":"Europe/Bucharest","moddate":"2016-02-07T00:00:00.000Z"},{"geonameid":675503,"name":"Irești","asciiname":"Iresti","alternatenames":"Iresti,Irestii,Ireşti,Ireştii","latitude":"45.9299300","longitude":"26.9439300","fclass":"P","fcode":"PPL","country":"RO","cc2":"RO","admin1":"40","admin2":"178377","admin3":"","admin4":"","population":1100,"elevation":0,"gtopo30":284,"timezone":"Europe/Bucharest","moddate":"2013-04-21T00:00:00.000Z"},{"geonameid":668506,"name":"Ruget","asciiname":"Ruget","alternatenames":"Ruget,Rugetul","latitude":"45.9008900","longitude":"26.8613900","fclass":"P","fcode":"PPL","country":"RO","cc2":"RO","admin1":"40","admin2":"178377","admin3":"","admin4":"","population":250,"elevation":0,"gtopo30":319,"timezone":"Europe/Bucharest","moddate":"2013-04-21T00:00:00.000Z"},{"geonameid":667735,"name":"Scafari","asciiname":"Scafari","alternatenames":"","latitude":"45.9048400","longitude":"26.8885300","fclass":"P","fcode":"PPL","country":"RO","cc2":"","admin1":"40","admin2":"178377","admin3":"","admin4":"","population":366,"elevation":0,"gtopo30":278,"timezone":"Europe/Bucharest","moddate":"2013-04-21T00:00:00.000Z"},{"geonameid":667357,"name":"Șerbești","asciiname":"Serbesti","alternatenames":"Serbesti,Serbestii,Şerbeşti,Şerbeştii","latitude":"45.9226100","longitude":"26.9707000","fclass":"P","fcode":"PPL","country":"RO","cc2":"RO","admin1":"40","admin2":"178377","admin3":"","admin4":"","population":629,"elevation":0,"gtopo30":253,"timezone":"Europe/Bucharest","moddate":"2013-04-21T00:00:00.000Z"},{"geonameid":665594,"name":"Talpani","asciiname":"Talpani","alternatenames":"Talapani,Talpani","latitude":"45.9500000","longitude":"26.9833300","fclass":"P","fcode":"PPL","country":"RO","cc2":"","admin1":"40","admin2":"178377","admin3":"","admin4":"","population":0,"elevation":0,"gtopo30":248,"timezone":"Europe/Bucharest","moddate":"2016-02-07T00:00:00.000Z"},{"geonameid":665171,"name":"Tichiriș","asciiname":"Tichiris","alternatenames":"Tichiris,Tichirisul,Tichiriş,Tichirişul","latitude":"45.9007600","longitude":"26.8784900","fclass":"P","fcode":"PPL","country":"RO","cc2":"RO","admin1":"40","admin2":"178377","admin3":"","admin4":"","population":534,"elevation":0,"gtopo30":287,"timezone":"Europe/Bucharest","moddate":"2013-04-21T00:00:00.000Z"},{"geonameid":662970,"name":"Vidra","asciiname":"Vidra","alternatenames":"Vidra,Vrancea","latitude":"45.9166700","longitude":"26.9000000","fclass":"P","fcode":"PPLA2","country":"RO","cc2":"","admin1":"40","admin2":"178377","admin3":"","admin4":"","population":7423,"elevation":0,"gtopo30":275,"timezone":"Europe/Bucharest","moddate":"2012-06-12T00:00:00.000Z"},{"geonameid":662926,"name":"Viișoara","asciiname":"Viisoara","alternatenames":"Paro su,Parosul,Păro su,Părosul,Viisoara,Viişoara","latitude":"45.9208500","longitude":"26.8235400","fclass":"P","fcode":"PPL","country":"RO","cc2":"RO","admin1":"40","admin2":"178377","admin3":"","admin4":"","population":868,"elevation":0,"gtopo30":402,"timezone":"Europe/Bucharest","moddate":"2013-04-20T00:00:00.000Z"},{"geonameid":662483,"name":"Voloșcani","asciiname":"Voloscani","alternatenames":"","latitude":"45.9248900","longitude":"26.9229100","fclass":"P","fcode":"PPL","country":"RO","cc2":"","admin1":"40","admin2":"178377","admin3":"","admin4":"","population":402,"elevation":0,"gtopo30":263,"timezone":"Europe/Bucharest","moddate":"2013-04-20T00:00:00.000Z"},{"geonameid":662480,"name":"Voloşcani Mari","asciiname":"Voloscani Mari","alternatenames":"","latitude":"45.9166700","longitude":"26.9166700","fclass":"P","fcode":"PPLX","country":"RO","cc2":"","admin1":"40","admin2":"178377","admin3":"","admin4":"","population":0,"elevation":0,"gtopo30":263,"timezone":"Europe/Bucharest","moddate":"2016-02-07T00:00:00.000Z"},{"geonameid":662479,"name":"Voloşcani Mici","asciiname":"Voloscani Mici","alternatenames":"","latitude":"45.9166700","longitude":"26.9166700","fclass":"P","fcode":"PPLX","country":"RO","cc2":"","admin1":"40","admin2":"178377","admin3":"","admin4":"","population":0,"elevation":0,"gtopo30":263,"timezone":"Europe/Bucharest","moddate":"2016-02-07T00:00:00.000Z"}],"admin3":[],"alternateNames":[{"alternatenameId":391637,"geonameid":662447,"isoLanguage":"ro","alternateName":"Vrancea","isPreferredName":true,"isShortName":true,"isColloquial":false,"isHistoric":false}]},"__N_SSG":true}