{"pageProps":{"locale":"ro","admin2":{"geonameid":681159,"name":"Comuna Cogealac","country":"RO","admin1":"14","admin2":"61372","admin3":"","latitude":"44.5766100","longitude":"28.5224400"},"admin1":{"geonameid":680962,"name":"Constanța","admin1":"14","localeAltName":"Constanța"},"locations":[{"geonameid":681160,"name":"Cogealac","asciiname":"Cogealac","alternatenames":"Cogealac,Domnesti,Domneşti,Kogealak","latitude":"44.5500000","longitude":"28.5666700","fclass":"P","fcode":"PPLA2","country":"RO","cc2":"","admin1":"14","admin2":"61372","admin3":"","admin4":"","population":7046,"elevation":0,"gtopo30":94,"timezone":"Europe/Bucharest","moddate":"2012-06-12T00:00:00.000Z"},{"geonameid":676541,"name":"Gura Dobrogei","asciiname":"Gura Dobrogei","alternatenames":"Cavargic,Gura Dobrogei","latitude":"44.4810000","longitude":"28.5268600","fclass":"P","fcode":"PPL","country":"RO","cc2":"RO","admin1":"14","admin2":"61372","admin3":"","admin4":"","population":166,"elevation":0,"gtopo30":47,"timezone":"Europe/Bucharest","moddate":"2013-04-21T00:00:00.000Z"},{"geonameid":668877,"name":"Râmnicu de Jos","asciiname":"Ramnicu de Jos","alternatenames":"Ramnicu-de-Jos,Ramnicul-de Jos,Ramnik de Jos,Rimnicu de Jos,Râmnicu-de-Jos,Râmnicul-de Jos,Rîmnicu de Jos","latitude":"44.6292000","longitude":"28.4553600","fclass":"P","fcode":"PPL","country":"RO","cc2":"RO","admin1":"14","admin2":"61372","admin3":"","admin4":"","population":676,"elevation":0,"gtopo30":106,"timezone":"Europe/Bucharest","moddate":"2013-04-21T00:00:00.000Z"},{"geonameid":668876,"name":"Râmnicu de Sus","asciiname":"Ramnicu de Sus","alternatenames":"Ramnicu-de-Sus,Ramnicul-de Sus,Ramnik de Sus,Rimnicu de Sus,Râmnicu-de-Sus,Râmnicul-de Sus,Rîmnicu de Sus","latitude":"44.6512700","longitude":"28.4652300","fclass":"P","fcode":"PPL","country":"RO","cc2":"RO","admin1":"14","admin2":"61372","admin3":"","admin4":"","population":114,"elevation":0,"gtopo30":128,"timezone":"Europe/Bucharest","moddate":"2013-04-21T00:00:00.000Z"},{"geonameid":665498,"name":"Tariverde","asciiname":"Tariverde","alternatenames":"Dororotea,Dorotea,Dorotheia,Tariverde,Tariverdi","latitude":"44.5626800","longitude":"28.6024500","fclass":"P","fcode":"PPL","country":"RO","cc2":"RO","admin1":"14","admin2":"61372","admin3":"","admin4":"","population":1152,"elevation":0,"gtopo30":54,"timezone":"Europe/Bucharest","moddate":"2013-04-21T00:00:00.000Z"},{"geonameid":664567,"name":"Tudor Vladimirescu","asciiname":"Tudor Vladimirescu","alternatenames":"Regep-Cuiu,Tudor Vladimirescu","latitude":"44.5500000","longitude":"28.5666700","fclass":"P","fcode":"PPL","country":"RO","cc2":"","admin1":"14","admin2":"61372","admin3":"","admin4":"","population":0,"elevation":0,"gtopo30":94,"timezone":"Europe/Bucharest","moddate":"2016-02-07T00:00:00.000Z"}],"admin3":[],"alternateNames":[{"alternatenameId":402149,"geonameid":680962,"isoLanguage":"ro","alternateName":"Constanța","isPreferredName":true,"isShortName":true,"isColloquial":false,"isHistoric":false}]},"__N_SSG":true}