{"pageProps":{"locale":"ro","admin2":{"geonameid":673044,"name":"Comuna Mitrofani","country":"RO","admin1":"39","admin2":"174520","admin3":"","latitude":"44.7510400","longitude":"24.2027200"},"admin1":{"geonameid":662892,"name":"Vâlcea","admin1":"39"},"locations":[{"geonameid":682256,"name":"Cetățeaua","asciiname":"Cetateaua","alternatenames":"","latitude":"44.7573700","longitude":"24.2016800","fclass":"P","fcode":"PPL","country":"RO","cc2":"","admin1":"39","admin2":"174520","admin3":"","admin4":"","population":85,"elevation":0,"gtopo30":229,"timezone":"Europe/Bucharest","moddate":"2013-04-21T00:00:00.000Z"},{"geonameid":675356,"name":"Izvorașu","asciiname":"Izvorasu","alternatenames":"Bou,Izvorasu,Izvoraşu,Verdea de Sus","latitude":"44.7710100","longitude":"24.1951400","fclass":"P","fcode":"PPL","country":"RO","cc2":"RO","admin1":"39","admin2":"174520","admin3":"","admin4":"","population":148,"elevation":0,"gtopo30":242,"timezone":"Europe/Bucharest","moddate":"2013-04-21T00:00:00.000Z"},{"geonameid":673045,"name":"Mitrofani","asciiname":"Mitrofani","alternatenames":"Milrofa,Mitrofani","latitude":"44.7326800","longitude":"24.2091000","fclass":"P","fcode":"PPLA2","country":"RO","cc2":"RO","admin1":"39","admin2":"174520","admin3":"","admin4":"","population":866,"elevation":0,"gtopo30":211,"timezone":"Europe/Bucharest","moddate":"2013-04-21T00:00:00.000Z"},{"geonameid":669302,"name":"Racu","asciiname":"Racu","alternatenames":"Racu,Racul","latitude":"44.7430900","longitude":"24.2049800","fclass":"P","fcode":"PPL","country":"RO","cc2":"RO","admin1":"39","admin2":"174520","admin3":"","admin4":"","population":199,"elevation":0,"gtopo30":219,"timezone":"Europe/Bucharest","moddate":"2013-04-21T00:00:00.000Z"}],"admin3":[],"alternateNames":[]},"__N_SSG":true}