{"pageProps":{"locale":"ro","admin2":{"geonameid":8334995,"name":"Comuna Bolboşi","country":"RO","admin1":"19","admin2":"79077","admin3":"","latitude":"44.7374000","longitude":"23.2215700"},"admin1":{"geonameid":676898,"name":"Gorj","admin1":"19"},"locations":[{"geonameid":685728,"name":"Bălăcești","asciiname":"Balacesti","alternatenames":"","latitude":"44.7535000","longitude":"23.1983700","fclass":"P","fcode":"PPL","country":"RO","cc2":"","admin1":"19","admin2":"79077","admin3":"","admin4":"","population":644,"elevation":0,"gtopo30":180,"timezone":"Europe/Bucharest","moddate":"2013-04-21T00:00:00.000Z"},{"geonameid":10942613,"name":"Bolboasa","asciiname":"Bolboasa","alternatenames":"","latitude":"44.7417200","longitude":"23.2064900","fclass":"P","fcode":"PPL","country":"RO","cc2":"","admin1":"19","admin2":"79077","admin3":"","admin4":"","population":337,"elevation":0,"gtopo30":199,"timezone":"Europe/Bucharest","moddate":"2015-11-27T00:00:00.000Z"},{"geonameid":684291,"name":"Bolboşi","asciiname":"Bolbosi","alternatenames":"Bolbosi,Bolboşi","latitude":"44.7500000","longitude":"23.2166700","fclass":"P","fcode":"PPLA2","country":"RO","cc2":"","admin1":"19","admin2":"79077","admin3":"","admin4":"","population":3286,"elevation":0,"gtopo30":167,"timezone":"Europe/Bucharest","moddate":"2012-06-12T00:00:00.000Z"},{"geonameid":675698,"name":"Igirosu","asciiname":"Igirosu","alternatenames":"","latitude":"44.7349400","longitude":"23.2404400","fclass":"P","fcode":"PPL","country":"RO","cc2":"","admin1":"19","admin2":"79077","admin3":"","admin4":"","population":173,"elevation":0,"gtopo30":160,"timezone":"Europe/Bucharest","moddate":"2013-04-21T00:00:00.000Z"},{"geonameid":673460,"name":"Miclosu","asciiname":"Miclosu","alternatenames":"Miclosiu,Miclosu,Micloşu","latitude":"44.7399100","longitude":"23.2227700","fclass":"P","fcode":"PPL","country":"RO","cc2":"RO","admin1":"19","admin2":"79077","admin3":"","admin4":"","population":244,"elevation":0,"gtopo30":187,"timezone":"Europe/Bucharest","moddate":"2013-04-21T00:00:00.000Z"},{"geonameid":671917,"name":"Ohaba Jiu","asciiname":"Ohaba Jiu","alternatenames":"","latitude":"44.7206700","longitude":"23.2468800","fclass":"P","fcode":"PPL","country":"RO","cc2":"","admin1":"19","admin2":"79077","admin3":"","admin4":"","population":507,"elevation":0,"gtopo30":180,"timezone":"Europe/Bucharest","moddate":"2013-04-21T00:00:00.000Z"},{"geonameid":663940,"name":"Valea","asciiname":"Valea","alternatenames":"Conace,Valea","latitude":"44.7224200","longitude":"23.2029400","fclass":"P","fcode":"PPL","country":"RO","cc2":"RO","admin1":"19","admin2":"79077","admin3":"","admin4":"","population":866,"elevation":0,"gtopo30":191,"timezone":"Europe/Bucharest","moddate":"2013-04-20T00:00:00.000Z"}],"admin3":[],"alternateNames":[]},"__N_SSG":true}