{"pageProps":{"locale":"ro","admin2":{"geonameid":672506,"name":"Comuna Năpradea","country":"RO","admin1":"31","admin2":"142177","admin3":"","latitude":"47.3449700","longitude":"23.3160300"},"admin1":{"geonameid":668248,"name":"Sălaj","admin1":"31"},"locations":[{"geonameid":682162,"name":"Cheud","asciiname":"Cheud","alternatenames":"","latitude":"47.3837400","longitude":"23.3161200","fclass":"P","fcode":"PPL","country":"RO","cc2":"","admin1":"31","admin2":"142177","admin3":"","admin4":"","population":920,"elevation":0,"gtopo30":185,"timezone":"Europe/Bucharest","moddate":"2013-04-21T00:00:00.000Z"},{"geonameid":672507,"name":"Năpradea","asciiname":"Napradea","alternatenames":"Napradea,Năpradea","latitude":"47.3666700","longitude":"23.3166700","fclass":"P","fcode":"PPLA2","country":"RO","cc2":"","admin1":"31","admin2":"142177","admin3":"","admin4":"","population":2961,"elevation":0,"gtopo30":190,"timezone":"Europe/Bucharest","moddate":"2012-06-12T00:00:00.000Z"},{"geonameid":666469,"name":"Someș Guruslău","asciiname":"Somes Guruslau","alternatenames":"","latitude":"47.3114400","longitude":"23.2973000","fclass":"P","fcode":"PPL","country":"RO","cc2":"","admin1":"31","admin2":"142177","admin3":"","admin4":"","population":525,"elevation":0,"gtopo30":193,"timezone":"Europe/Bucharest","moddate":"2013-04-21T00:00:00.000Z"},{"geonameid":664662,"name":"Traniș","asciiname":"Tranis","alternatenames":"","latitude":"47.3331700","longitude":"23.3064900","fclass":"P","fcode":"PPL","country":"RO","cc2":"","admin1":"31","admin2":"142177","admin3":"","admin4":"","population":409,"elevation":0,"gtopo30":187,"timezone":"Europe/Bucharest","moddate":"2013-04-21T00:00:00.000Z"},{"geonameid":663992,"name":"Vădurele","asciiname":"Vadurele","alternatenames":"","latitude":"47.3318300","longitude":"23.3417200","fclass":"P","fcode":"PPL","country":"RO","cc2":"","admin1":"31","admin2":"142177","admin3":"","admin4":"","population":266,"elevation":0,"gtopo30":243,"timezone":"Europe/Bucharest","moddate":"2013-04-20T00:00:00.000Z"}],"admin3":[],"alternateNames":[]},"__N_SSG":true}