{"pageProps":{"locale":"ro","admin2":{"geonameid":680906,"name":"Comuna Copalnic Mănăştur","country":"RO","admin1":"25","admin2":"107733","admin3":"","latitude":"47.5225000","longitude":"23.6878200"},"admin1":{"geonameid":673887,"name":"Maramureş","admin1":"25"},"locations":[{"geonameid":684999,"name":"Berința","asciiname":"Berinta","alternatenames":"","latitude":"47.5406700","longitude":"23.6769300","fclass":"P","fcode":"PPL","country":"RO","cc2":"","admin1":"25","admin2":"107733","admin3":"","admin4":"","population":793,"elevation":0,"gtopo30":242,"timezone":"Europe/Bucharest","moddate":"2013-04-21T00:00:00.000Z"},{"geonameid":682657,"name":"Cărpiniș","asciiname":"Carpinis","alternatenames":"","latitude":"47.5755500","longitude":"23.7033700","fclass":"P","fcode":"PPL","country":"RO","cc2":"","admin1":"25","admin2":"107733","admin3":"","admin4":"","population":396,"elevation":0,"gtopo30":302,"timezone":"Europe/Bucharest","moddate":"2013-04-21T00:00:00.000Z"},{"geonameid":680909,"name":"Copalnic","asciiname":"Copalnic","alternatenames":"","latitude":"47.5204200","longitude":"23.6556300","fclass":"P","fcode":"PPL","country":"RO","cc2":"","admin1":"25","admin2":"107733","admin3":"","admin4":"","population":747,"elevation":0,"gtopo30":238,"timezone":"Europe/Bucharest","moddate":"2013-04-21T00:00:00.000Z"},{"geonameid":680907,"name":"Copalnic Mănăştur","asciiname":"Copalnic Manastur","alternatenames":"Copalnic Manastur,Copalnic Monastur,Copalnic Mănăştur","latitude":"47.5000000","longitude":"23.6833300","fclass":"P","fcode":"PPLA2","country":"RO","cc2":"","admin1":"25","admin2":"107733","admin3":"","admin4":"","population":5747,"elevation":0,"gtopo30":321,"timezone":"Europe/Bucharest","moddate":"2012-06-12T00:00:00.000Z"},{"geonameid":663315,"name":"Copalnic-Deal","asciiname":"Copalnic-Deal","alternatenames":"Kapolnokdomb,Kápolnokdomb","latitude":"47.5113500","longitude":"23.6531700","fclass":"P","fcode":"PPL","country":"RO","cc2":"","admin1":"25","admin2":"107733","admin3":"","admin4":"","population":109,"elevation":0,"gtopo30":235,"timezone":"Europe/Bucharest","moddate":"2015-12-11T00:00:00.000Z"},{"geonameid":679888,"name":"Curtuiușu Mic","asciiname":"Curtuiusu Mic","alternatenames":"Curtuiusu Mic,Curtuiusul Mic,Curtuiuşu Mic","latitude":"47.5429900","longitude":"23.6253100","fclass":"P","fcode":"PPL","country":"RO","cc2":"RO","admin1":"25","admin2":"107733","admin3":"","admin4":"","population":281,"elevation":0,"gtopo30":215,"timezone":"Europe/Bucharest","moddate":"2013-04-21T00:00:00.000Z"},{"geonameid":678383,"name":"Făurești","asciiname":"Fauresti","alternatenames":"","latitude":"47.5631900","longitude":"23.7500500","fclass":"P","fcode":"PPL","country":"RO","cc2":"","admin1":"25","admin2":"107733","admin3":"","admin4":"","population":816,"elevation":0,"gtopo30":324,"timezone":"Europe/Bucharest","moddate":"2013-04-21T00:00:00.000Z"},{"geonameid":675010,"name":"Lăschia","asciiname":"Laschia","alternatenames":"","latitude":"47.5433200","longitude":"23.7321400","fclass":"P","fcode":"PPL","country":"RO","cc2":"","admin1":"25","admin2":"107733","admin3":"","admin4":"","population":560,"elevation":0,"gtopo30":299,"timezone":"Europe/Bucharest","moddate":"2013-04-21T00:00:00.000Z"},{"geonameid":669679,"name":"Preluca Nouă","asciiname":"Preluca Noua","alternatenames":"","latitude":"47.4669700","longitude":"23.6515100","fclass":"P","fcode":"PPL","country":"RO","cc2":"","admin1":"25","admin2":"107733","admin3":"","admin4":"","population":335,"elevation":0,"gtopo30":605,"timezone":"Europe/Bucharest","moddate":"2013-04-21T00:00:00.000Z"},{"geonameid":669678,"name":"Preluca Veche","asciiname":"Preluca Veche","alternatenames":"Preluca,Preluca Veche","latitude":"47.4694100","longitude":"23.7079000","fclass":"P","fcode":"PPL","country":"RO","cc2":"RO","admin1":"25","admin2":"107733","admin3":"","admin4":"","population":465,"elevation":0,"gtopo30":694,"timezone":"Europe/Bucharest","moddate":"2013-04-21T00:00:00.000Z"},{"geonameid":668376,"name":"Rușor","asciiname":"Rusor","alternatenames":"","latitude":"47.5044000","longitude":"23.7110200","fclass":"P","fcode":"PPL","country":"RO","cc2":"","admin1":"25","admin2":"107733","admin3":"","admin4":"","population":299,"elevation":0,"gtopo30":261,"timezone":"Europe/Bucharest","moddate":"2013-04-21T00:00:00.000Z"},{"geonameid":664028,"name":"Vad","asciiname":"Vad","alternatenames":"","latitude":"47.5214600","longitude":"23.7116100","fclass":"P","fcode":"PPL","country":"RO","cc2":"","admin1":"25","admin2":"107733","admin3":"","admin4":"","population":389,"elevation":0,"gtopo30":278,"timezone":"Europe/Bucharest","moddate":"2013-04-20T00:00:00.000Z"}],"admin3":[],"alternateNames":[]},"__N_SSG":true}