{"pageProps":{"locale":"ro","admin2":{"geonameid":8334965,"name":"Oraş Bãile Govora","country":"RO","admin1":"39","admin2":"167641","admin3":"","latitude":"45.0817400","longitude":"24.1824600"},"admin1":{"geonameid":662892,"name":"Vâlcea","admin1":"39"},"locations":[{"geonameid":685797,"name":"Băile Govora","asciiname":"Baile Govora","alternatenames":"Baile Govora,Băile Govora","latitude":"45.0833300","longitude":"24.1833300","fclass":"P","fcode":"PPLA2","country":"RO","cc2":"","admin1":"39","admin2":"167641","admin3":"","admin4":"","population":2862,"elevation":0,"gtopo30":363,"timezone":"Europe/Bucharest","moddate":"2012-06-12T00:00:00.000Z"},{"geonameid":679939,"name":"Curăturile","asciiname":"Curaturile","alternatenames":"","latitude":"45.0672200","longitude":"24.1769600","fclass":"P","fcode":"PPLX","country":"RO","cc2":"","admin1":"39","admin2":"167641","admin3":"","admin4":"","population":0,"elevation":0,"gtopo30":419,"timezone":"Europe/Bucharest","moddate":"2016-02-07T00:00:00.000Z"},{"geonameid":677152,"name":"Gâtejeşti","asciiname":"Gatejesti","alternatenames":"Gatejesti,Gitejesti,Gâtejesti,Gâtejeşti,Gîtejeşti","latitude":"45.1000000","longitude":"24.2000000","fclass":"P","fcode":"PPLX","country":"RO","cc2":"RO","admin1":"39","admin2":"167641","admin3":"","admin4":"","population":0,"elevation":0,"gtopo30":292,"timezone":"Europe/Bucharest","moddate":"2020-03-08T00:00:00.000Z"},{"geonameid":669723,"name":"Prajila","asciiname":"Prajila","alternatenames":"","latitude":"45.0827000","longitude":"24.1694900","fclass":"P","fcode":"PPL","country":"RO","cc2":"","admin1":"39","admin2":"167641","admin3":"","admin4":"","population":2570,"elevation":0,"gtopo30":387,"timezone":"Europe/Bucharest","moddate":"2017-09-04T00:00:00.000Z"}],"admin3":[],"alternateNames":[]},"__N_SSG":true}