{"pageProps":{"locale":"ro","admin2":{"geonameid":668455,"name":"Comuna Runcu","country":"RO","admin1":"39","admin2":"172812","admin3":"","latitude":"45.1868500","longitude":"24.4597900"},"admin1":{"geonameid":662892,"name":"Vâlcea","admin1":"39"},"locations":[{"geonameid":682977,"name":"Căligi","asciiname":"Caligi","alternatenames":"","latitude":"45.2177700","longitude":"24.4643400","fclass":"P","fcode":"PPL","country":"RO","cc2":"","admin1":"39","admin2":"172812","admin3":"","admin4":"","population":71,"elevation":0,"gtopo30":711,"timezone":"Europe/Bucharest","moddate":"2013-04-21T00:00:00.000Z"},{"geonameid":676679,"name":"Gropeni","asciiname":"Gropeni","alternatenames":"Gropeni","latitude":"45.1782600","longitude":"24.4295800","fclass":"P","fcode":"PPL","country":"RO","cc2":"","admin1":"39","admin2":"172812","admin3":"","admin4":"","population":124,"elevation":0,"gtopo30":517,"timezone":"Europe/Bucharest","moddate":"2013-04-21T00:00:00.000Z"},{"geonameid":674821,"name":"Leuceşti","asciiname":"Leucesti","alternatenames":"","latitude":"45.1833300","longitude":"24.5000000","fclass":"P","fcode":"PPLX","country":"RO","cc2":"","admin1":"39","admin2":"172812","admin3":"","admin4":"","population":0,"elevation":0,"gtopo30":505,"timezone":"Europe/Bucharest","moddate":"2016-02-07T00:00:00.000Z"},{"geonameid":668466,"name":"Runcu","asciiname":"Runcu","alternatenames":"Runcu,Runcul","latitude":"45.1666700","longitude":"24.4500000","fclass":"P","fcode":"PPLA2","country":"RO","cc2":"","admin1":"39","admin2":"172812","admin3":"","admin4":"","population":1138,"elevation":0,"gtopo30":391,"timezone":"Europe/Bucharest","moddate":"2012-06-12T00:00:00.000Z"},{"geonameid":666607,"name":"Snamăna","asciiname":"Snamana","alternatenames":"","latitude":"45.1956100","longitude":"24.4549600","fclass":"P","fcode":"PPL","country":"RO","cc2":"","admin1":"39","admin2":"172812","admin3":"","admin4":"","population":45,"elevation":0,"gtopo30":496,"timezone":"Europe/Bucharest","moddate":"2013-04-21T00:00:00.000Z"},{"geonameid":665715,"name":"Surpați","asciiname":"Surpati","alternatenames":"","latitude":"45.2031500","longitude":"24.4833400","fclass":"P","fcode":"PPL","country":"RO","cc2":"","admin1":"39","admin2":"172812","admin3":"","admin4":"","population":134,"elevation":0,"gtopo30":610,"timezone":"Europe/Bucharest","moddate":"2013-04-21T00:00:00.000Z"},{"geonameid":665713,"name":"Surpini","asciiname":"Surpini","alternatenames":"","latitude":"45.1833300","longitude":"24.5000000","fclass":"P","fcode":"PPLX","country":"RO","cc2":"","admin1":"39","admin2":"172812","admin3":"","admin4":"","population":0,"elevation":0,"gtopo30":505,"timezone":"Europe/Bucharest","moddate":"2016-02-07T00:00:00.000Z"},{"geonameid":665547,"name":"Tănăşeşti","asciiname":"Tanasesti","alternatenames":"","latitude":"45.1666700","longitude":"24.5000000","fclass":"P","fcode":"PPLX","country":"RO","cc2":"","admin1":"39","admin2":"172812","admin3":"","admin4":"","population":0,"elevation":0,"gtopo30":597,"timezone":"Europe/Bucharest","moddate":"2016-02-07T00:00:00.000Z"},{"geonameid":663948,"name":"Valcea","asciiname":"Valcea","alternatenames":"","latitude":"45.1833300","longitude":"24.5000000","fclass":"P","fcode":"PPLX","country":"RO","cc2":"","admin1":"39","admin2":"172812","admin3":"","admin4":"","population":0,"elevation":0,"gtopo30":505,"timezone":"Europe/Bucharest","moddate":"2016-02-07T00:00:00.000Z"},{"geonameid":663920,"name":"Valea Babei","asciiname":"Valea Babei","alternatenames":"Valea Babe,Valea Babi,Valea Babii,Valea-Babei","latitude":"45.1812800","longitude":"24.4982800","fclass":"P","fcode":"PPL","country":"RO","cc2":"RO","admin1":"39","admin2":"172812","admin3":"","admin4":"","population":315,"elevation":0,"gtopo30":509,"timezone":"Europe/Bucharest","moddate":"2013-04-20T00:00:00.000Z"},{"geonameid":663189,"name":"Vărateci","asciiname":"Varateci","alternatenames":"","latitude":"45.1500000","longitude":"24.4333300","fclass":"P","fcode":"PPL","country":"RO","cc2":"","admin1":"39","admin2":"172812","admin3":"","admin4":"","population":160,"elevation":0,"gtopo30":327,"timezone":"Europe/Bucharest","moddate":"2016-01-09T00:00:00.000Z"}],"admin3":[],"alternateNames":[]},"__N_SSG":true}