{"pageProps":{"locale":"ro","admin2":{"geonameid":662331,"name":"Comuna Zalha","country":"RO","admin1":"31","admin2":"143067","admin3":"","latitude":"47.1978600","longitude":"23.5313900"},"admin1":{"geonameid":668248,"name":"Sălaj","admin1":"31"},"locations":[{"geonameid":682487,"name":"Ceaca","asciiname":"Ceaca","alternatenames":"","latitude":"47.1968100","longitude":"23.5595200","fclass":"P","fcode":"PPL","country":"RO","cc2":"","admin1":"31","admin2":"143067","admin3":"","admin4":"","population":360,"elevation":0,"gtopo30":294,"timezone":"Europe/Bucharest","moddate":"2013-04-21T00:00:00.000Z"},{"geonameid":681381,"name":"Ciureni","asciiname":"Ciureni","alternatenames":"Ciurani,Ciureni","latitude":"47.2024200","longitude":"23.5384400","fclass":"P","fcode":"PPL","country":"RO","cc2":"RO","admin1":"31","admin2":"143067","admin3":"","admin4":"","population":184,"elevation":0,"gtopo30":305,"timezone":"Europe/Bucharest","moddate":"2013-04-21T00:00:00.000Z"},{"geonameid":663828,"name":"Valea Ciurenilor","asciiname":"Valea Ciurenilor","alternatenames":"","latitude":"47.2251700","longitude":"23.5221100","fclass":"P","fcode":"PPL","country":"RO","cc2":"","admin1":"31","admin2":"143067","admin3":"","admin4":"","population":38,"elevation":0,"gtopo30":397,"timezone":"Europe/Bucharest","moddate":"2013-04-20T00:00:00.000Z"},{"geonameid":663736,"name":"Valea Hranei","asciiname":"Valea Hranei","alternatenames":"","latitude":"47.2247000","longitude":"23.5533200","fclass":"P","fcode":"PPL","country":"RO","cc2":"","admin1":"31","admin2":"143067","admin3":"","admin4":"","population":190,"elevation":0,"gtopo30":391,"timezone":"Europe/Bucharest","moddate":"2013-04-20T00:00:00.000Z"},{"geonameid":663674,"name":"Valea Lungă","asciiname":"Valea Lunga","alternatenames":"","latitude":"47.1667300","longitude":"23.5140900","fclass":"P","fcode":"PPL","country":"RO","cc2":"","admin1":"31","admin2":"143067","admin3":"","admin4":"","population":142,"elevation":0,"gtopo30":380,"timezone":"Europe/Bucharest","moddate":"2013-04-20T00:00:00.000Z"},{"geonameid":663491,"name":"Valea Purcăreţ","asciiname":"Valea Purcaret","alternatenames":"","latitude":"47.2000000","longitude":"23.5333300","fclass":"P","fcode":"PPLX","country":"RO","cc2":"","admin1":"31","admin2":"143067","admin3":"","admin4":"","population":0,"elevation":0,"gtopo30":307,"timezone":"Europe/Bucharest","moddate":"2016-02-07T00:00:00.000Z"},{"geonameid":662739,"name":"Vârteşca","asciiname":"Vartesca","alternatenames":"Vartesca,Virtesca,Virtyeska,Vârteşca,Vîrteşca","latitude":"47.1833300","longitude":"23.5000000","fclass":"P","fcode":"PPL","country":"RO","cc2":"RO","admin1":"31","admin2":"143067","admin3":"","admin4":"","population":0,"elevation":0,"gtopo30":436,"timezone":"Europe/Bucharest","moddate":"2020-03-08T00:00:00.000Z"},{"geonameid":662332,"name":"Zalha","asciiname":"Zalha","alternatenames":"Zalha","latitude":"47.1833300","longitude":"23.5333300","fclass":"P","fcode":"PPLA2","country":"RO","cc2":"","admin1":"31","admin2":"143067","admin3":"","admin4":"","population":1152,"elevation":0,"gtopo30":433,"timezone":"Europe/Bucharest","moddate":"2012-06-12T00:00:00.000Z"}],"admin3":[],"alternateNames":[]},"__N_SSG":true}