{"pageProps":{"locale":"ro","admin2":{"geonameid":666723,"name":"Comuna Slivileşti","country":"RO","admin1":"19","admin2":"82047","admin3":"","latitude":"44.7919800","longitude":"23.1076100"},"admin1":{"geonameid":676898,"name":"Gorj","admin1":"19"},"locations":[{"geonameid":681672,"name":"Ciorani","asciiname":"Ciorani","alternatenames":"","latitude":"44.8166700","longitude":"23.0500000","fclass":"P","fcode":"PPLX","country":"RO","cc2":"","admin1":"19","admin2":"82047","admin3":"","admin4":"","population":0,"elevation":0,"gtopo30":236,"timezone":"Europe/Bucharest","moddate":"2016-02-07T00:00:00.000Z"},{"geonameid":681148,"name":"Cojmănești","asciiname":"Cojmanesti","alternatenames":"","latitude":"44.8036100","longitude":"23.1169300","fclass":"P","fcode":"PPL","country":"RO","cc2":"","admin1":"19","admin2":"82047","admin3":"","admin4":"","population":454,"elevation":0,"gtopo30":227,"timezone":"Europe/Bucharest","moddate":"2013-04-21T00:00:00.000Z"},{"geonameid":678553,"name":"Epuroaia","asciiname":"Epuroaia","alternatenames":"","latitude":"44.7833300","longitude":"23.1333300","fclass":"P","fcode":"PPLX","country":"RO","cc2":"","admin1":"19","admin2":"82047","admin3":"","admin4":"","population":0,"elevation":0,"gtopo30":218,"timezone":"Europe/Bucharest","moddate":"2016-02-07T00:00:00.000Z"},{"geonameid":673450,"name":"Miculești","asciiname":"Miculesti","alternatenames":"","latitude":"44.8240900","longitude":"23.0452300","fclass":"P","fcode":"PPL","country":"RO","cc2":"","admin1":"19","admin2":"82047","admin3":"","admin4":"","population":654,"elevation":0,"gtopo30":262,"timezone":"Europe/Bucharest","moddate":"2013-04-21T00:00:00.000Z"},{"geonameid":670589,"name":"Piuleşti","asciiname":"Piulesti","alternatenames":"Piulesti,Piuleşti,Puiulesti,Puiuleşti","latitude":"44.7833300","longitude":"23.0666700","fclass":"P","fcode":"PPLX","country":"RO","cc2":"","admin1":"19","admin2":"82047","admin3":"","admin4":"","population":0,"elevation":0,"gtopo30":327,"timezone":"Europe/Bucharest","moddate":"2016-02-07T00:00:00.000Z"},{"geonameid":667284,"name":"Șiacu","asciiname":"Siacu","alternatenames":"","latitude":"44.7559000","longitude":"23.1773000","fclass":"P","fcode":"PPL","country":"RO","cc2":"","admin1":"19","admin2":"82047","admin3":"","admin4":"","population":347,"elevation":0,"gtopo30":202,"timezone":"Europe/Bucharest","moddate":"2013-04-21T00:00:00.000Z"},{"geonameid":666724,"name":"Slivileşti","asciiname":"Slivilesti","alternatenames":"Slivilesti,Slivileşti","latitude":"44.7833300","longitude":"23.1333300","fclass":"P","fcode":"PPLA2","country":"RO","cc2":"","admin1":"19","admin2":"82047","admin3":"","admin4":"","population":3778,"elevation":0,"gtopo30":218,"timezone":"Europe/Bucharest","moddate":"2012-06-12T00:00:00.000Z"},{"geonameid":666129,"name":"Știucani","asciiname":"Stiucani","alternatenames":"","latitude":"44.8333300","longitude":"23.0333300","fclass":"P","fcode":"PPL","country":"RO","cc2":"","admin1":"19","admin2":"82047","admin3":"","admin4":"","population":73,"elevation":0,"gtopo30":251,"timezone":"Europe/Bucharest","moddate":"2015-12-03T00:00:00.000Z"},{"geonameid":665949,"name":"Strâmtu","asciiname":"Stramtu","alternatenames":"Stramptu,Strimtu,Strâmptu,Strîmtu","latitude":"44.7763200","longitude":"23.1132400","fclass":"P","fcode":"PPL","country":"RO","cc2":"RO","admin1":"19","admin2":"82047","admin3":"","admin4":"","population":614,"elevation":0,"gtopo30":225,"timezone":"Europe/Bucharest","moddate":"2013-04-21T00:00:00.000Z"},{"geonameid":10942982,"name":"Sura","asciiname":"Sura","alternatenames":"","latitude":"44.7567400","longitude":"23.1593800","fclass":"P","fcode":"PPL","country":"RO","cc2":"","admin1":"19","admin2":"82047","admin3":"","admin4":"","population":422,"elevation":0,"gtopo30":193,"timezone":"Europe/Bucharest","moddate":"2015-12-03T00:00:00.000Z"},{"geonameid":665347,"name":"Tehomir","asciiname":"Tehomir","alternatenames":"","latitude":"44.8059300","longitude":"23.0789600","fclass":"P","fcode":"PPL","country":"RO","cc2":"","admin1":"19","admin2":"82047","admin3":"","admin4":"","population":467,"elevation":0,"gtopo30":260,"timezone":"Europe/Bucharest","moddate":"2013-04-21T00:00:00.000Z"}],"admin3":[],"alternateNames":[]},"__N_SSG":true}