{"pageProps":{"locale":"ro","admin2":{"geonameid":671223,"name":"Comuna Păuleşti","country":"RO","admin1":"30","admin2":"130847","admin3":"","latitude":"45.0054900","longitude":"25.9699100"},"admin1":{"geonameid":669737,"name":"Prahova","admin1":"30"},"locations":[{"geonameid":681190,"name":"Cocoșești","asciiname":"Cocosesti","alternatenames":"","latitude":"45.0075400","longitude":"25.9837500","fclass":"P","fcode":"PPL","country":"RO","cc2":"","admin1":"30","admin2":"130847","admin3":"","admin4":"","population":914,"elevation":0,"gtopo30":246,"timezone":"Europe/Bucharest","moddate":"2015-12-20T00:00:00.000Z"},{"geonameid":677738,"name":"Găgeni","asciiname":"Gageni","alternatenames":"","latitude":"45.0216400","longitude":"25.9458500","fclass":"P","fcode":"PPL","country":"RO","cc2":"","admin1":"30","admin2":"130847","admin3":"","admin4":"","population":2114,"elevation":0,"gtopo30":249,"timezone":"Europe/Bucharest","moddate":"2013-04-21T00:00:00.000Z"},{"geonameid":677733,"name":"Găgenii Mici","asciiname":"Gagenii Mici","alternatenames":"","latitude":"45.0166700","longitude":"25.9500000","fclass":"P","fcode":"PPLX","country":"RO","cc2":"","admin1":"30","admin2":"130847","admin3":"","admin4":"","population":0,"elevation":0,"gtopo30":249,"timezone":"Europe/Bucharest","moddate":"2016-02-07T00:00:00.000Z"},{"geonameid":671228,"name":"Păuleşti","asciiname":"Paulesti","alternatenames":"Paulesti,Păuleşti","latitude":"45.0000000","longitude":"25.9833300","fclass":"P","fcode":"PPLA2","country":"RO","cc2":"","admin1":"30","admin2":"130847","admin3":"","admin4":"","population":5069,"elevation":0,"gtopo30":210,"timezone":"Europe/Bucharest","moddate":"2012-06-12T00:00:00.000Z"},{"geonameid":671221,"name":"Păuleștii Noi","asciiname":"Paulestii Noi","alternatenames":"Degerati,Degeratii,Degeraţi,Degeraţii,Paulestii Noi,Păuleştii Noi","latitude":"44.9919700","longitude":"25.9799900","fclass":"P","fcode":"PPL","country":"RO","cc2":"RO","admin1":"30","admin2":"130847","admin3":"","admin4":"","population":300,"elevation":0,"gtopo30":202,"timezone":"Europe/Bucharest","moddate":"2013-04-21T00:00:00.000Z"}],"admin3":[],"alternateNames":[{"alternatenameId":8326236,"geonameid":669737,"isoLanguage":"en","alternateName":"Prahova","isPreferredName":true,"isShortName":true,"isColloquial":false,"isHistoric":false}]},"__N_SSG":true}