{"pageProps":{"locale":"ro","admin2":{"geonameid":667947,"name":"Comuna Săruleşti","country":"RO","admin1":"41","admin2":"104886","admin3":"","latitude":"44.4128900","longitude":"26.6165700"},"admin1":{"geonameid":683016,"name":"Călăraşi","admin1":"41"},"locations":[{"geonameid":674108,"name":"Măgureni","asciiname":"Magureni","alternatenames":"Ion Gheorghe Duca,Magureni,Măgureni,Parlita,Pirlita,Pârlita,Pîrlita","latitude":"44.4136900","longitude":"26.6286800","fclass":"P","fcode":"PPL","country":"RO","cc2":"RO","admin1":"41","admin2":"104886","admin3":"","admin4":"","population":75,"elevation":0,"gtopo30":31,"timezone":"Europe/Bucharest","moddate":"2013-04-21T00:00:00.000Z"},{"geonameid":670610,"name":"Piteşteanca","asciiname":"Pitesteanca","alternatenames":"","latitude":"44.4333300","longitude":"26.6000000","fclass":"P","fcode":"PPLX","country":"RO","cc2":"","admin1":"41","admin2":"104886","admin3":"","admin4":"","population":0,"elevation":0,"gtopo30":56,"timezone":"Europe/Bucharest","moddate":"2016-02-07T00:00:00.000Z"},{"geonameid":669964,"name":"Polcești","asciiname":"Polcesti","alternatenames":"","latitude":"44.4369300","longitude":"26.6069100","fclass":"P","fcode":"PPL","country":"RO","cc2":"","admin1":"41","admin2":"104886","admin3":"","admin4":"","population":123,"elevation":0,"gtopo30":39,"timezone":"Europe/Bucharest","moddate":"2013-04-21T00:00:00.000Z"},{"geonameid":668097,"name":"Săndulița","asciiname":"Sandulita","alternatenames":"","latitude":"44.4179000","longitude":"26.6331400","fclass":"P","fcode":"PPL","country":"RO","cc2":"","admin1":"41","admin2":"104886","admin3":"","admin4":"","population":564,"elevation":0,"gtopo30":51,"timezone":"Europe/Bucharest","moddate":"2013-04-21T00:00:00.000Z"},{"geonameid":667950,"name":"Săruleşti","asciiname":"Sarulesti","alternatenames":"","latitude":"44.4166700","longitude":"26.6500000","fclass":"P","fcode":"PPLA2","country":"RO","cc2":"","admin1":"41","admin2":"104886","admin3":"","admin4":"","population":3134,"elevation":0,"gtopo30":35,"timezone":"Europe/Bucharest","moddate":"2012-06-12T00:00:00.000Z"},{"geonameid":667945,"name":"Sărulești-Gară","asciiname":"Sarulesti-Gara","alternatenames":"Gara Sarulesti,Gara Săruleşti,Sarulesti,Sarulesti-Gara,Săruleşti,Săruleşti-Gară","latitude":"44.4444400","longitude":"26.6578000","fclass":"P","fcode":"PPL","country":"RO","cc2":"RO","admin1":"41","admin2":"104886","admin3":"","admin4":"","population":1797,"elevation":0,"gtopo30":58,"timezone":"Europe/Bucharest","moddate":"2013-04-21T00:00:00.000Z"},{"geonameid":667944,"name":"Săruleştii de Jos","asciiname":"Sarulestii de Jos","alternatenames":"Buliman,Sarulestii de Jos,Suliman,Sulimanu,Sulimanul,Săruleştii de Jos","latitude":"44.4333300","longitude":"26.6833300","fclass":"P","fcode":"PPL","country":"RO","cc2":"","admin1":"41","admin2":"104886","admin3":"","admin4":"","population":0,"elevation":0,"gtopo30":54,"timezone":"Europe/Bucharest","moddate":"2020-06-10T00:00:00.000Z"},{"geonameid":667943,"name":"Săruleştii Noi","asciiname":"Sarulestii Noi","alternatenames":"","latitude":"44.4166700","longitude":"26.6500000","fclass":"P","fcode":"PPL","country":"RO","cc2":"","admin1":"41","admin2":"104886","admin3":"","admin4":"","population":0,"elevation":0,"gtopo30":35,"timezone":"Europe/Bucharest","moddate":"2016-02-07T00:00:00.000Z"},{"geonameid":667887,"name":"Sătucu","asciiname":"Satucu","alternatenames":"Manciu,Manciulescu,Manciulesti,Manciuleşti,Mănciulescu,Odaile Manciulesti,Odăile Mănciuleşti,Satucu,Sătucu","latitude":"44.3842700","longitude":"26.5856300","fclass":"P","fcode":"PPL","country":"RO","cc2":"RO","admin1":"41","admin2":"104886","admin3":"","admin4":"","population":26,"elevation":0,"gtopo30":41,"timezone":"Europe/Bucharest","moddate":"2013-04-21T00:00:00.000Z"},{"geonameid":666511,"name":"Solacolu","asciiname":"Solacolu","alternatenames":"","latitude":"44.3794400","longitude":"26.5576000","fclass":"P","fcode":"PPL","country":"RO","cc2":"","admin1":"41","admin2":"104886","admin3":"","admin4":"","population":295,"elevation":0,"gtopo30":60,"timezone":"Europe/Bucharest","moddate":"2013-04-21T00:00:00.000Z"}],"admin3":[],"alternateNames":[]},"__N_SSG":true}