{"pageProps":{"locale":"ro","admin2":{"geonameid":668179,"name":"Comuna Sălcioara","country":"RO","admin1":"16","admin2":"68789","admin3":"","latitude":"44.7364500","longitude":"25.5741100"},"admin1":{"geonameid":679385,"name":"Dâmboviţa","admin1":"16"},"locations":[{"geonameid":685464,"name":"Bănești","asciiname":"Banesti","alternatenames":"","latitude":"44.7351900","longitude":"25.5744700","fclass":"P","fcode":"PPL","country":"RO","cc2":"","admin1":"16","admin2":"68789","admin3":"","admin4":"","population":316,"elevation":0,"gtopo30":181,"timezone":"Europe/Bucharest","moddate":"2013-04-21T00:00:00.000Z"},{"geonameid":682534,"name":"Cătunu","asciiname":"Catunu","alternatenames":"Carciuma lui Visan,Catunu,Circiuma lui Visan,Cârciuma lui Vişan,Cîrciuma lui Vişan,Cătunu","latitude":"44.7370500","longitude":"25.5056200","fclass":"P","fcode":"PPL","country":"RO","cc2":"RO","admin1":"16","admin2":"68789","admin3":"","admin4":"","population":180,"elevation":0,"gtopo30":186,"timezone":"Europe/Bucharest","moddate":"2013-04-21T00:00:00.000Z"},{"geonameid":679855,"name":"Cuza Vodă","asciiname":"Cuza Voda","alternatenames":"","latitude":"44.7388100","longitude":"25.6001000","fclass":"P","fcode":"PPL","country":"RO","cc2":"","admin1":"16","admin2":"68789","admin3":"","admin4":"","population":403,"elevation":0,"gtopo30":178,"timezone":"Europe/Bucharest","moddate":"2013-04-21T00:00:00.000Z"},{"geonameid":677353,"name":"Ghinești","asciiname":"Ghinesti","alternatenames":"","latitude":"44.7477400","longitude":"25.5530000","fclass":"P","fcode":"PPL","country":"RO","cc2":"","admin1":"16","admin2":"68789","admin3":"","admin4":"","population":1106,"elevation":0,"gtopo30":188,"timezone":"Europe/Bucharest","moddate":"2013-04-21T00:00:00.000Z"},{"geonameid":673153,"name":"Mircea Vodă","asciiname":"Mircea Voda","alternatenames":"","latitude":"44.7667300","longitude":"25.5883300","fclass":"P","fcode":"PPL","country":"RO","cc2":"","admin1":"16","admin2":"68789","admin3":"","admin4":"","population":839,"elevation":0,"gtopo30":190,"timezone":"Europe/Bucharest","moddate":"2013-04-21T00:00:00.000Z"},{"geonameid":673001,"name":"Moara Nouă","asciiname":"Moara Noua","alternatenames":"","latitude":"44.7096400","longitude":"25.6046300","fclass":"P","fcode":"PPL","country":"RO","cc2":"","admin1":"16","admin2":"68789","admin3":"","admin4":"","population":26,"elevation":0,"gtopo30":168,"timezone":"Europe/Bucharest","moddate":"2013-04-21T00:00:00.000Z"},{"geonameid":672750,"name":"Movila","asciiname":"Movila","alternatenames":"","latitude":"44.7678200","longitude":"25.5719700","fclass":"P","fcode":"PPL","country":"RO","cc2":"","admin1":"16","admin2":"68789","admin3":"","admin4":"","population":228,"elevation":0,"gtopo30":193,"timezone":"Europe/Bucharest","moddate":"2013-04-21T00:00:00.000Z"},{"geonameid":670262,"name":"Podu Rizii","asciiname":"Podu Rizii","alternatenames":"Podu Rizi,Podul-Rizii","latitude":"44.7070900","longitude":"25.5831400","fclass":"P","fcode":"PPL","country":"RO","cc2":"RO","admin1":"16","admin2":"68789","admin3":"","admin4":"","population":844,"elevation":0,"gtopo30":170,"timezone":"Europe/Bucharest","moddate":"2013-04-21T00:00:00.000Z"},{"geonameid":668186,"name":"Sălcioara","asciiname":"Salcioara","alternatenames":"Besteloaia,Beşteloaia,Salcioara,Sălcioara","latitude":"44.7166700","longitude":"25.5833300","fclass":"P","fcode":"PPLA2","country":"RO","cc2":"","admin1":"16","admin2":"68789","admin3":"","admin4":"","population":4125,"elevation":0,"gtopo30":175,"timezone":"Europe/Bucharest","moddate":"2012-06-12T00:00:00.000Z"}],"admin3":[],"alternateNames":[]},"__N_SSG":true}