{"pageProps":{"locale":"ro","admin2":{"geonameid":674899,"name":"Comuna Leliceni","country":"RO","admin1":"20","admin2":"86479","admin3":"","latitude":"46.3490000","longitude":"25.8491100"},"admin1":{"geonameid":676309,"name":"Harghita","admin1":"20"},"locations":[{"geonameid":686089,"name":"Asău","asciiname":"Asau","alternatenames":"","latitude":"46.3166700","longitude":"25.9000000","fclass":"P","fcode":"PPLX","country":"RO","cc2":"","admin1":"20","admin2":"86479","admin3":"","admin4":"","population":0,"elevation":0,"gtopo30":778,"timezone":"Europe/Bucharest","moddate":"2016-02-07T00:00:00.000Z"},{"geonameid":684693,"name":"Biserica","asciiname":"Biserica","alternatenames":"","latitude":"46.3500000","longitude":"25.8500000","fclass":"P","fcode":"PPLX","country":"RO","cc2":"","admin1":"20","admin2":"86479","admin3":"","admin4":"","population":0,"elevation":0,"gtopo30":729,"timezone":"Europe/Bucharest","moddate":"2016-02-07T00:00:00.000Z"},{"geonameid":684171,"name":"Boroslo","asciiname":"Boroslo","alternatenames":"Boroslo,Boroszlo","latitude":"46.3333300","longitude":"25.8500000","fclass":"P","fcode":"PPLX","country":"RO","cc2":"","admin1":"20","admin2":"86479","admin3":"","admin4":"","population":0,"elevation":0,"gtopo30":700,"timezone":"Europe/Bucharest","moddate":"2016-02-07T00:00:00.000Z"},{"geonameid":678095,"name":"Fitod","asciiname":"Fitod","alternatenames":"","latitude":"46.3574700","longitude":"25.8456800","fclass":"P","fcode":"PPL","country":"RO","cc2":"","admin1":"20","admin2":"86479","admin3":"","admin4":"","population":0,"elevation":0,"gtopo30":710,"timezone":"Europe/Bucharest","moddate":"2016-02-07T00:00:00.000Z"},{"geonameid":675980,"name":"Hosasău","asciiname":"Hosasau","alternatenames":"Hosasau,Hosasău,Hosszuaszo","latitude":"46.3441600","longitude":"25.9055200","fclass":"P","fcode":"PPL","country":"RO","cc2":"RO","admin1":"20","admin2":"86479","admin3":"","admin4":"","population":1,"elevation":0,"gtopo30":821,"timezone":"Europe/Bucharest","moddate":"2013-04-21T00:00:00.000Z"},{"geonameid":675178,"name":"Jos","asciiname":"Jos","alternatenames":"","latitude":"46.3500000","longitude":"25.8500000","fclass":"P","fcode":"PPLX","country":"RO","cc2":"","admin1":"20","admin2":"86479","admin3":"","admin4":"","population":0,"elevation":0,"gtopo30":729,"timezone":"Europe/Bucharest","moddate":"2016-02-07T00:00:00.000Z"},{"geonameid":674900,"name":"Leliceni","asciiname":"Leliceni","alternatenames":"Leliceni,Szentlelek,Szentlélek","latitude":"46.3471300","longitude":"25.8478200","fclass":"P","fcode":"PPLA2","country":"RO","cc2":"RO","admin1":"20","admin2":"86479","admin3":"","admin4":"","population":270,"elevation":0,"gtopo30":717,"timezone":"Europe/Bucharest","moddate":"2013-04-21T00:00:00.000Z"},{"geonameid":673069,"name":"Misentea","asciiname":"Misentea","alternatenames":"Csik Mindszent,Mindszent,Misentea","latitude":"46.3271400","longitude":"25.8950600","fclass":"P","fcode":"PPL","country":"RO","cc2":"RO","admin1":"20","admin2":"86479","admin3":"","admin4":"","population":1029,"elevation":0,"gtopo30":769,"timezone":"Europe/Bucharest","moddate":"2013-04-21T00:00:00.000Z"},{"geonameid":667155,"name":"Sillo","asciiname":"Sillo","alternatenames":"","latitude":"46.3166700","longitude":"25.9000000","fclass":"P","fcode":"PPLX","country":"RO","cc2":"","admin1":"20","admin2":"86479","admin3":"","admin4":"","population":0,"elevation":0,"gtopo30":778,"timezone":"Europe/Bucharest","moddate":"2016-02-07T00:00:00.000Z"}],"admin3":[],"alternateNames":[]},"__N_SSG":true}