{"pageProps":{"locale":"ro","admin2":{"geonameid":6691648,"name":"Municipiul Braşov","country":"RO","admin1":"09","admin2":"40198","admin3":"","latitude":"45.6505300","longitude":"25.6091300"},"admin1":{"geonameid":683843,"name":"Braşov","admin1":"09"},"locations":[{"geonameid":686074,"name":"Astra","asciiname":"Astra","alternatenames":"","latitude":"45.6333300","longitude":"25.5833300","fclass":"P","fcode":"PPLX","country":"RO","cc2":"","admin1":"09","admin2":"40198","admin3":"","admin4":"","population":0,"elevation":0,"gtopo30":643,"timezone":"Europe/Bucharest","moddate":"2016-02-07T00:00:00.000Z"},{"geonameid":686060,"name":"Atias","asciiname":"Atias","alternatenames":"","latitude":"45.6333300","longitude":"25.5833300","fclass":"P","fcode":"PPLX","country":"RO","cc2":"","admin1":"09","admin2":"40198","admin3":"","admin4":"","population":0,"elevation":0,"gtopo30":643,"timezone":"Europe/Bucharest","moddate":"2016-02-07T00:00:00.000Z"},{"geonameid":683844,"name":"Braşov","asciiname":"Brasov","alternatenames":"Brashov,Brasov,Brasso,Brassó,Braszow,Braszów,Brazov,Braşov,Brašov,Brașov,Kronstadt,Kronstant,Orasu Stalin,Orasul Stalin,Oraşu Stalin,Oraşul Stalin,XHV,beulasyobeu,brswb,burashofu,Брашов,ברשוב,ブラショフ,브라쇼브","latitude":"45.6486100","longitude":"25.6061300","fclass":"P","fcode":"PPLA","country":"RO","cc2":"","admin1":"09","admin2":"40198","admin3":"","admin4":"","population":276088,"elevation":0,"gtopo30":573,"timezone":"Europe/Bucharest","moddate":"2019-04-18T00:00:00.000Z"},{"geonameid":8260247,"name":"Cheile Rasnoavei","asciiname":"Cheile Rasnoavei","alternatenames":"","latitude":"45.5657500","longitude":"25.5202100","fclass":"P","fcode":"PPL","country":"RO","cc2":"","admin1":"09","admin2":"40198","admin3":"","admin4":"","population":0,"elevation":2100,"gtopo30":775,"timezone":"Europe/Bucharest","moddate":"2016-02-07T00:00:00.000Z"},{"geonameid":679321,"name":"Dârste","asciiname":"Darste","alternatenames":"Darste,Derestye Dirste,Dirste,Dârste,Dîrste","latitude":"45.6166700","longitude":"25.6500000","fclass":"P","fcode":"PPLX","country":"RO","cc2":"RO","admin1":"09","admin2":"40198","admin3":"","admin4":"","population":0,"elevation":0,"gtopo30":638,"timezone":"Europe/Bucharest","moddate":"2020-03-08T00:00:00.000Z"},{"geonameid":674112,"name":"Măgurele","asciiname":"Magurele","alternatenames":"","latitude":"45.6333300","longitude":"25.5833300","fclass":"P","fcode":"PPLX","country":"RO","cc2":"","admin1":"09","admin2":"40198","admin3":"","admin4":"","population":0,"elevation":0,"gtopo30":643,"timezone":"Europe/Bucharest","moddate":"2016-02-07T00:00:00.000Z"},{"geonameid":672968,"name":"Moeciu de Jos","asciiname":"Moeciu de Jos","alternatenames":"Al Moecs,Alsomoecs,Alsómoécs,Moeciu de Jos,Moeciul-de Jos","latitude":"45.4833300","longitude":"25.3166700","fclass":"P","fcode":"PPL","country":"RO","cc2":"","admin1":"09","admin2":"40198","admin3":"","admin4":"","population":4680,"elevation":0,"gtopo30":862,"timezone":"Europe/Bucharest","moddate":"2014-06-04T00:00:00.000Z"},{"geonameid":672164,"name":"Noua","asciiname":"Noua","alternatenames":"Noa,Noua","latitude":"45.6166700","longitude":"25.6333300","fclass":"P","fcode":"PPLX","country":"RO","cc2":"","admin1":"09","admin2":"40198","admin3":"","admin4":"","population":0,"elevation":0,"gtopo30":626,"timezone":"Europe/Bucharest","moddate":"2016-02-07T00:00:00.000Z"},{"geonameid":6693026,"name":"Poiana Brasov","asciiname":"Poiana Brasov","alternatenames":"Brassopojana,Brassópojána","latitude":"45.5970400","longitude":"25.5524800","fclass":"P","fcode":"PPL","country":"RO","cc2":"","admin1":"09","admin2":"40198","admin3":"","admin4":"","population":0,"elevation":0,"gtopo30":1021,"timezone":"Europe/Bucharest","moddate":"2014-01-19T00:00:00.000Z"},{"geonameid":670029,"name":"Poiana Stalin","asciiname":"Poiana Stalin","alternatenames":"","latitude":"45.6333300","longitude":"25.5833300","fclass":"P","fcode":"PPLX","country":"RO","cc2":"","admin1":"09","admin2":"40198","admin3":"","admin4":"","population":0,"elevation":0,"gtopo30":643,"timezone":"Europe/Bucharest","moddate":"2016-02-07T00:00:00.000Z"},{"geonameid":665884,"name":"Stupini","asciiname":"Stupini","alternatenames":"","latitude":"45.7000000","longitude":"25.5666700","fclass":"P","fcode":"PPLX","country":"RO","cc2":"","admin1":"09","admin2":"40198","admin3":"","admin4":"","population":0,"elevation":0,"gtopo30":521,"timezone":"Europe/Bucharest","moddate":"2016-02-07T00:00:00.000Z"}],"admin3":[],"alternateNames":[]},"__N_SSG":true}