{"pageProps":{"locale":"ro","admin2":{"geonameid":685258,"name":"Comuna Batoş","country":"RO","admin1":"27","admin2":"115520","admin3":"","latitude":"46.8748700","longitude":"24.6466700"},"admin1":{"geonameid":672628,"name":"Mureş","admin1":"27"},"locations":[{"geonameid":685259,"name":"Batoş","asciiname":"Batos","alternatenames":"Batos,Batoş","latitude":"46.8833300","longitude":"24.6666700","fclass":"P","fcode":"PPLA2","country":"RO","cc2":"","admin1":"27","admin2":"115520","admin3":"","admin4":"","population":4107,"elevation":0,"gtopo30":468,"timezone":"Europe/Bucharest","moddate":"2012-06-12T00:00:00.000Z"},{"geonameid":679557,"name":"Dedrad","asciiname":"Dedrad","alternatenames":"","latitude":"46.8263200","longitude":"24.6579900","fclass":"P","fcode":"PPL","country":"RO","cc2":"","admin1":"27","admin2":"115520","admin3":"","admin4":"","population":1424,"elevation":0,"gtopo30":404,"timezone":"Europe/Bucharest","moddate":"2013-04-21T00:00:00.000Z"},{"geonameid":678223,"name":"Fânaţe","asciiname":"Fanate","alternatenames":"Fanate,Finate,Fonace,Fânaţe,Fînaţe,Fönàce","latitude":"46.8833300","longitude":"24.6500000","fclass":"P","fcode":"PPL","country":"RO","cc2":"RO","admin1":"27","admin2":"115520","admin3":"","admin4":"","population":0,"elevation":0,"gtopo30":406,"timezone":"Europe/Bucharest","moddate":"2020-03-08T00:00:00.000Z"},{"geonameid":677867,"name":"Frunte","asciiname":"Frunte","alternatenames":"","latitude":"46.8833300","longitude":"24.6500000","fclass":"P","fcode":"PPL","country":"RO","cc2":"","admin1":"27","admin2":"115520","admin3":"","admin4":"","population":0,"elevation":0,"gtopo30":406,"timezone":"Europe/Bucharest","moddate":"2016-02-07T00:00:00.000Z"},{"geonameid":676915,"name":"Goreni","asciiname":"Goreni","alternatenames":"Dedradszeplok,Dedràdszèplok,Goreni","latitude":"46.8547400","longitude":"24.6556900","fclass":"P","fcode":"PPL","country":"RO","cc2":"RO","admin1":"27","admin2":"115520","admin3":"","admin4":"","population":1040,"elevation":0,"gtopo30":396,"timezone":"Europe/Bucharest","moddate":"2013-04-21T00:00:00.000Z"},{"geonameid":673742,"name":"Marţia","asciiname":"Martia","alternatenames":"Marcia,Martia,Marţia,Màrcia","latitude":"46.8833300","longitude":"24.6500000","fclass":"P","fcode":"PPL","country":"RO","cc2":"","admin1":"27","admin2":"115520","admin3":"","admin4":"","population":0,"elevation":0,"gtopo30":406,"timezone":"Europe/Bucharest","moddate":"2016-02-07T00:00:00.000Z"},{"geonameid":672561,"name":"Nadăşa","asciiname":"Nadasa","alternatenames":"Nadas,Nadasa,Nadăşa,Nàdas","latitude":"46.8833300","longitude":"24.6500000","fclass":"P","fcode":"PPL","country":"RO","cc2":"","admin1":"27","admin2":"115520","admin3":"","admin4":"","population":0,"elevation":0,"gtopo30":406,"timezone":"Europe/Bucharest","moddate":"2016-02-07T00:00:00.000Z"},{"geonameid":664354,"name":"Uila","asciiname":"Uila","alternatenames":"Uila,Vajola","latitude":"46.9314300","longitude":"24.6188200","fclass":"P","fcode":"PPL","country":"RO","cc2":"RO","admin1":"27","admin2":"115520","admin3":"","admin4":"","population":559,"elevation":0,"gtopo30":497,"timezone":"Europe/Bucharest","moddate":"2013-04-21T00:00:00.000Z"}],"admin3":[],"alternateNames":[]},"__N_SSG":true}