{"pageProps":{"locale":"ro","admin2":{"geonameid":666906,"name":"Comuna Sântimbru","country":"RO","admin1":"01","admin2":"7384","admin3":"","latitude":"46.1297400","longitude":"23.6689900"},"admin1":{"geonameid":686581,"name":"Alba","admin1":"01"},"locations":[{"geonameid":680631,"name":"Coșlariu","asciiname":"Coslariu","alternatenames":"Coslar,Coslariu,Coşlar,Coşlariu","latitude":"46.1581300","longitude":"23.6887100","fclass":"P","fcode":"PPL","country":"RO","cc2":"RO","admin1":"01","admin2":"7384","admin3":"","admin4":"","population":409,"elevation":0,"gtopo30":226,"timezone":"Europe/Bucharest","moddate":"2013-04-21T00:00:00.000Z"},{"geonameid":678661,"name":"Dumitra","asciiname":"Dumitra","alternatenames":"","latitude":"46.0967200","longitude":"23.6829500","fclass":"P","fcode":"PPL","country":"RO","cc2":"","admin1":"01","admin2":"7384","admin3":"","admin4":"","population":138,"elevation":0,"gtopo30":300,"timezone":"Europe/Bucharest","moddate":"2013-04-21T00:00:00.000Z"},{"geonameid":677636,"name":"Galtiu","asciiname":"Galtiu","alternatenames":"Galtiu,Galtiul","latitude":"46.1417500","longitude":"23.6644500","fclass":"P","fcode":"PPL","country":"RO","cc2":"RO","admin1":"01","admin2":"7384","admin3":"","admin4":"","population":403,"elevation":0,"gtopo30":225,"timezone":"Europe/Bucharest","moddate":"2013-04-21T00:00:00.000Z"},{"geonameid":677606,"name":"Gara Coşlariu","asciiname":"Gara Coslariu","alternatenames":"","latitude":"46.1666700","longitude":"23.6833300","fclass":"P","fcode":"PPLX","country":"RO","cc2":"","admin1":"01","admin2":"7384","admin3":"","admin4":"","population":0,"elevation":0,"gtopo30":225,"timezone":"Europe/Bucharest","moddate":"2016-02-07T00:00:00.000Z"},{"geonameid":666908,"name":"Sântimbru","asciiname":"Santimbru","alternatenames":"Santimbru,Sintimbru,Sântimbru,Sîntimbru","latitude":"46.1333300","longitude":"23.6500000","fclass":"P","fcode":"PPLA2","country":"RO","cc2":"","admin1":"01","admin2":"7384","admin3":"","admin4":"","population":2679,"elevation":0,"gtopo30":222,"timezone":"Europe/Bucharest","moddate":"2012-06-12T00:00:00.000Z"},{"geonameid":664690,"name":"Totoi","asciiname":"Totoi","alternatenames":"Totoiu,Totoiul","latitude":"46.1149100","longitude":"23.6575900","fclass":"P","fcode":"PPL","country":"RO","cc2":"RO","admin1":"01","admin2":"7384","admin3":"","admin4":"","population":561,"elevation":0,"gtopo30":223,"timezone":"Europe/Bucharest","moddate":"2013-04-21T00:00:00.000Z"}],"admin3":[],"alternateNames":[]},"__N_SSG":true}