{"pageProps":{"locale":"ro","admin2":{"geonameid":670235,"name":"Comuna Poienarii de Argeş","country":"RO","admin1":"03","admin2":"17913","admin3":"","latitude":"45.0666700","longitude":"24.5333300"},"admin1":{"geonameid":686192,"name":"Argeş","admin1":"03"},"locations":[{"geonameid":682465,"name":"Ceaurești","asciiname":"Ceauresti","alternatenames":"Ceauresti,Ceaureşti,Luminile-Ceauresti,Luminile-Ceaureşti","latitude":"45.0530600","longitude":"24.5248500","fclass":"P","fcode":"PPL","country":"RO","cc2":"RO","admin1":"03","admin2":"17913","admin3":"","admin4":"","population":324,"elevation":0,"gtopo30":328,"timezone":"Europe/Bucharest","moddate":"2013-04-21T00:00:00.000Z"},{"geonameid":677750,"name":"Găbrieşti","asciiname":"Gabriesti","alternatenames":"","latitude":"45.0666700","longitude":"24.5166700","fclass":"P","fcode":"PPLX","country":"RO","cc2":"","admin1":"03","admin2":"17913","admin3":"","admin4":"","population":0,"elevation":0,"gtopo30":366,"timezone":"Europe/Bucharest","moddate":"2016-02-07T00:00:00.000Z"},{"geonameid":675568,"name":"Ioanicești","asciiname":"Ioanicesti","alternatenames":"","latitude":"45.0637100","longitude":"24.5115400","fclass":"P","fcode":"PPL","country":"RO","cc2":"","admin1":"03","admin2":"17913","admin3":"","admin4":"","population":336,"elevation":0,"gtopo30":405,"timezone":"Europe/Bucharest","moddate":"2013-04-21T00:00:00.000Z"},{"geonameid":10941900,"name":"Poienari","asciiname":"Poienari","alternatenames":"","latitude":"45.0703400","longitude":"24.5305600","fclass":"P","fcode":"PPLA2","country":"RO","cc2":"","admin1":"03","admin2":"17913","admin3":"","admin4":"","population":530,"elevation":0,"gtopo30":341,"timezone":"Europe/Bucharest","moddate":"2015-11-11T00:00:00.000Z"},{"geonameid":664792,"name":"Tomulești","asciiname":"Tomulesti","alternatenames":"","latitude":"45.0711100","longitude":"24.4921600","fclass":"P","fcode":"PPL","country":"RO","cc2":"","admin1":"03","admin2":"17913","admin3":"","admin4":"","population":77,"elevation":0,"gtopo30":444,"timezone":"Europe/Bucharest","moddate":"2013-04-21T00:00:00.000Z"}],"admin3":[],"alternateNames":[]},"__N_SSG":true}