{"pageProps":{"locale":"ro","admin2":{"geonameid":685222,"name":"Comuna Beceni","country":"RO","admin1":"11","admin2":"45003","admin3":"","latitude":"45.3845600","longitude":"26.7697800"},"admin1":{"geonameid":683121,"name":"Buzău","admin1":"11"},"locations":[{"geonameid":10942258,"name":"Arbănași","asciiname":"Arbanasi","alternatenames":"","latitude":"45.3989800","longitude":"26.7368800","fclass":"P","fcode":"PPL","country":"RO","cc2":"","admin1":"11","admin2":"45003","admin3":"","admin4":"","population":8,"elevation":0,"gtopo30":400,"timezone":"Europe/Bucharest","moddate":"2015-11-19T00:00:00.000Z"},{"geonameid":685223,"name":"Beceni","asciiname":"Beceni","alternatenames":"Beceni","latitude":"45.3833300","longitude":"26.7833300","fclass":"P","fcode":"PPLA2","country":"RO","cc2":"","admin1":"11","admin2":"45003","admin3":"","admin4":"","population":4992,"elevation":0,"gtopo30":311,"timezone":"Europe/Bucharest","moddate":"2012-06-12T00:00:00.000Z"},{"geonameid":682650,"name":"Cărpiniștea","asciiname":"Carpinistea","alternatenames":"Carpeniste,Carpenişte,Carpinistea,Cărpiniştea","latitude":"45.3615600","longitude":"26.7668000","fclass":"P","fcode":"PPL","country":"RO","cc2":"RO","admin1":"11","admin2":"45003","admin3":"","admin4":"","population":289,"elevation":0,"gtopo30":240,"timezone":"Europe/Bucharest","moddate":"2013-04-21T00:00:00.000Z"},{"geonameid":681222,"name":"Cociobeşti","asciiname":"Cociobesti","alternatenames":"","latitude":"45.4000000","longitude":"26.7500000","fclass":"P","fcode":"PPLX","country":"RO","cc2":"","admin1":"11","admin2":"45003","admin3":"","admin4":"","population":0,"elevation":0,"gtopo30":343,"timezone":"Europe/Bucharest","moddate":"2016-02-07T00:00:00.000Z"},{"geonameid":679161,"name":"Dogari","asciiname":"Dogari","alternatenames":"","latitude":"45.4128500","longitude":"26.7563300","fclass":"P","fcode":"PPL","country":"RO","cc2":"","admin1":"11","admin2":"45003","admin3":"","admin4":"","population":368,"elevation":0,"gtopo30":269,"timezone":"Europe/Bucharest","moddate":"2013-04-21T00:00:00.000Z"},{"geonameid":678570,"name":"Enculeşti","asciiname":"Enculesti","alternatenames":"","latitude":"45.3833300","longitude":"26.7666700","fclass":"P","fcode":"PPL","country":"RO","cc2":"","admin1":"11","admin2":"45003","admin3":"","admin4":"","population":0,"elevation":0,"gtopo30":241,"timezone":"Europe/Bucharest","moddate":"2016-02-07T00:00:00.000Z"},{"geonameid":678061,"name":"Florești","asciiname":"Floresti","alternatenames":"Floresti,Florestii,Floreşti","latitude":"45.4057600","longitude":"26.8202800","fclass":"P","fcode":"PPL","country":"RO","cc2":"RO","admin1":"11","admin2":"45003","admin3":"","admin4":"","population":394,"elevation":0,"gtopo30":428,"timezone":"Europe/Bucharest","moddate":"2013-04-21T00:00:00.000Z"},{"geonameid":676542,"name":"Gura Dimienii","asciiname":"Gura Dimienii","alternatenames":"Gura Dimieni,Gura Dimienii,Gura-Dimienei","latitude":"45.4036800","longitude":"26.7588300","fclass":"P","fcode":"PPL","country":"RO","cc2":"RO","admin1":"11","admin2":"45003","admin3":"","admin4":"","population":783,"elevation":0,"gtopo30":254,"timezone":"Europe/Bucharest","moddate":"2013-04-21T00:00:00.000Z"},{"geonameid":676507,"name":"Gura Ocii","asciiname":"Gura Ocii","alternatenames":"Gura Ocei,Gura Ocii,Ocea","latitude":"45.3833300","longitude":"26.7666700","fclass":"P","fcode":"PPL","country":"RO","cc2":"","admin1":"11","admin2":"45003","admin3":"","admin4":"","population":0,"elevation":0,"gtopo30":241,"timezone":"Europe/Bucharest","moddate":"2016-02-07T00:00:00.000Z"},{"geonameid":675321,"name":"Izvoru Dulce","asciiname":"Izvoru Dulce","alternatenames":"Isvorul-Dulce,Izvoru Dulce,Izvorul Dulce","latitude":"45.3417800","longitude":"26.7773000","fclass":"P","fcode":"PPL","country":"RO","cc2":"RO","admin1":"11","admin2":"45003","admin3":"","admin4":"","population":1093,"elevation":0,"gtopo30":233,"timezone":"Europe/Bucharest","moddate":"2013-04-21T00:00:00.000Z"},{"geonameid":674385,"name":"Lunca Murei","asciiname":"Lunca Murei","alternatenames":"","latitude":"45.3666700","longitude":"26.7666700","fclass":"P","fcode":"PPLX","country":"RO","cc2":"","admin1":"11","admin2":"45003","admin3":"","admin4":"","population":0,"elevation":0,"gtopo30":247,"timezone":"Europe/Bucharest","moddate":"2016-02-07T00:00:00.000Z"},{"geonameid":673822,"name":"Mărgăriți","asciiname":"Margariti","alternatenames":"Margariti,Margaritii,Mărgăriţi,Mărgăriţii","latitude":"45.3918400","longitude":"26.7611600","fclass":"P","fcode":"PPL","country":"RO","cc2":"RO","admin1":"11","admin2":"45003","admin3":"","admin4":"","population":479,"elevation":0,"gtopo30":246,"timezone":"Europe/Bucharest","moddate":"2013-04-21T00:00:00.000Z"},{"geonameid":663739,"name":"Valea Hotarului","asciiname":"Valea Hotarului","alternatenames":"","latitude":"45.3666700","longitude":"26.7666700","fclass":"P","fcode":"PPL","country":"RO","cc2":"","admin1":"11","admin2":"45003","admin3":"","admin4":"","population":0,"elevation":0,"gtopo30":247,"timezone":"Europe/Bucharest","moddate":"2016-02-07T00:00:00.000Z"},{"geonameid":663531,"name":"Valea Părului","asciiname":"Valea Parului","alternatenames":"","latitude":"45.3637400","longitude":"26.7770600","fclass":"P","fcode":"PPL","country":"RO","cc2":"","admin1":"11","admin2":"45003","admin3":"","admin4":"","population":1276,"elevation":0,"gtopo30":228,"timezone":"Europe/Bucharest","moddate":"2013-04-20T00:00:00.000Z"}],"admin3":[],"alternateNames":[]},"__N_SSG":true}