{"pageProps":{"locale":"ro","admin2":{"geonameid":685162,"name":"Comuna Belceşti","country":"RO","admin1":"23","admin2":"95872","admin3":"","latitude":"47.3058100","longitude":"27.0874700"},"admin1":{"geonameid":675809,"name":"Iaşi","admin1":"23"},"locations":[{"geonameid":685163,"name":"Belceşti","asciiname":"Belcesti","alternatenames":"Belcesti,Belceşti,Cioreni,Rusi,Ruşi,Valeni,Văleni","latitude":"47.3000000","longitude":"27.0833300","fclass":"P","fcode":"PPLA2","country":"RO","cc2":"","admin1":"23","admin2":"95872","admin3":"","admin4":"","population":11335,"elevation":0,"gtopo30":90,"timezone":"Europe/Bucharest","moddate":"2012-06-12T00:00:00.000Z"},{"geonameid":674698,"name":"Liteni","asciiname":"Liteni","alternatenames":"Liteni,Ulmi-Liteni,Ulmii-Liteni","latitude":"47.3016900","longitude":"27.0383700","fclass":"P","fcode":"PPL","country":"RO","cc2":"RO","admin1":"23","admin2":"95872","admin3":"","admin4":"","population":1366,"elevation":0,"gtopo30":128,"timezone":"Europe/Bucharest","moddate":"2013-04-21T00:00:00.000Z"},{"geonameid":672658,"name":"Munteni","asciiname":"Munteni","alternatenames":"","latitude":"47.3153000","longitude":"27.1383900","fclass":"P","fcode":"PPL","country":"RO","cc2":"","admin1":"23","admin2":"95872","admin3":"","admin4":"","population":1271,"elevation":0,"gtopo30":106,"timezone":"Europe/Bucharest","moddate":"2013-04-21T00:00:00.000Z"},{"geonameid":667810,"name":"Satu Nou","asciiname":"Satu Nou","alternatenames":"","latitude":"47.3214700","longitude":"27.0955500","fclass":"P","fcode":"PPL","country":"RO","cc2":"","admin1":"23","admin2":"95872","admin3":"","admin4":"","population":1610,"elevation":0,"gtopo30":150,"timezone":"Europe/Bucharest","moddate":"2013-04-21T00:00:00.000Z"},{"geonameid":665535,"name":"Tansa","asciiname":"Tansa","alternatenames":"","latitude":"47.3013900","longitude":"27.0765300","fclass":"P","fcode":"PPL","country":"RO","cc2":"","admin1":"23","admin2":"95872","admin3":"","admin4":"","population":1062,"elevation":0,"gtopo30":102,"timezone":"Europe/Bucharest","moddate":"2013-04-21T00:00:00.000Z"},{"geonameid":664293,"name":"Ulmi","asciiname":"Ulmi","alternatenames":"Polieni,Ulmi,Ulmi-Polieni,Ulmii-Polieni","latitude":"47.2835200","longitude":"27.0712700","fclass":"P","fcode":"PPL","country":"RO","cc2":"RO","admin1":"23","admin2":"95872","admin3":"","admin4":"","population":710,"elevation":0,"gtopo30":90,"timezone":"Europe/Bucharest","moddate":"2013-04-21T00:00:00.000Z"}],"admin3":[],"alternateNames":[]},"__N_SSG":true}