{"pageProps":{"locale":"ro","admin2":{"geonameid":669036,"name":"Comuna Recea Cristur","country":"RO","admin1":"13","admin2":"59130","admin3":"","latitude":"47.1215500","longitude":"23.5455400"},"admin1":{"geonameid":681291,"name":"Cluj","admin1":"13"},"locations":[{"geonameid":682784,"name":"Căprioara","asciiname":"Caprioara","alternatenames":"","latitude":"47.1019200","longitude":"23.5290000","fclass":"P","fcode":"PPL","country":"RO","cc2":"","admin1":"13","admin2":"59130","admin3":"","admin4":"","population":164,"elevation":0,"gtopo30":404,"timezone":"Europe/Bucharest","moddate":"2013-04-21T00:00:00.000Z"},{"geonameid":681493,"name":"Ciubanca","asciiname":"Ciubanca","alternatenames":"","latitude":"47.1631400","longitude":"23.5738900","fclass":"P","fcode":"PPL","country":"RO","cc2":"","admin1":"13","admin2":"59130","admin3":"","admin4":"","population":173,"elevation":0,"gtopo30":316,"timezone":"Europe/Bucharest","moddate":"2013-04-21T00:00:00.000Z"},{"geonameid":681492,"name":"Ciubăncuța","asciiname":"Ciubancuta","alternatenames":"","latitude":"47.1424000","longitude":"23.5532000","fclass":"P","fcode":"PPL","country":"RO","cc2":"","admin1":"13","admin2":"59130","admin3":"","admin4":"","population":196,"elevation":0,"gtopo30":319,"timezone":"Europe/Bucharest","moddate":"2013-04-21T00:00:00.000Z"},{"geonameid":678580,"name":"Elciu","asciiname":"Elciu","alternatenames":"Elciu,Elciul","latitude":"47.0812500","longitude":"23.5685800","fclass":"P","fcode":"PPL","country":"RO","cc2":"RO","admin1":"13","admin2":"59130","admin3":"","admin4":"","population":227,"elevation":0,"gtopo30":413,"timezone":"Europe/Bucharest","moddate":"2013-04-21T00:00:00.000Z"},{"geonameid":678531,"name":"Escu","asciiname":"Escu","alternatenames":"Escu,Escul","latitude":"47.1285500","longitude":"23.5287400","fclass":"P","fcode":"PPL","country":"RO","cc2":"RO","admin1":"13","admin2":"59130","admin3":"","admin4":"","population":104,"elevation":0,"gtopo30":347,"timezone":"Europe/Bucharest","moddate":"2013-04-21T00:00:00.000Z"},{"geonameid":675133,"name":"Jurca","asciiname":"Jurca","alternatenames":"","latitude":"47.1263000","longitude":"23.5480400","fclass":"P","fcode":"PPL","country":"RO","cc2":"","admin1":"13","admin2":"59130","admin3":"","admin4":"","population":81,"elevation":0,"gtopo30":357,"timezone":"Europe/Bucharest","moddate":"2013-04-21T00:00:00.000Z"},{"geonameid":671649,"name":"Osoi","asciiname":"Osoi","alternatenames":"","latitude":"47.1479100","longitude":"23.5218400","fclass":"P","fcode":"PPL","country":"RO","cc2":"","admin1":"13","admin2":"59130","admin3":"","admin4":"","population":224,"elevation":0,"gtopo30":350,"timezone":"Europe/Bucharest","moddate":"2013-04-21T00:00:00.000Z"},{"geonameid":669451,"name":"Pustuța","asciiname":"Pustuta","alternatenames":"","latitude":"47.1228400","longitude":"23.5649600","fclass":"P","fcode":"PPL","country":"RO","cc2":"","admin1":"13","admin2":"59130","admin3":"","admin4":"","population":76,"elevation":0,"gtopo30":370,"timezone":"Europe/Bucharest","moddate":"2013-04-21T00:00:00.000Z"},{"geonameid":669037,"name":"Recea Cristur","asciiname":"Recea Cristur","alternatenames":"","latitude":"47.0666700","longitude":"23.5333300","fclass":"P","fcode":"PPLA2","country":"RO","cc2":"","admin1":"13","admin2":"59130","admin3":"","admin4":"","population":1680,"elevation":0,"gtopo30":401,"timezone":"Europe/Bucharest","moddate":"2012-06-12T00:00:00.000Z"}],"admin3":[],"alternateNames":[]},"__N_SSG":true}