{"pageProps":{"locale":"ro","admin2":{"geonameid":683345,"name":"Comuna Bujoreni","country":"RO","admin1":"39","admin2":"168880","admin3":"","latitude":"45.1623500","longitude":"24.3659300"},"admin1":{"geonameid":662892,"name":"Vâlcea","admin1":"39"},"locations":[{"geonameid":684401,"name":"Bogdănești","asciiname":"Bogdanesti","alternatenames":"","latitude":"45.1759600","longitude":"24.3427700","fclass":"P","fcode":"PPL","country":"RO","cc2":"","admin1":"39","admin2":"168880","admin3":"","admin4":"","population":535,"elevation":0,"gtopo30":363,"timezone":"Europe/Bucharest","moddate":"2013-04-21T00:00:00.000Z"},{"geonameid":683346,"name":"Bujoreni","asciiname":"Bujoreni","alternatenames":"","latitude":"45.1333300","longitude":"24.3500000","fclass":"P","fcode":"PPLA2","country":"RO","cc2":"","admin1":"39","admin2":"168880","admin3":"","admin4":"","population":3830,"elevation":0,"gtopo30":407,"timezone":"Europe/Bucharest","moddate":"2012-06-12T00:00:00.000Z"},{"geonameid":676468,"name":"Gura Văii","asciiname":"Gura Vaii","alternatenames":"Gura Vaii,Gura Văii,Gura-Vai,Gura-Văi","latitude":"45.1802600","longitude":"24.3655500","fclass":"P","fcode":"PPL","country":"RO","cc2":"RO","admin1":"39","admin2":"168880","admin3":"","admin4":"","population":965,"elevation":0,"gtopo30":253,"timezone":"Europe/Bucharest","moddate":"2013-04-21T00:00:00.000Z"},{"geonameid":674487,"name":"Lunca","asciiname":"Lunca","alternatenames":"","latitude":"45.1703600","longitude":"24.3681900","fclass":"P","fcode":"PPL","country":"RO","cc2":"","admin1":"39","admin2":"168880","admin3":"","admin4":"","population":360,"elevation":0,"gtopo30":251,"timezone":"Europe/Bucharest","moddate":"2013-04-21T00:00:00.000Z"},{"geonameid":673989,"name":"Malu Alb","asciiname":"Malu Alb","alternatenames":"Malu Alb,Malul Alb","latitude":"45.1379200","longitude":"24.3809500","fclass":"P","fcode":"PPL","country":"RO","cc2":"RO","admin1":"39","admin2":"168880","admin3":"","admin4":"","population":122,"elevation":0,"gtopo30":250,"timezone":"Europe/Bucharest","moddate":"2013-04-21T00:00:00.000Z"},{"geonameid":673958,"name":"Malu Vârtop","asciiname":"Malu Vartop","alternatenames":"Malu Virtop,Malu Vîrtop,Malul Vartop,Malul Vârtop","latitude":"45.1845700","longitude":"24.3572900","fclass":"P","fcode":"PPL","country":"RO","cc2":"RO","admin1":"39","admin2":"168880","admin3":"","admin4":"","population":448,"elevation":0,"gtopo30":277,"timezone":"Europe/Bucharest","moddate":"2013-04-21T00:00:00.000Z"},{"geonameid":671842,"name":"Olteni","asciiname":"Olteni","alternatenames":"","latitude":"45.1457100","longitude":"24.3846000","fclass":"P","fcode":"PPL","country":"RO","cc2":"","admin1":"39","admin2":"168880","admin3":"","admin4":"","population":779,"elevation":0,"gtopo30":252,"timezone":"Europe/Bucharest","moddate":"2013-04-21T00:00:00.000Z"}],"admin3":[],"alternateNames":[]},"__N_SSG":true}