{"pageProps":{"locale":"ro","admin2":{"geonameid":684616,"name":"Comuna Blăgeşti","country":"RO","admin1":"04","admin2":"21506","admin3":"","latitude":"46.6866800","longitude":"26.6483500"},"admin1":{"geonameid":685947,"name":"Bacău","admin1":"04"},"locations":[{"geonameid":684619,"name":"Blăgeşti","asciiname":"Blagesti","alternatenames":"","latitude":"46.6833300","longitude":"26.6500000","fclass":"P","fcode":"PPLA2","country":"RO","cc2":"","admin1":"04","admin2":"21506","admin3":"","admin4":"","population":7165,"elevation":0,"gtopo30":329,"timezone":"Europe/Bucharest","moddate":"2012-06-12T00:00:00.000Z"},{"geonameid":684317,"name":"Boiţa","asciiname":"Boita","alternatenames":"","latitude":"46.6833300","longitude":"26.6500000","fclass":"P","fcode":"PPL","country":"RO","cc2":"","admin1":"04","admin2":"21506","admin3":"","admin4":"","population":0,"elevation":0,"gtopo30":329,"timezone":"Europe/Bucharest","moddate":"2016-02-07T00:00:00.000Z"},{"geonameid":683489,"name":"Buda","asciiname":"Buda","alternatenames":"","latitude":"46.6711100","longitude":"26.7195300","fclass":"P","fcode":"PPL","country":"RO","cc2":"","admin1":"04","admin2":"21506","admin3":"","admin4":"","population":2060,"elevation":0,"gtopo30":212,"timezone":"Europe/Bucharest","moddate":"2013-04-21T00:00:00.000Z"},{"geonameid":671288,"name":"Păscăreni","asciiname":"Pascareni","alternatenames":"","latitude":"46.7000000","longitude":"26.6333300","fclass":"P","fcode":"PPL","country":"RO","cc2":"","admin1":"04","admin2":"21506","admin3":"","admin4":"","population":0,"elevation":0,"gtopo30":243,"timezone":"Europe/Bucharest","moddate":"2016-02-07T00:00:00.000Z"},{"geonameid":670048,"name":"Poiana Negustorului","asciiname":"Poiana Negustorului","alternatenames":"","latitude":"46.6776400","longitude":"26.6149100","fclass":"P","fcode":"PPL","country":"RO","cc2":"","admin1":"04","admin2":"21506","admin3":"","admin4":"","population":481,"elevation":0,"gtopo30":314,"timezone":"Europe/Bucharest","moddate":"2013-04-21T00:00:00.000Z"},{"geonameid":666878,"name":"Şipote","asciiname":"Sipote","alternatenames":"","latitude":"46.6833300","longitude":"26.6833300","fclass":"P","fcode":"PPL","country":"RO","cc2":"","admin1":"04","admin2":"21506","admin3":"","admin4":"","population":0,"elevation":0,"gtopo30":247,"timezone":"Europe/Bucharest","moddate":"2016-02-07T00:00:00.000Z"},{"geonameid":665030,"name":"Ţârdenii Mari","asciiname":"Tardenii Mari","alternatenames":"Tardenii Mari,Tirdeni,Tirdenii Mari,Ţârdenii Mari,Ţîrdenii Mari,Ţărdenii Mari","latitude":"46.6833300","longitude":"26.5833300","fclass":"P","fcode":"PPL","country":"RO","cc2":"RO","admin1":"04","admin2":"21506","admin3":"","admin4":"","population":0,"elevation":0,"gtopo30":280,"timezone":"Europe/Bucharest","moddate":"2020-03-08T00:00:00.000Z"},{"geonameid":663697,"name":"Valea lui Ion","asciiname":"Valea lui Ion","alternatenames":"","latitude":"46.7035000","longitude":"26.6249900","fclass":"P","fcode":"PPL","country":"RO","cc2":"","admin1":"04","admin2":"21506","admin3":"","admin4":"","population":1452,"elevation":0,"gtopo30":268,"timezone":"Europe/Bucharest","moddate":"2013-04-20T00:00:00.000Z"}],"admin3":[],"alternateNames":[]},"__N_SSG":true}