{"pageProps":{"locale":"ro","admin2":{"geonameid":683029,"name":"Oraş Cãlan","country":"RO","admin1":"21","admin2":"87424","admin3":"","latitude":"45.7394000","longitude":"23.0103500"},"admin1":{"geonameid":675917,"name":"Hunedoara","admin1":"21"},"locations":[{"geonameid":685264,"name":"Batiz","asciiname":"Batiz","alternatenames":"","latitude":"45.7780600","longitude":"23.0024300","fclass":"P","fcode":"PPL","country":"RO","cc2":"","admin1":"21","admin2":"87424","admin3":"","admin4":"","population":604,"elevation":0,"gtopo30":216,"timezone":"Europe/Bucharest","moddate":"2013-04-21T00:00:00.000Z"},{"geonameid":683030,"name":"Călan","asciiname":"Calan","alternatenames":"Calan,Calanul-Mare,Călan,Călanul-Mare","latitude":"45.7333300","longitude":"22.9833300","fclass":"P","fcode":"PPLA2","country":"RO","cc2":"","admin1":"21","admin2":"87424","admin3":"","admin4":"","population":12782,"elevation":0,"gtopo30":245,"timezone":"Europe/Bucharest","moddate":"2012-06-12T00:00:00.000Z"},{"geonameid":683028,"name":"Călanu Mic","asciiname":"Calanu Mic","alternatenames":"Calanu Mic,Calanul-Mic,Călanu Mic,Călanul-Mic","latitude":"45.7585900","longitude":"22.9981800","fclass":"P","fcode":"PPL","country":"RO","cc2":"RO","admin1":"21","admin2":"87424","admin3":"","admin4":"","population":174,"elevation":0,"gtopo30":229,"timezone":"Europe/Bucharest","moddate":"2013-04-21T00:00:00.000Z"},{"geonameid":680196,"name":"Crişeni","asciiname":"Criseni","alternatenames":"","latitude":"45.7333300","longitude":"23.0000000","fclass":"P","fcode":"PPL","country":"RO","cc2":"","admin1":"21","admin2":"87424","admin3":"","admin4":"","population":0,"elevation":0,"gtopo30":230,"timezone":"Europe/Bucharest","moddate":"2016-02-07T00:00:00.000Z"},{"geonameid":676736,"name":"Grid","asciiname":"Grid","alternatenames":"","latitude":"45.7334400","longitude":"23.1049000","fclass":"P","fcode":"PPL","country":"RO","cc2":"","admin1":"21","admin2":"87424","admin3":"","admin4":"","population":368,"elevation":0,"gtopo30":324,"timezone":"Europe/Bucharest","moddate":"2013-04-21T00:00:00.000Z"},{"geonameid":672557,"name":"Nădăștia de Jos","asciiname":"Nadastia de Jos","alternatenames":"Nadastia de Jos,Nadastia-Inferioara,Nădăştia de Jos,Nădăştia-Inferioara","latitude":"45.7206500","longitude":"22.9599600","fclass":"P","fcode":"PPL","country":"RO","cc2":"RO","admin1":"21","admin2":"87424","admin3":"","admin4":"","population":312,"elevation":0,"gtopo30":262,"timezone":"Europe/Bucharest","moddate":"2013-04-21T00:00:00.000Z"},{"geonameid":672556,"name":"Nădăștia de Sus","asciiname":"Nadastia de Sus","alternatenames":"Nadastia de Sus,Nadastia-Superioara,Nădăştia de Sus,Nădăştia-Superioara","latitude":"45.7114100","longitude":"22.9354500","fclass":"P","fcode":"PPL","country":"RO","cc2":"RO","admin1":"21","admin2":"87424","admin3":"","admin4":"","population":361,"elevation":0,"gtopo30":287,"timezone":"Europe/Bucharest","moddate":"2013-04-21T00:00:00.000Z"},{"geonameid":671909,"name":"Ohaba Streiului","asciiname":"Ohaba Streiului","alternatenames":"","latitude":"45.7188300","longitude":"23.0360100","fclass":"P","fcode":"PPL","country":"RO","cc2":"","admin1":"21","admin2":"87424","admin3":"","admin4":"","population":126,"elevation":0,"gtopo30":247,"timezone":"Europe/Bucharest","moddate":"2013-04-21T00:00:00.000Z"},{"geonameid":667067,"name":"Sâncrai","asciiname":"Sancrai","alternatenames":"Sincrai,Szentkiraly,Szentkirály,Sîncrai","latitude":"45.7500000","longitude":"22.9833300","fclass":"P","fcode":"PPL","country":"RO","cc2":"","admin1":"21","admin2":"87424","admin3":"","admin4":"","population":167,"elevation":0,"gtopo30":314,"timezone":"Europe/Bucharest","moddate":"2015-12-04T00:00:00.000Z"},{"geonameid":666940,"name":"Sântămăria de Piatră","asciiname":"Santamaria de Piatra","alternatenames":"Santamaria de Piatra,Santamaria-de Piatra,Sintamaria de Piatra,Sântămaria-de Piatra,Sântămăria de Piatră,Sîntămăria de Piatră","latitude":"45.7666700","longitude":"23.0166700","fclass":"P","fcode":"PPL","country":"RO","cc2":"","admin1":"21","admin2":"87424","admin3":"","admin4":"","population":0,"elevation":0,"gtopo30":282,"timezone":"Europe/Bucharest","moddate":"2020-03-08T00:00:00.000Z"},{"geonameid":665992,"name":"Strei","asciiname":"Strei","alternatenames":"Strei,Streiu","latitude":"45.7155400","longitude":"22.9944300","fclass":"P","fcode":"PPL","country":"RO","cc2":"RO","admin1":"21","admin2":"87424","admin3":"","admin4":"","population":376,"elevation":0,"gtopo30":240,"timezone":"Europe/Bucharest","moddate":"2013-04-21T00:00:00.000Z"},{"geonameid":665995,"name":"Strei-Săcel","asciiname":"Strei-Sacel","alternatenames":"","latitude":"45.7455100","longitude":"23.0257600","fclass":"P","fcode":"PPL","country":"RO","cc2":"","admin1":"21","admin2":"87424","admin3":"","admin4":"","population":192,"elevation":0,"gtopo30":237,"timezone":"Europe/Bucharest","moddate":"2013-04-21T00:00:00.000Z"},{"geonameid":665994,"name":"Streisângeorgiu","asciiname":"Streisangeorgiu","alternatenames":"Strei-Sangeorgiu,Strei-Sângeorgiu,Streisangiorgiu,Streisingeorgiu,Streisângiorgiu,Streisîngeorgiu","latitude":"45.7274600","longitude":"23.0228300","fclass":"P","fcode":"PPL","country":"RO","cc2":"RO","admin1":"21","admin2":"87424","admin3":"","admin4":"","population":603,"elevation":0,"gtopo30":240,"timezone":"Europe/Bucharest","moddate":"2013-04-21T00:00:00.000Z"},{"geonameid":663394,"name":"Valea Sângeorgiului","asciiname":"Valea Sangeorgiului","alternatenames":"Valea Sangeorgiului,Valea Singeorgiului,Valea Sângeorgiului,Valea Sîngeorgiului","latitude":"45.7453800","longitude":"23.0638300","fclass":"P","fcode":"PPL","country":"RO","cc2":"RO","admin1":"21","admin2":"87424","admin3":"","admin4":"","population":345,"elevation":0,"gtopo30":280,"timezone":"Europe/Bucharest","moddate":"2013-04-20T00:00:00.000Z"}],"admin3":[],"alternateNames":[]},"__N_SSG":true}