{"pageProps":{"locale":"en","admin2":{"geonameid":3333204,"name":"Stoke-on-Trent","country":"GB","admin1":"ENG","admin2":"N4","admin3":"","latitude":"53.0000000","longitude":"-2.1666700","localeAltName":"Stoke-on-Trent"},"admin1":{"geonameid":6269131,"name":"England","admin1":"ENG","localeAltName":"England"},"locations":[{"geonameid":2654225,"name":"Burslem","asciiname":"Burslem","alternatenames":"bwrslm,بورسلم","latitude":"53.0447600","longitude":"-2.1970400","fclass":"P","fcode":"PPL","country":"GB","cc2":"","admin1":"ENG","admin2":"N4","admin3":"41UE","admin4":"","population":0,"elevation":0,"gtopo30":151,"timezone":"Europe/London","moddate":"2011-03-03T00:00:00.000Z"},{"geonameid":8063571,"name":"Cobridge","asciiname":"Cobridge","alternatenames":"","latitude":"53.0336400","longitude":"-2.1878600","fclass":"P","fcode":"PPL","country":"GB","cc2":"","admin1":"ENG","admin2":"N4","admin3":"","admin4":"","population":0,"elevation":0,"gtopo30":158,"timezone":"Europe/London","moddate":"2011-12-01T00:00:00.000Z"},{"geonameid":2649872,"name":"Etruria","asciiname":"Etruria","alternatenames":"","latitude":"53.0227300","longitude":"-2.1944500","fclass":"P","fcode":"PPL","country":"GB","cc2":"","admin1":"ENG","admin2":"N4","admin3":"41UE","admin4":"","population":0,"elevation":0,"gtopo30":127,"timezone":"Europe/London","moddate":"2011-03-03T00:00:00.000Z"},{"geonameid":2649548,"name":"Fenton","asciiname":"Fenton","alternatenames":"","latitude":"52.9984600","longitude":"-2.1571800","fclass":"P","fcode":"PPL","country":"GB","cc2":"","admin1":"ENG","admin2":"N4","admin3":"","admin4":"","population":0,"elevation":0,"gtopo30":146,"timezone":"Europe/London","moddate":"2017-06-23T00:00:00.000Z"},{"geonameid":2647525,"name":"Hanley","asciiname":"Hanley","alternatenames":"Hanley","latitude":"53.0249200","longitude":"-2.1739500","fclass":"P","fcode":"PPLX","country":"GB","cc2":"","admin1":"ENG","admin2":"N4","admin3":"41UE","admin4":"","population":0,"elevation":0,"gtopo30":168,"timezone":"Europe/London","moddate":"2011-03-03T00:00:00.000Z"},{"geonameid":2643648,"name":"Longport","asciiname":"Longport","alternatenames":"","latitude":"53.0446700","longitude":"-2.2132700","fclass":"P","fcode":"PPL","country":"GB","cc2":"","admin1":"ENG","admin2":"N4","admin3":"41UE","admin4":"","population":0,"elevation":0,"gtopo30":129,"timezone":"Europe/London","moddate":"2011-03-03T00:00:00.000Z"},{"geonameid":2643620,"name":"Longton","asciiname":"Longton","alternatenames":"Longton","latitude":"52.9833300","longitude":"-2.1333300","fclass":"P","fcode":"PPL","country":"GB","cc2":"","admin1":"ENG","admin2":"N4","admin3":"","admin4":"","population":12794,"elevation":0,"gtopo30":150,"timezone":"Europe/London","moddate":"2017-07-04T00:00:00.000Z"},{"geonameid":8063572,"name":"Middleport","asciiname":"Middleport","alternatenames":"","latitude":"53.0426000","longitude":"-2.2028200","fclass":"P","fcode":"PPL","country":"GB","cc2":"","admin1":"ENG","admin2":"N4","admin3":"","admin4":"","population":0,"elevation":0,"gtopo30":135,"timezone":"Europe/London","moddate":"2011-12-01T00:00:00.000Z"},{"geonameid":6947742,"name":"Sideway","asciiname":"Sideway","alternatenames":"","latitude":"52.9872900","longitude":"-2.1838800","fclass":"P","fcode":"PPLL","country":"GB","cc2":"","admin1":"ENG","admin2":"N4","admin3":"41UE","admin4":"","population":0,"elevation":0,"gtopo30":108,"timezone":"Europe/London","moddate":"2011-03-03T00:00:00.000Z"},{"geonameid":2636841,"name":"Stoke-on-Trent","asciiname":"Stoke-on-Trent","alternatenames":"Stok-on-Trehnt,Stok-on-Trent,Stoka pie Trentas,Stokas prie Trento,Stoke,Stoke-on-Trent,Stoke-upon-Trent,Stoouk on Trent,Stouk na Trent,Stouk na Trentu,Stouk on Trent,The Potteries,XWH,astwk-an-trnt,seutokeuonteulenteu,stwk-awn-trynt,te lun te he pan si tuo ke,Στόουκ ον Τρεντ,Сток-он-Трент,Сток-он-Трэнт,Стоук на Трент,Стоук на Тренту,Стоук он Трент,استوک-آن-ترنت,ستوك-أون-ترينت,سٹاک اون ٹرینٹ,ストーク・オン・トレント,特倫特河畔斯托克,스토크온트렌트","latitude":"53.0041500","longitude":"-2.1853800","fclass":"P","fcode":"PPLA2","country":"GB","cc2":"","admin1":"ENG","admin2":"N4","admin3":"","admin4":"","population":372775,"elevation":0,"gtopo30":114,"timezone":"Europe/London","moddate":"2019-09-05T00:00:00.000Z"},{"geonameid":2635497,"name":"Trent Vale","asciiname":"Trent Vale","alternatenames":"","latitude":"52.9877500","longitude":"-2.2021900","fclass":"P","fcode":"PPL","country":"GB","cc2":"","admin1":"ENG","admin2":"N4","admin3":"41UE","admin4":"","population":0,"elevation":0,"gtopo30":115,"timezone":"Europe/London","moddate":"2011-03-03T00:00:00.000Z"},{"geonameid":2635500,"name":"Trentham","asciiname":"Trentham","alternatenames":"","latitude":"52.9684100","longitude":"-2.1885000","fclass":"P","fcode":"PPL","country":"GB","cc2":"","admin1":"ENG","admin2":"N4","admin3":"41UG","admin4":"","population":0,"elevation":0,"gtopo30":103,"timezone":"Europe/London","moddate":"2011-03-03T00:00:00.000Z"}],"admin3":[],"alternateNames":[{"alternatenameId":8666529,"geonameid":3333204,"isoLanguage":"en","alternateName":"Stoke-on-Trent","isPreferredName":true,"isShortName":true,"isColloquial":false,"isHistoric":false},{"alternatenameId":1626647,"geonameid":6269131,"isoLanguage":"en","alternateName":"England","isPreferredName":true,"isShortName":true,"isColloquial":false,"isHistoric":false}]},"__N_SSG":true}