{"pageProps":{"locale":"ro","admin2":{"geonameid":8334756,"name":"Oraş Târgu Neamţ","country":"RO","admin1":"28","admin2":"121055","admin3":"","latitude":"47.1969800","longitude":"26.3641400"},"admin1":{"geonameid":672460,"name":"Neamţ","admin1":"28"},"locations":[{"geonameid":684590,"name":"Blebea","asciiname":"Blebea","alternatenames":"","latitude":"47.1968900","longitude":"26.4082900","fclass":"P","fcode":"PPLX","country":"RO","cc2":"","admin1":"28","admin2":"121055","admin3":"","admin4":"","population":791,"elevation":0,"gtopo30":345,"timezone":"Europe/Bucharest","moddate":"2013-04-21T00:00:00.000Z"},{"geonameid":675921,"name":"Humulești","asciiname":"Humulesti","alternatenames":"Humulesti,Humuleşti","latitude":"47.1984600","longitude":"26.3527300","fclass":"P","fcode":"PPLX","country":"RO","cc2":"","admin1":"28","admin2":"121055","admin3":"","admin4":"","population":3446,"elevation":0,"gtopo30":376,"timezone":"Europe/Bucharest","moddate":"2013-04-21T00:00:00.000Z"},{"geonameid":11001711,"name":"Humuleștii Noi","asciiname":"Humulestii Noi","alternatenames":"","latitude":"47.1855700","longitude":"26.3356800","fclass":"P","fcode":"PPL","country":"RO","cc2":"","admin1":"28","admin2":"121055","admin3":"","admin4":"","population":481,"elevation":0,"gtopo30":408,"timezone":"Europe/Bucharest","moddate":"2015-12-17T00:00:00.000Z"},{"geonameid":674092,"name":"Mahala","asciiname":"Mahala","alternatenames":"","latitude":"47.2000000","longitude":"26.3666700","fclass":"P","fcode":"PPLX","country":"RO","cc2":"","admin1":"28","admin2":"121055","admin3":"","admin4":"","population":0,"elevation":0,"gtopo30":361,"timezone":"Europe/Bucharest","moddate":"2016-02-07T00:00:00.000Z"},{"geonameid":665003,"name":"Târgu Neamţ","asciiname":"Targu Neamt","alternatenames":"Neamtzu,Nemetvasar,Nemetvásár,Pomete,Pometea,Targu-Neamt,Targul Neamt,Tirgu Neamt,Tuteni,Târgu-Neamţ,Târgul Neamţ,Tîrgu Neamţ,Ţuţeni","latitude":"47.2000000","longitude":"26.3666700","fclass":"P","fcode":"PPLA2","country":"RO","cc2":"","admin1":"28","admin2":"121055","admin3":"","admin4":"","population":20473,"elevation":0,"gtopo30":361,"timezone":"Europe/Bucharest","moddate":"2014-06-04T00:00:00.000Z"},{"geonameid":663095,"name":"Vatra Târgului","asciiname":"Vatra Targului","alternatenames":"Vatra Targului,Vatra Tirgului,Vatra Târgului,Vatra Tîrgului","latitude":"47.2000000","longitude":"26.3666700","fclass":"P","fcode":"PPLX","country":"RO","cc2":"","admin1":"28","admin2":"121055","admin3":"","admin4":"","population":0,"elevation":0,"gtopo30":361,"timezone":"Europe/Bucharest","moddate":"2020-03-08T00:00:00.000Z"}],"admin3":[],"alternateNames":[]},"__N_SSG":true}