{"pageProps":{"locale":"en","admin2":{"geonameid":2647554,"name":"Hampshire","country":"GB","admin1":"ENG","admin2":"F2","admin3":"","latitude":"51.0000000","longitude":"-1.2500000"},"admin1":{"geonameid":6269131,"name":"England","admin1":"ENG","localeAltName":"England"},"locations":[{"geonameid":2657860,"name":"Abbots Worthy","asciiname":"Abbots Worthy","alternatenames":"Abbots Worthy","latitude":"51.0912900","longitude":"-1.2909400","fclass":"P","fcode":"PPL","country":"GB","cc2":"","admin1":"ENG","admin2":"F2","admin3":"24UP","admin4":"24UP025","population":0,"elevation":0,"gtopo30":57,"timezone":"Europe/London","moddate":"2018-07-03T00:00:00.000Z"},{"geonameid":2657859,"name":"Abbotts Ann","asciiname":"Abbotts Ann","alternatenames":"Abbots Ann,Abbotts Ann","latitude":"51.1901600","longitude":"-1.5323400","fclass":"P","fcode":"PPL","country":"GB","cc2":"","admin1":"ENG","admin2":"F2","admin3":"24UN","admin4":"24UN001","population":2112,"elevation":0,"gtopo30":64,"timezone":"Europe/London","moddate":"2018-07-03T00:00:00.000Z"},{"geonameid":2657540,"name":"Aldershot","asciiname":"Aldershot","alternatenames":"Aldershot,Oldershot,Oldersotas,Olderšotas,aldrshat,aldrshwt,ao er de xiao te,arudashotto,oldeosyos,Олдершот,אלדרשוט,ألدرشوت,الدرشات,アルダーショット,奧爾德肖特,올더숏","latitude":"51.2482700","longitude":"-0.7638900","fclass":"P","fcode":"PPL","country":"GB","cc2":"","admin1":"ENG","admin2":"F2","admin3":"24UL","admin4":"","population":61339,"elevation":0,"gtopo30":99,"timezone":"Europe/London","moddate":"2011-03-03T00:00:00.000Z"},{"geonameid":10109465,"name":"Aldershot Camp","asciiname":"Aldershot Camp","alternatenames":"","latitude":"51.2598700","longitude":"-0.7581000","fclass":"P","fcode":"PPLX","country":"GB","cc2":"","admin1":"ENG","admin2":"F2","admin3":"24UL","admin4":"","population":0,"elevation":0,"gtopo30":83,"timezone":"Europe/London","moddate":"2015-02-21T00:00:00.000Z"},{"geonameid":2657408,"name":"Alton","asciiname":"Alton","alternatenames":"Alton,Alton (England),Alton i Hampshire,Oltun,altwn  hmpshr,Алтон,Олтън,آلتون، همپشر,الٹن، ہیمپشائر","latitude":"51.1493100","longitude":"-0.9746900","fclass":"P","fcode":"PPL","country":"GB","cc2":"","admin1":"ENG","admin2":"F2","admin3":"24UC","admin4":"24UC001","population":16584,"elevation":0,"gtopo30":104,"timezone":"Europe/London","moddate":"2019-09-19T00:00:00.000Z"},{"geonameid":2657392,"name":"Alverstoke","asciiname":"Alverstoke","alternatenames":"Alverstoke","latitude":"50.7884200","longitude":"-1.1497100","fclass":"P","fcode":"PPL","country":"GB","cc2":"","admin1":"ENG","admin2":"F2","admin3":"24UF","admin4":"","population":0,"elevation":0,"gtopo30":6,"timezone":"Europe/London","moddate":"2011-03-03T00:00:00.000Z"},{"geonameid":7670884,"name":"Ampfield","asciiname":"Ampfield","alternatenames":"","latitude":"51.0068400","longitude":"-1.4263800","fclass":"P","fcode":"PPL","country":"GB","cc2":"","admin1":"ENG","admin2":"F2","admin3":"24UN","admin4":"24UN002","population":0,"elevation":0,"gtopo30":60,"timezone":"Europe/London","moddate":"2021-01-14T00:00:00.000Z"},{"geonameid":2657324,"name":"Andover","asciiname":"Andover","alternatenames":"Andover,Andover i Hampshire,aendobeo,andovu~a,andwwr  hmpshr,endovara,Андовер,اندوور، همپشر,एंडोवर,แอนโดเวอร์,アンドーヴァー,앤도버","latitude":"51.2113500","longitude":"-1.4939300","fclass":"P","fcode":"PPL","country":"GB","cc2":"","admin1":"ENG","admin2":"F2","admin3":"24UN","admin4":"24UN060","population":42276,"elevation":0,"gtopo30":71,"timezone":"Europe/London","moddate":"2018-07-03T00:00:00.000Z"},{"geonameid":9538947,"name":"Anna Valley","asciiname":"Anna Valley","alternatenames":"","latitude":"51.1931700","longitude":"-1.5071900","fclass":"P","fcode":"PPL","country":"GB","cc2":"","admin1":"ENG","admin2":"F2","admin3":"24UN","admin4":"24UN053","population":2893,"elevation":0,"gtopo30":60,"timezone":"Europe/London","moddate":"2017-06-12T00:00:00.000Z"},{"geonameid":2657229,"name":"Appleshaw","asciiname":"Appleshaw","alternatenames":"","latitude":"51.2373900","longitude":"-1.5650700","fclass":"P","fcode":"PPL","country":"GB","cc2":"","admin1":"ENG","admin2":"F2","admin3":"24UN","admin4":"24UN004","population":503,"elevation":0,"gtopo30":92,"timezone":"Europe/London","moddate":"2018-07-03T00:00:00.000Z"},{"geonameid":2657091,"name":"Arford","asciiname":"Arford","alternatenames":"","latitude":"51.1244600","longitude":"-0.8146200","fclass":"P","fcode":"PPL","country":"GB","cc2":"","admin1":"ENG","admin2":"F2","admin3":"24UC","admin4":"24UC019","population":0,"elevation":0,"gtopo30":110,"timezone":"Europe/London","moddate":"2018-07-03T00:00:00.000Z"},{"geonameid":11550606,"name":"Ashford Hill","asciiname":"Ashford Hill","alternatenames":"","latitude":"51.3534500","longitude":"-1.2036900","fclass":"P","fcode":"PPL","country":"GB","cc2":"","admin1":"ENG","admin2":"F2","admin3":"24UB","admin4":"24UB001","population":0,"elevation":0,"gtopo30":81,"timezone":"Europe/London","moddate":"2017-06-04T00:00:00.000Z"},{"geonameid":2656942,"name":"Ashley","asciiname":"Ashley","alternatenames":"","latitude":"51.0801500","longitude":"-1.4603700","fclass":"P","fcode":"PPL","country":"GB","cc2":"","admin1":"ENG","admin2":"F2","admin3":"24UN","admin4":"24UN005","population":0,"elevation":0,"gtopo30":48,"timezone":"Europe/London","moddate":"2018-07-03T00:00:00.000Z"},{"geonameid":2656935,"name":"Ashmansworth","asciiname":"Ashmansworth","alternatenames":"Ashmansworth","latitude":"51.3151000","longitude":"-1.4059300","fclass":"P","fcode":"PPL","country":"GB","cc2":"","admin1":"ENG","admin2":"F2","admin3":"24UB","admin4":"24UB002","population":0,"elevation":0,"gtopo30":233,"timezone":"Europe/London","moddate":"2018-07-03T00:00:00.000Z"},{"geonameid":8714248,"name":"Ashurst","asciiname":"Ashurst","alternatenames":"","latitude":"50.8974000","longitude":"-1.5166300","fclass":"P","fcode":"PPL","country":"GB","cc2":"","admin1":"ENG","admin2":"F2","admin3":"24UJ","admin4":"24UJ001","population":0,"elevation":0,"gtopo30":20,"timezone":"Europe/London","moddate":"2014-02-19T00:00:00.000Z"},{"geonameid":11593088,"name":"Awbridge","asciiname":"Awbridge","alternatenames":"","latitude":"51.0172900","longitude":"-1.5439200","fclass":"P","fcode":"PPL","country":"GB","cc2":"","admin1":"ENG","admin2":"F2","admin3":"24UN","admin4":"24UN006","population":0,"elevation":0,"gtopo30":81,"timezone":"Europe/London","moddate":"2017-06-21T00:00:00.000Z"},{"geonameid":2656726,"name":"Axford","asciiname":"Axford","alternatenames":"","latitude":"51.1865500","longitude":"-1.1291900","fclass":"P","fcode":"PPL","country":"GB","cc2":"","admin1":"ENG","admin2":"F2","admin3":"24UB","admin4":"24UB030","population":0,"elevation":0,"gtopo30":114,"timezone":"Europe/London","moddate":"2018-07-03T00:00:00.000Z"},{"geonameid":2656223,"name":"Bartley","asciiname":"Bartley","alternatenames":"","latitude":"50.9144000","longitude":"-1.5655300","fclass":"P","fcode":"PPL","country":"GB","cc2":"","admin1":"ENG","admin2":"F2","admin3":"24UJ","admin4":"24UJ009","population":0,"elevation":0,"gtopo30":25,"timezone":"Europe/London","moddate":"2018-07-03T00:00:00.000Z"},{"geonameid":2656221,"name":"Barton on Sea","asciiname":"Barton on Sea","alternatenames":"Barton","latitude":"50.7397700","longitude":"-1.6750700","fclass":"P","fcode":"PPL","country":"GB","cc2":"GB","admin1":"ENG","admin2":"F2","admin3":"24UJ","admin4":"24UJ028","population":0,"elevation":0,"gtopo30":34,"timezone":"Europe/London","moddate":"2018-07-03T00:00:00.000Z"},{"geonameid":2656208,"name":"Barton Stacey","asciiname":"Barton Stacey","alternatenames":"Barton Stacey","latitude":"51.1667000","longitude":"-1.3784800","fclass":"P","fcode":"PPL","country":"GB","cc2":"","admin1":"ENG","admin2":"F2","admin3":"24UN","admin4":"24UN007","population":780,"elevation":0,"gtopo30":64,"timezone":"Europe/London","moddate":"2018-07-03T00:00:00.000Z"},{"geonameid":2656192,"name":"Basingstoke","asciiname":"Basingstoke","alternatenames":"Basingstoke,Behjsingstok,Beisin'nkstoouk,Bejzingstouk,XQB,basyngstwk,bei xin si tuo ke,beijingusutoku,beisingseutokeu,byysyngstwq,Μπεϊσινγκστόουκ,Бејзингстоук,Бэйсингсток,בייסינגסטוק,باسینگستوک,ベイジングストーク,貝辛斯托克,베이싱스토크","latitude":"51.2624900","longitude":"-1.0870800","fclass":"P","fcode":"PPL","country":"GB","cc2":"","admin1":"ENG","admin2":"F2","admin3":"24UB","admin4":"","population":107642,"elevation":0,"gtopo30":96,"timezone":"Europe/London","moddate":"2017-06-12T00:00:00.000Z"},{"geonameid":2656154,"name":"Baughurst","asciiname":"Baughurst","alternatenames":"","latitude":"51.3373700","longitude":"-1.1659200","fclass":"P","fcode":"PPL","country":"GB","cc2":"","admin1":"ENG","admin2":"F2","admin3":"24UB","admin4":"24UB003","population":0,"elevation":0,"gtopo30":91,"timezone":"Europe/London","moddate":"2018-07-03T00:00:00.000Z"},{"geonameid":2656079,"name":"Beaulieu","asciiname":"Beaulieu","alternatenames":"B'juli,Beaulieu,Bewley,Бьюли","latitude":"50.8200600","longitude":"-1.4412300","fclass":"P","fcode":"PPL","country":"GB","cc2":"GB","admin1":"ENG","admin2":"F2","admin3":"24UJ","admin4":"24UJ002","population":0,"elevation":0,"gtopo30":19,"timezone":"Europe/London","moddate":"2018-07-03T00:00:00.000Z"},{"geonameid":6545318,"name":"Bedhampton","asciiname":"Bedhampton","alternatenames":"","latitude":"50.8551200","longitude":"-1.0043400","fclass":"P","fcode":"PPLX","country":"GB","cc2":"","admin1":"ENG","admin2":"F2","admin3":"24UH","admin4":"","population":0,"elevation":0,"gtopo30":15,"timezone":"Europe/London","moddate":"2011-03-03T00:00:00.000Z"},{"geonameid":11592628,"name":"Beech","asciiname":"Beech","alternatenames":"","latitude":"51.1432000","longitude":"-1.0120700","fclass":"P","fcode":"PPL","country":"GB","cc2":"","admin1":"ENG","admin2":"F2","admin3":"24UC","admin4":"24UC039","population":0,"elevation":0,"gtopo30":138,"timezone":"Europe/London","moddate":"2017-06-18T00:00:00.000Z"},{"geonameid":2655885,"name":"Bentley","asciiname":"Bentley","alternatenames":"Bentley","latitude":"51.1920400","longitude":"-0.8750400","fclass":"P","fcode":"PPL","country":"GB","cc2":"","admin1":"ENG","admin2":"F2","admin3":"24UC","admin4":"24UC002","population":0,"elevation":0,"gtopo30":95,"timezone":"Europe/London","moddate":"2018-07-03T00:00:00.000Z"},{"geonameid":2655877,"name":"Bentworth","asciiname":"Bentworth","alternatenames":"","latitude":"51.1565600","longitude":"-1.0511500","fclass":"P","fcode":"PPL","country":"GB","cc2":"","admin1":"ENG","admin2":"F2","admin3":"24UC","admin4":"24UC003","population":553,"elevation":0,"gtopo30":179,"timezone":"Europe/London","moddate":"2018-07-03T00:00:00.000Z"},{"geonameid":2655685,"name":"Bighton","asciiname":"Bighton","alternatenames":"Bighton","latitude":"51.1049200","longitude":"-1.1276400","fclass":"P","fcode":"PPL","country":"GB","cc2":"","admin1":"ENG","admin2":"F2","admin3":"24UP","admin4":"24UP003","population":0,"elevation":0,"gtopo30":95,"timezone":"Europe/London","moddate":"2018-07-03T00:00:00.000Z"},{"geonameid":2655636,"name":"Binsted","asciiname":"Binsted","alternatenames":"","latitude":"51.1642700","longitude":"-0.8989900","fclass":"P","fcode":"PPL","country":"GB","cc2":"","admin1":"ENG","admin2":"F2","admin3":"24UC","admin4":"24UC004","population":0,"elevation":0,"gtopo30":138,"timezone":"Europe/London","moddate":"2018-07-03T00:00:00.000Z"},{"geonameid":2655561,"name":"Bishops Sutton","asciiname":"Bishops Sutton","alternatenames":"Bishop Sutton,Bishops Sutton","latitude":"51.0835200","longitude":"-1.1368300","fclass":"P","fcode":"PPL","country":"GB","cc2":"GB","admin1":"ENG","admin2":"F2","admin3":"24UP","admin4":"24UP004","population":0,"elevation":0,"gtopo30":85,"timezone":"Europe/London","moddate":"2018-07-03T00:00:00.000Z"},{"geonameid":2655551,"name":"Bishops Waltham","asciiname":"Bishops Waltham","alternatenames":"Bishop's Waltham,Bishops Waltham,byshaps waltam,بیشاپس والتام","latitude":"50.9559500","longitude":"-1.2147600","fclass":"P","fcode":"PPL","country":"GB","cc2":"","admin1":"ENG","admin2":"F2","admin3":"24UP","admin4":"24UP005","population":6275,"elevation":0,"gtopo30":35,"timezone":"Europe/London","moddate":"2018-07-03T00:00:00.000Z"},{"geonameid":2655557,"name":"Bishopstoke","asciiname":"Bishopstoke","alternatenames":"","latitude":"50.9664300","longitude":"-1.3283200","fclass":"P","fcode":"PPL","country":"GB","cc2":"","admin1":"ENG","admin2":"F2","admin3":"24UD","admin4":"24UD008","population":17667,"elevation":0,"gtopo30":11,"timezone":"Europe/London","moddate":"2018-07-03T00:00:00.000Z"},{"geonameid":2655542,"name":"Bisterne","asciiname":"Bisterne","alternatenames":"","latitude":"50.8120500","longitude":"-1.7904500","fclass":"P","fcode":"PPL","country":"GB","cc2":"","admin1":"ENG","admin2":"F2","admin3":"24UJ","admin4":"24UJ029","population":0,"elevation":0,"gtopo30":14,"timezone":"Europe/London","moddate":"2018-07-03T00:00:00.000Z"},{"geonameid":2655538,"name":"Bitterne","asciiname":"Bitterne","alternatenames":"","latitude":"50.9146400","longitude":"-1.3586600","fclass":"P","fcode":"PPLX","country":"GB","cc2":"","admin1":"ENG","admin2":"F2","admin3":"","admin4":"","population":0,"elevation":0,"gtopo30":50,"timezone":"Europe/London","moddate":"2011-02-22T00:00:00.000Z"},{"geonameid":2655515,"name":"Blackbushe","asciiname":"Blackbushe","alternatenames":"BBS,Blackbushe,Blackbushes","latitude":"51.3166700","longitude":"-0.8333300","fclass":"P","fcode":"PPL","country":"GB","cc2":"","admin1":"ENG","admin2":"F2","admin3":"24UG","admin4":"24UG008","population":0,"elevation":0,"gtopo30":84,"timezone":"Europe/London","moddate":"2018-07-03T00:00:00.000Z"},{"geonameid":11593097,"name":"Blackfield","asciiname":"Blackfield","alternatenames":"","latitude":"50.8185700","longitude":"-1.3745800","fclass":"P","fcode":"PPL","country":"GB","cc2":"","admin1":"ENG","admin2":"F2","admin3":"24UJ","admin4":"24UJ015","population":0,"elevation":0,"gtopo30":27,"timezone":"Europe/London","moddate":"2017-06-21T00:00:00.000Z"},{"geonameid":2655435,"name":"Blackwater","asciiname":"Blackwater","alternatenames":"","latitude":"51.3301300","longitude":"-0.7773700","fclass":"P","fcode":"PPL","country":"GB","cc2":"","admin1":"ENG","admin2":"F2","admin3":"24UG","admin4":"24UG008","population":0,"elevation":0,"gtopo30":63,"timezone":"Europe/London","moddate":"2018-07-03T00:00:00.000Z"},{"geonameid":2655249,"name":"Boldre","asciiname":"Boldre","alternatenames":"Boldre","latitude":"50.7835600","longitude":"-1.5501000","fclass":"P","fcode":"PPL","country":"GB","cc2":"","admin1":"ENG","admin2":"F2","admin3":"24UJ","admin4":"24UJ003","population":0,"elevation":0,"gtopo30":9,"timezone":"Europe/London","moddate":"2018-07-03T00:00:00.000Z"},{"geonameid":6693242,"name":"Bordon","asciiname":"Bordon","alternatenames":"","latitude":"51.1135700","longitude":"-0.8624500","fclass":"P","fcode":"PPL","country":"GB","cc2":"","admin1":"ENG","admin2":"F2","admin3":"24UC","admin4":"24UC035","population":20978,"elevation":0,"gtopo30":93,"timezone":"Europe/London","moddate":"2018-07-03T00:00:00.000Z"},{"geonameid":2655128,"name":"Botley","asciiname":"Botley","alternatenames":"Botley","latitude":"50.9143300","longitude":"-1.2698400","fclass":"P","fcode":"PPL","country":"GB","cc2":"","admin1":"ENG","admin2":"F2","admin3":"24UD","admin4":"24UD001","population":2562,"elevation":0,"gtopo30":9,"timezone":"Europe/London","moddate":"2018-07-03T00:00:00.000Z"},{"geonameid":2654988,"name":"Bradley","asciiname":"Bradley","alternatenames":"","latitude":"51.1713300","longitude":"-1.0940800","fclass":"P","fcode":"PPL","country":"GB","cc2":"","admin1":"ENG","admin2":"F2","admin3":"24UB","admin4":"24UB004","population":0,"elevation":0,"gtopo30":125,"timezone":"Europe/London","moddate":"2018-07-03T00:00:00.000Z"},{"geonameid":2654932,"name":"Bramdean","asciiname":"Bramdean","alternatenames":"","latitude":"51.0480600","longitude":"-1.1264000","fclass":"P","fcode":"PPL","country":"GB","cc2":"","admin1":"ENG","admin2":"F2","admin3":"24UP","admin4":"24UP007","population":266,"elevation":0,"gtopo30":84,"timezone":"Europe/London","moddate":"2018-07-03T00:00:00.000Z"},{"geonameid":2654923,"name":"Bramley","asciiname":"Bramley","alternatenames":"Bramley","latitude":"51.3267700","longitude":"-1.0593800","fclass":"P","fcode":"PPL","country":"GB","cc2":"","admin1":"ENG","admin2":"F2","admin3":"24UB","admin4":"24UB005","population":4233,"elevation":0,"gtopo30":60,"timezone":"Europe/London","moddate":"2018-07-03T00:00:00.000Z"},{"geonameid":2654910,"name":"Bramshaw","asciiname":"Bramshaw","alternatenames":"Bramshaw","latitude":"50.9380500","longitude":"-1.6175400","fclass":"P","fcode":"PPL","country":"GB","cc2":"","admin1":"ENG","admin2":"F2","admin3":"24UJ","admin4":"24UJ004","population":0,"elevation":0,"gtopo30":70,"timezone":"Europe/London","moddate":"2018-07-03T00:00:00.000Z"},{"geonameid":2654909,"name":"Bramshott","asciiname":"Bramshott","alternatenames":"","latitude":"51.0896000","longitude":"-0.7981200","fclass":"P","fcode":"PPL","country":"GB","cc2":"","admin1":"ENG","admin2":"F2","admin3":"24UC","admin4":"24UC005","population":0,"elevation":0,"gtopo30":114,"timezone":"Europe/London","moddate":"2018-07-03T00:00:00.000Z"},{"geonameid":10794264,"name":"Bransbury","asciiname":"Bransbury","alternatenames":"","latitude":"51.1786200","longitude":"-1.3981000","fclass":"P","fcode":"PPL","country":"GB","cc2":"","admin1":"ENG","admin2":"F2","admin3":"24UN","admin4":"24UN007","population":0,"elevation":0,"gtopo30":50,"timezone":"Europe/London","moddate":"2015-10-06T00:00:00.000Z"},{"geonameid":2654883,"name":"Bransgore","asciiname":"Bransgore","alternatenames":"Bransgore","latitude":"50.7815300","longitude":"-1.7377100","fclass":"P","fcode":"PPL","country":"GB","cc2":"","admin1":"ENG","admin2":"F2","admin3":"24UJ","admin4":"24UJ005","population":3719,"elevation":0,"gtopo30":24,"timezone":"Europe/London","moddate":"2018-07-03T00:00:00.000Z"},{"geonameid":2654830,"name":"Breamore","asciiname":"Breamore","alternatenames":"Breamore","latitude":"50.9608500","longitude":"-1.7758300","fclass":"P","fcode":"PPL","country":"GB","cc2":"","admin1":"ENG","admin2":"F2","admin3":"24UJ","admin4":"24UJ006","population":0,"elevation":0,"gtopo30":32,"timezone":"Europe/London","moddate":"2018-07-03T00:00:00.000Z"},{"geonameid":2654756,"name":"Bridgemary","asciiname":"Bridgemary","alternatenames":"Bridgemary,Lower Bridgemary","latitude":"50.8271300","longitude":"-1.1756000","fclass":"P","fcode":"PPL","country":"GB","cc2":"","admin1":"ENG","admin2":"F2","admin3":"24UF","admin4":"","population":0,"elevation":0,"gtopo30":8,"timezone":"Europe/London","moddate":"2011-03-03T00:00:00.000Z"},{"geonameid":2654615,"name":"Brockenhurst","asciiname":"Brockenhurst","alternatenames":"Brockenhurst","latitude":"50.8193600","longitude":"-1.5730300","fclass":"P","fcode":"PPL","country":"GB","cc2":"","admin1":"ENG","admin2":"F2","admin3":"24UJ","admin4":"24UJ007","population":3552,"elevation":0,"gtopo30":16,"timezone":"Europe/London","moddate":"2018-07-03T00:00:00.000Z"},{"geonameid":2654610,"name":"Brockhurst","asciiname":"Brockhurst","alternatenames":"","latitude":"50.8000000","longitude":"-1.1500000","fclass":"P","fcode":"PPL","country":"GB","cc2":"","admin1":"ENG","admin2":"F2","admin3":"24UF","admin4":"","population":0,"elevation":0,"gtopo30":6,"timezone":"Europe/London","moddate":"2010-05-24T00:00:00.000Z"},{"geonameid":2654570,"name":"Brook","asciiname":"Brook","alternatenames":"","latitude":"50.9257300","longitude":"-1.6140000","fclass":"P","fcode":"PPL","country":"GB","cc2":"","admin1":"ENG","admin2":"F2","admin3":"24UJ","admin4":"24UJ004","population":0,"elevation":0,"gtopo30":49,"timezone":"Europe/London","moddate":"2018-07-03T00:00:00.000Z"},{"geonameid":2654512,"name":"Broughton","asciiname":"Broughton","alternatenames":"","latitude":"51.0960600","longitude":"-1.5620300","fclass":"P","fcode":"PPL","country":"GB","cc2":"","admin1":"ENG","admin2":"F2","admin3":"24UN","admin4":"24UN010","population":0,"elevation":0,"gtopo30":46,"timezone":"Europe/London","moddate":"2018-07-03T00:00:00.000Z"},{"geonameid":2654494,"name":"Brown Candover","asciiname":"Brown Candover","alternatenames":"","latitude":"51.1497900","longitude":"-1.1745900","fclass":"P","fcode":"PPL","country":"GB","cc2":"","admin1":"ENG","admin2":"F2","admin3":"24UB","admin4":"24UB007","population":0,"elevation":0,"gtopo30":85,"timezone":"Europe/London","moddate":"2018-07-03T00:00:00.000Z"},{"geonameid":8199679,"name":"Bucklers Hard","asciiname":"Bucklers Hard","alternatenames":"","latitude":"50.7987000","longitude":"-1.4243600","fclass":"P","fcode":"PPL","country":"GB","cc2":"","admin1":"ENG","admin2":"F2","admin3":"24UJ","admin4":"24UJ002","population":0,"elevation":0,"gtopo30":15,"timezone":"Europe/London","moddate":"2012-02-28T00:00:00.000Z"},{"geonameid":2654346,"name":"Bullington","asciiname":"Bullington","alternatenames":"Bullington","latitude":"51.1666700","longitude":"-1.3333300","fclass":"P","fcode":"PPL","country":"GB","cc2":"","admin1":"ENG","admin2":"F2","admin3":"24UP","admin4":"24UP046","population":0,"elevation":0,"gtopo30":61,"timezone":"Europe/London","moddate":"2018-07-03T00:00:00.000Z"},{"geonameid":2654304,"name":"Burghclere","asciiname":"Burghclere","alternatenames":"Burghclere","latitude":"51.3487400","longitude":"-1.3235100","fclass":"P","fcode":"PPL","country":"GB","cc2":"","admin1":"ENG","admin2":"F2","admin3":"24UB","admin4":"24UB006","population":546,"elevation":0,"gtopo30":135,"timezone":"Europe/London","moddate":"2018-07-03T00:00:00.000Z"},{"geonameid":2654291,"name":"Buriton","asciiname":"Buriton","alternatenames":"Buriton","latitude":"50.9750500","longitude":"-0.9485100","fclass":"P","fcode":"PPL","country":"GB","cc2":"","admin1":"ENG","admin2":"F2","admin3":"24UC","admin4":"24UC006","population":507,"elevation":0,"gtopo30":80,"timezone":"Europe/London","moddate":"2018-07-03T00:00:00.000Z"},{"geonameid":2654287,"name":"Burley","asciiname":"Burley","alternatenames":"Burley","latitude":"50.8280000","longitude":"-1.6997700","fclass":"P","fcode":"PPL","country":"GB","cc2":"","admin1":"ENG","admin2":"F2","admin3":"24UJ","admin4":"24UJ008","population":1384,"elevation":0,"gtopo30":55,"timezone":"Europe/London","moddate":"2018-07-03T00:00:00.000Z"},{"geonameid":2654226,"name":"Bursledon","asciiname":"Bursledon","alternatenames":"","latitude":"50.8865800","longitude":"-1.3159600","fclass":"P","fcode":"PPL","country":"GB","cc2":"","admin1":"ENG","admin2":"F2","admin3":"24UD","admin4":"24UD002","population":6894,"elevation":0,"gtopo30":38,"timezone":"Europe/London","moddate":"2018-07-03T00:00:00.000Z"},{"geonameid":2654155,"name":"Buttermere","asciiname":"Buttermere","alternatenames":"","latitude":"51.3473900","longitude":"-1.5115600","fclass":"P","fcode":"PPL","country":"GB","cc2":"","admin1":"ENG","admin2":"F2","admin3":"24UN","admin4":"","population":0,"elevation":0,"gtopo30":256,"timezone":"Europe/London","moddate":"2011-02-24T00:00:00.000Z"},{"geonameid":2654107,"name":"Cadnam","asciiname":"Cadnam","alternatenames":"","latitude":"50.9204700","longitude":"-1.5797000","fclass":"P","fcode":"PPL","country":"GB","cc2":"","admin1":"ENG","admin2":"F2","admin3":"24UJ","admin4":"24UJ009","population":1917,"elevation":0,"gtopo30":30,"timezone":"Europe/London","moddate":"2018-07-03T00:00:00.000Z"},{"geonameid":2653972,"name":"Calshot","asciiname":"Calshot","alternatenames":"Calshot,Calshot Castle","latitude":"50.8097300","longitude":"-1.3209300","fclass":"P","fcode":"PPL","country":"GB","cc2":"GB","admin1":"ENG","admin2":"F2","admin3":"24UJ","admin4":"24UJ015","population":0,"elevation":0,"gtopo30":5,"timezone":"Europe/London","moddate":"2018-07-03T00:00:00.000Z"},{"geonameid":2653510,"name":"Catherington","asciiname":"Catherington","alternatenames":"","latitude":"50.9211600","longitude":"-1.0218100","fclass":"P","fcode":"PPL","country":"GB","cc2":"","admin1":"ENG","admin2":"F2","admin3":"24UC","admin4":"24UC020","population":0,"elevation":0,"gtopo30":76,"timezone":"Europe/London","moddate":"2018-07-03T00:00:00.000Z"},{"geonameid":2653383,"name":"Chalton","asciiname":"Chalton","alternatenames":"","latitude":"50.9398300","longitude":"-0.9606200","fclass":"P","fcode":"PPL","country":"GB","cc2":"","admin1":"ENG","admin2":"F2","admin3":"24UC","admin4":"24UC008","population":0,"elevation":0,"gtopo30":92,"timezone":"Europe/London","moddate":"2018-07-03T00:00:00.000Z"},{"geonameid":7287933,"name":"Chandler's Ford","asciiname":"Chandler's Ford","alternatenames":"","latitude":"50.9846100","longitude":"-1.3990500","fclass":"P","fcode":"PPL","country":"GB","cc2":"","admin1":"ENG","admin2":"F2","admin3":"24UN","admin4":"24UN059","population":0,"elevation":0,"gtopo30":27,"timezone":"Europe/London","moddate":"2018-07-03T00:00:00.000Z"},{"geonameid":2653293,"name":"Chawton","asciiname":"Chawton","alternatenames":"Chawton","latitude":"51.1328500","longitude":"-0.9889500","fclass":"P","fcode":"PPL","country":"GB","cc2":"","admin1":"ENG","admin2":"F2","admin3":"24UC","admin4":"24UC007","population":0,"elevation":0,"gtopo30":115,"timezone":"Europe/London","moddate":"2018-07-03T00:00:00.000Z"},{"geonameid":2653250,"name":"Cheriton","asciiname":"Cheriton","alternatenames":"","latitude":"51.0522900","longitude":"-1.1699600","fclass":"P","fcode":"PPL","country":"GB","cc2":"","admin1":"ENG","admin2":"F2","admin3":"24UP","admin4":"24UP008","population":325,"elevation":0,"gtopo30":72,"timezone":"Europe/London","moddate":"2018-07-03T00:00:00.000Z"},{"geonameid":2653177,"name":"Chilbolton","asciiname":"Chilbolton","alternatenames":"","latitude":"51.1593200","longitude":"-1.4364200","fclass":"P","fcode":"PPL","country":"GB","cc2":"","admin1":"ENG","admin2":"F2","admin3":"24UN","admin4":"24UN014","population":862,"elevation":0,"gtopo30":47,"timezone":"Europe/London","moddate":"2018-07-03T00:00:00.000Z"},{"geonameid":2653176,"name":"Chilcomb","asciiname":"Chilcomb","alternatenames":"","latitude":"51.0524300","longitude":"-1.2779800","fclass":"P","fcode":"PPL","country":"GB","cc2":"","admin1":"ENG","admin2":"F2","admin3":"24UP","admin4":"24UP009","population":0,"elevation":0,"gtopo30":64,"timezone":"Europe/London","moddate":"2018-07-03T00:00:00.000Z"},{"geonameid":2653153,"name":"Chilton Candover","asciiname":"Chilton Candover","alternatenames":"","latitude":"51.1563800","longitude":"-1.1553900","fclass":"P","fcode":"PPL","country":"GB","cc2":"","admin1":"ENG","admin2":"F2","admin3":"24UB","admin4":"24UB007","population":0,"elevation":0,"gtopo30":91,"timezone":"Europe/London","moddate":"2018-07-03T00:00:00.000Z"},{"geonameid":2653150,"name":"Chilworth","asciiname":"Chilworth","alternatenames":"","latitude":"50.9644300","longitude":"-1.4193400","fclass":"P","fcode":"PPL","country":"GB","cc2":"","admin1":"ENG","admin2":"F2","admin3":"24UN","admin4":"24UN015","population":0,"elevation":0,"gtopo30":92,"timezone":"Europe/London","moddate":"2018-07-03T00:00:00.000Z"},{"geonameid":10278213,"name":"Church Crookham","asciiname":"Church Crookham","alternatenames":"","latitude":"51.2598700","longitude":"-0.8405400","fclass":"P","fcode":"PPL","country":"GB","cc2":"","admin1":"ENG","admin2":"F2","admin3":"24UG","admin4":"24UG018","population":0,"elevation":0,"gtopo30":99,"timezone":"Europe/London","moddate":"2015-05-12T00:00:00.000Z"},{"geonameid":2652957,"name":"Clanfield","asciiname":"Clanfield","alternatenames":"Clanfield","latitude":"50.9450200","longitude":"-1.0000100","fclass":"P","fcode":"PPL","country":"GB","cc2":"","admin1":"ENG","admin2":"F2","admin3":"24UC","admin4":"24UC008","population":0,"elevation":0,"gtopo30":116,"timezone":"Europe/London","moddate":"2018-07-03T00:00:00.000Z"},{"geonameid":2652853,"name":"Cliddesden","asciiname":"Cliddesden","alternatenames":"","latitude":"51.2381700","longitude":"-1.0976000","fclass":"P","fcode":"PPL","country":"GB","cc2":"","admin1":"ENG","admin2":"F2","admin3":"24UB","admin4":"24UB009","population":0,"elevation":0,"gtopo30":120,"timezone":"Europe/London","moddate":"2018-07-03T00:00:00.000Z"},{"geonameid":6693203,"name":"Colden Common","asciiname":"Colden Common","alternatenames":"","latitude":"50.9948300","longitude":"-1.3114300","fclass":"P","fcode":"PPL","country":"GB","cc2":"","admin1":"ENG","admin2":"F2","admin3":"24UP","admin4":"24UP010","population":3419,"elevation":0,"gtopo30":39,"timezone":"Europe/London","moddate":"2018-07-03T00:00:00.000Z"},{"geonameid":2652491,"name":"Compton","asciiname":"Compton","alternatenames":"","latitude":"51.0238500","longitude":"-1.3371300","fclass":"P","fcode":"PPL","country":"GB","cc2":"","admin1":"ENG","admin2":"F2","admin3":"24UP","admin4":"24UP011","population":2311,"elevation":0,"gtopo30":82,"timezone":"Europe/London","moddate":"2018-07-03T00:00:00.000Z"},{"geonameid":10102211,"name":"Conford","asciiname":"Conford","alternatenames":"","latitude":"51.0876200","longitude":"-0.8269800","fclass":"P","fcode":"PPL","country":"GB","cc2":"","admin1":"ENG","admin2":"F2","admin3":"24UC","admin4":"24UC005","population":0,"elevation":0,"gtopo30":99,"timezone":"Europe/London","moddate":"2015-02-14T00:00:00.000Z"},{"geonameid":2652371,"name":"Corhampton","asciiname":"Corhampton","alternatenames":"Corhampton","latitude":"50.9796100","longitude":"-1.1312500","fclass":"P","fcode":"PPL","country":"GB","cc2":"","admin1":"ENG","admin2":"F2","admin3":"24UP","admin4":"24UP012","population":0,"elevation":0,"gtopo30":63,"timezone":"Europe/London","moddate":"2018-07-03T00:00:00.000Z"},{"geonameid":2652229,"name":"Cove","asciiname":"Cove","alternatenames":"","latitude":"51.2954700","longitude":"-0.7907600","fclass":"P","fcode":"PPL","country":"GB","cc2":"","admin1":"ENG","admin2":"F2","admin3":"24UL","admin4":"","population":0,"elevation":0,"gtopo30":66,"timezone":"Europe/London","moddate":"2010-05-24T00:00:00.000Z"},{"geonameid":6940296,"name":"Cowplain","asciiname":"Cowplain","alternatenames":"","latitude":"50.8941100","longitude":"-1.0182400","fclass":"P","fcode":"PPL","country":"GB","cc2":"","admin1":"ENG","admin2":"F2","admin3":"24UH","admin4":"","population":8775,"elevation":0,"gtopo30":60,"timezone":"Europe/London","moddate":"2011-03-03T00:00:00.000Z"},{"geonameid":2652054,"name":"Crawley","asciiname":"Crawley","alternatenames":"","latitude":"51.1112000","longitude":"-1.3943200","fclass":"P","fcode":"PPL","country":"GB","cc2":"","admin1":"ENG","admin2":"F2","admin3":"24UP","admin4":"24UP013","population":0,"elevation":0,"gtopo30":99,"timezone":"Europe/London","moddate":"2018-07-03T00:00:00.000Z"},{"geonameid":2651920,"name":"Crondall","asciiname":"Crondall","alternatenames":"Crondall","latitude":"51.2328500","longitude":"-0.8632900","fclass":"P","fcode":"PPL","country":"GB","cc2":"","admin1":"ENG","admin2":"F2","admin3":"24UG","admin4":"24UG002","population":1239,"elevation":0,"gtopo30":89,"timezone":"Europe/London","moddate":"2018-07-03T00:00:00.000Z"},{"geonameid":6545321,"name":"Crookhorn","asciiname":"Crookhorn","alternatenames":"","latitude":"50.8628000","longitude":"-1.0234500","fclass":"P","fcode":"PPLX","country":"GB","cc2":"","admin1":"ENG","admin2":"F2","admin3":"24UH","admin4":"","population":0,"elevation":0,"gtopo30":56,"timezone":"Europe/London","moddate":"2010-05-24T00:00:00.000Z"},{"geonameid":2651693,"name":"Curdridge","asciiname":"Curdridge","alternatenames":"Curbridge,Curdridge","latitude":"50.9236600","longitude":"-1.2461500","fclass":"P","fcode":"PPL","country":"GB","cc2":"GB","admin1":"ENG","admin2":"F2","admin3":"24UP","admin4":"24UP014","population":951,"elevation":0,"gtopo30":41,"timezone":"Europe/London","moddate":"2018-07-03T00:00:00.000Z"},{"geonameid":2651540,"name":"Damerham","asciiname":"Damerham","alternatenames":"Damerham,South Damerham","latitude":"50.9451400","longitude":"-1.8502100","fclass":"P","fcode":"PPL","country":"GB","cc2":"","admin1":"ENG","admin2":"F2","admin3":"24UJ","admin4":"24UJ010","population":225,"elevation":0,"gtopo30":43,"timezone":"Europe/London","moddate":"2018-07-03T00:00:00.000Z"},{"geonameid":10100207,"name":"Deadwater","asciiname":"Deadwater","alternatenames":"","latitude":"51.1130100","longitude":"-0.8505400","fclass":"P","fcode":"PPLX","country":"GB","cc2":"","admin1":"ENG","admin2":"F2","admin3":"24UC","admin4":"24UC035","population":0,"elevation":0,"gtopo30":71,"timezone":"Europe/London","moddate":"2015-02-14T00:00:00.000Z"},{"geonameid":7670890,"name":"Denmead","asciiname":"Denmead","alternatenames":"","latitude":"50.9039500","longitude":"-1.0674400","fclass":"P","fcode":"PPL","country":"GB","cc2":"","admin1":"ENG","admin2":"F2","admin3":"24UP","admin4":"24UP015","population":6107,"elevation":0,"gtopo30":47,"timezone":"Europe/London","moddate":"2017-06-12T00:00:00.000Z"},{"geonameid":2651273,"name":"Dibden","asciiname":"Dibden","alternatenames":"Dibden","latitude":"50.8666400","longitude":"-1.4392900","fclass":"P","fcode":"PPL","country":"GB","cc2":"","admin1":"ENG","admin2":"F2","admin3":"24UJ","admin4":"24UJ011","population":0,"elevation":0,"gtopo30":33,"timezone":"Europe/London","moddate":"2018-07-03T00:00:00.000Z"},{"geonameid":2650963,"name":"Droxford","asciiname":"Droxford","alternatenames":"Droxford","latitude":"50.9605900","longitude":"-1.1381100","fclass":"P","fcode":"PPL","country":"GB","cc2":"","admin1":"ENG","admin2":"F2","admin3":"24UP","admin4":"24UP016","population":675,"elevation":0,"gtopo30":56,"timezone":"Europe/London","moddate":"2018-07-03T00:00:00.000Z"},{"geonameid":2650793,"name":"Dummer","asciiname":"Dummer","alternatenames":"","latitude":"51.2090600","longitude":"-1.1657100","fclass":"P","fcode":"PPL","country":"GB","cc2":"","admin1":"ENG","admin2":"F2","admin3":"24UB","admin4":"24UB011","population":466,"elevation":0,"gtopo30":162,"timezone":"Europe/London","moddate":"2018-07-03T00:00:00.000Z"},{"geonameid":2650624,"name":"Durley","asciiname":"Durley","alternatenames":"","latitude":"50.9460000","longitude":"-1.2772300","fclass":"P","fcode":"PPL","country":"GB","cc2":"","admin1":"ENG","admin2":"F2","admin3":"24UP","admin4":"24UP017","population":298,"elevation":0,"gtopo30":29,"timezone":"Europe/London","moddate":"2018-07-03T00:00:00.000Z"},{"geonameid":11593174,"name":"East Boldre","asciiname":"East Boldre","alternatenames":"","latitude":"50.8000300","longitude":"-1.4733200","fclass":"P","fcode":"PPL","country":"GB","cc2":"","admin1":"ENG","admin2":"F2","admin3":"24UJ","admin4":"24UJ012","population":0,"elevation":0,"gtopo30":34,"timezone":"Europe/London","moddate":"2017-06-26T00:00:00.000Z"},{"geonameid":2650471,"name":"East Dean","asciiname":"East Dean","alternatenames":"East Dean","latitude":"51.0397900","longitude":"-1.6094100","fclass":"P","fcode":"PPL","country":"GB","cc2":"","admin1":"ENG","admin2":"F2","admin3":"24UN","admin4":"24UN016","population":1613,"elevation":0,"gtopo30":38,"timezone":"Europe/London","moddate":"2018-07-03T00:00:00.000Z"},{"geonameid":2650377,"name":"East Meon","asciiname":"East Meon","alternatenames":"","latitude":"50.9955000","longitude":"-1.0318600","fclass":"P","fcode":"PPL","country":"GB","cc2":"","admin1":"ENG","admin2":"F2","admin3":"24UC","admin4":"24UC010","population":871,"elevation":0,"gtopo30":117,"timezone":"Europe/London","moddate":"2018-07-03T00:00:00.000Z"},{"geonameid":2650330,"name":"East Stratton","asciiname":"East Stratton","alternatenames":"","latitude":"51.1573600","longitude":"-1.2266900","fclass":"P","fcode":"PPL","country":"GB","cc2":"","admin1":"ENG","admin2":"F2","admin3":"24UP","admin4":"24UP027","population":0,"elevation":0,"gtopo30":95,"timezone":"Europe/London","moddate":"2018-07-03T00:00:00.000Z"},{"geonameid":2650324,"name":"East Tisted","asciiname":"East Tisted","alternatenames":"East Tisted","latitude":"51.0850900","longitude":"-1.0007900","fclass":"P","fcode":"PPL","country":"GB","cc2":"","admin1":"ENG","admin2":"F2","admin3":"24UC","admin4":"24UC011","population":0,"elevation":0,"gtopo30":135,"timezone":"Europe/London","moddate":"2018-07-03T00:00:00.000Z"},{"geonameid":2650316,"name":"East Wellow","asciiname":"East Wellow","alternatenames":"","latitude":"50.9816700","longitude":"-1.5680400","fclass":"P","fcode":"PPL","country":"GB","cc2":"","admin1":"ENG","admin2":"F2","admin3":"24UN","admin4":"24UN055","population":0,"elevation":0,"gtopo30":29,"timezone":"Europe/London","moddate":"2018-07-03T00:00:00.000Z"},{"geonameid":2650306,"name":"East Woodhay","asciiname":"East Woodhay","alternatenames":"East Woodhay","latitude":"51.3500000","longitude":"-1.4166700","fclass":"P","fcode":"PPL","country":"GB","cc2":"","admin1":"ENG","admin2":"F2","admin3":"24UB","admin4":"24UB012","population":0,"elevation":0,"gtopo30":164,"timezone":"Europe/London","moddate":"2018-07-03T00:00:00.000Z"},{"geonameid":2650305,"name":"East Worldham","asciiname":"East Worldham","alternatenames":"","latitude":"51.1369200","longitude":"-0.9314300","fclass":"P","fcode":"PPL","country":"GB","cc2":"","admin1":"ENG","admin2":"F2","admin3":"24UC","admin4":"24UC037","population":354,"elevation":0,"gtopo30":147,"timezone":"Europe/London","moddate":"2018-07-03T00:00:00.000Z"},{"geonameid":2650396,"name":"Eastleigh","asciiname":"Eastleigh","alternatenames":"Eastleigh,Istli,yi si te li,Истли,ایست‌لی,伊斯特利","latitude":"50.9666700","longitude":"-1.3500000","fclass":"P","fcode":"PPL","country":"GB","cc2":"","admin1":"ENG","admin2":"F2","admin3":"24UD","admin4":"","population":54225,"elevation":0,"gtopo30":11,"timezone":"Europe/London","moddate":"2012-01-17T00:00:00.000Z"},{"geonameid":2650281,"name":"Ecchinswell","asciiname":"Ecchinswell","alternatenames":"Ecchinswell","latitude":"51.3335900","longitude":"-1.2840300","fclass":"P","fcode":"PPL","country":"GB","cc2":"","admin1":"ENG","admin2":"F2","admin3":"24UB","admin4":"24UB013","population":0,"elevation":0,"gtopo30":101,"timezone":"Europe/London","moddate":"2018-07-03T00:00:00.000Z"},{"geonameid":2650115,"name":"Eling","asciiname":"Eling","alternatenames":"Eling","latitude":"50.9000000","longitude":"-1.4833300","fclass":"P","fcode":"PPL","country":"GB","cc2":"","admin1":"ENG","admin2":"F2","admin3":"24UJ","admin4":"24UJ034","population":0,"elevation":0,"gtopo30":22,"timezone":"Europe/London","moddate":"2018-07-04T00:00:00.000Z"},{"geonameid":2650095,"name":"Ellingham","asciiname":"Ellingham","alternatenames":"Ellingham","latitude":"50.8666700","longitude":"-1.7833300","fclass":"P","fcode":"PPL","country":"GB","cc2":"","admin1":"ENG","admin2":"F2","admin3":"24UJ","admin4":"24UJ013","population":0,"elevation":0,"gtopo30":21,"timezone":"Europe/London","moddate":"2018-07-03T00:00:00.000Z"},{"geonameid":2650005,"name":"Empshott","asciiname":"Empshott","alternatenames":"","latitude":"51.0763500","longitude":"-0.9271400","fclass":"P","fcode":"PPL","country":"GB","cc2":"","admin1":"ENG","admin2":"F2","admin3":"24UC","admin4":"24UC018","population":0,"elevation":0,"gtopo30":131,"timezone":"Europe/London","moddate":"2018-07-03T00:00:00.000Z"},{"geonameid":2650004,"name":"Emsworth","asciiname":"Emsworth","alternatenames":"amswwrth,امسوورث","latitude":"50.8477900","longitude":"-0.9369700","fclass":"P","fcode":"PPL","country":"GB","cc2":"","admin1":"ENG","admin2":"F2","admin3":"24UH","admin4":"","population":18777,"elevation":0,"gtopo30":7,"timezone":"Europe/London","moddate":"2017-06-12T00:00:00.000Z"},{"geonameid":2649987,"name":"Enham-Alamein","asciiname":"Enham-Alamein","alternatenames":"Enham,Enham-Alamein,Knights Enham","latitude":"51.2396500","longitude":"-1.4747400","fclass":"P","fcode":"PPL","country":"GB","cc2":"GB","admin1":"ENG","admin2":"F2","admin3":"24UN","admin4":"24UN058","population":0,"elevation":0,"gtopo30":90,"timezone":"Europe/London","moddate":"2018-07-03T00:00:00.000Z"},{"geonameid":6950979,"name":"Eversley","asciiname":"Eversley","alternatenames":"","latitude":"51.3538700","longitude":"-0.8888800","fclass":"P","fcode":"PPL","country":"GB","cc2":"","admin1":"ENG","admin2":"F2","admin3":"24UG","admin4":"24UG005","population":2600,"elevation":0,"gtopo30":49,"timezone":"Europe/London","moddate":"2018-07-03T00:00:00.000Z"},{"geonameid":11592747,"name":"Ewshot","asciiname":"Ewshot","alternatenames":"","latitude":"51.2401000","longitude":"-0.8304100","fclass":"P","fcode":"PPL","country":"GB","cc2":"","admin1":"ENG","admin2":"F2","admin3":"24UG","admin4":"24UG020","population":0,"elevation":0,"gtopo30":182,"timezone":"Europe/London","moddate":"2017-06-19T00:00:00.000Z"},{"geonameid":2649813,"name":"Exbury","asciiname":"Exbury","alternatenames":"Exbury","latitude":"50.8009700","longitude":"-1.3966800","fclass":"P","fcode":"PPL","country":"GB","cc2":"","admin1":"ENG","admin2":"F2","admin3":"24UJ","admin4":"24UJ014","population":0,"elevation":0,"gtopo30":25,"timezone":"Europe/London","moddate":"2018-07-03T00:00:00.000Z"},{"geonameid":2649798,"name":"Exton","asciiname":"Exton","alternatenames":"Exton","latitude":"50.9850700","longitude":"-1.1275600","fclass":"P","fcode":"PPL","country":"GB","cc2":"","admin1":"ENG","admin2":"F2","admin3":"24UP","admin4":"24UP018","population":0,"elevation":0,"gtopo30":62,"timezone":"Europe/London","moddate":"2018-07-03T00:00:00.000Z"},{"geonameid":2649766,"name":"Faccombe","asciiname":"Faccombe","alternatenames":"","latitude":"51.3190800","longitude":"-1.4419600","fclass":"P","fcode":"PPL","country":"GB","cc2":"","admin1":"ENG","admin2":"F2","admin3":"24UN","admin4":"24UN018","population":0,"elevation":0,"gtopo30":233,"timezone":"Europe/London","moddate":"2018-07-03T00:00:00.000Z"},{"geonameid":2651849,"name":"Fair Oak","asciiname":"Fair Oak","alternatenames":"","latitude":"50.9636400","longitude":"-1.2968200","fclass":"P","fcode":"PPL","country":"GB","cc2":"","admin1":"ENG","admin2":"F2","admin3":"24UD","admin4":"24UD003","population":0,"elevation":0,"gtopo30":35,"timezone":"Europe/London","moddate":"2011-02-22T00:00:00.000Z"},{"geonameid":2649692,"name":"Fareham","asciiname":"Fareham","alternatenames":"farham,fei lei mu,فارهام,แฟร์อัม,費勒姆","latitude":"50.8516200","longitude":"-1.1792900","fclass":"P","fcode":"PPL","country":"GB","cc2":"","admin1":"ENG","admin2":"F2","admin3":"24UE","admin4":"","population":57390,"elevation":0,"gtopo30":10,"timezone":"Europe/London","moddate":"2011-03-03T00:00:00.000Z"},{"geonameid":2649680,"name":"Farleigh Wallop","asciiname":"Farleigh Wallop","alternatenames":"Farleigh Wallop","latitude":"51.2159700","longitude":"-1.1061400","fclass":"P","fcode":"PPL","country":"GB","cc2":"","admin1":"ENG","admin2":"F2","admin3":"24UB","admin4":"24UB015","population":0,"elevation":0,"gtopo30":181,"timezone":"Europe/London","moddate":"2018-07-03T00:00:00.000Z"},{"geonameid":2649672,"name":"Farnborough","asciiname":"Farnborough","alternatenames":"FAB,Farnboro,Farnborough,Farnborough i Hampshire,fa en bo lei,farnbrt,farn‌bwrw  hmpshr,Фарнборо,פארנבורו,فارنبرة,فارن‌بورو، همپشر,法恩伯勒","latitude":"51.2942400","longitude":"-0.7556500","fclass":"P","fcode":"PPL","country":"GB","cc2":"","admin1":"ENG","admin2":"F2","admin3":"24UL","admin4":"","population":59902,"elevation":0,"gtopo30":69,"timezone":"Europe/London","moddate":"2010-08-03T00:00:00.000Z"},{"geonameid":2649618,"name":"Fawley","asciiname":"Fawley","alternatenames":"Fawley","latitude":"50.8166700","longitude":"-1.3500000","fclass":"P","fcode":"PPL","country":"GB","cc2":"","admin1":"ENG","admin2":"F2","admin3":"24UJ","admin4":"24UJ015","population":0,"elevation":0,"gtopo30":21,"timezone":"Europe/London","moddate":"2018-07-03T00:00:00.000Z"},{"geonameid":10375986,"name":"Fisher's Pond","asciiname":"Fisher's Pond","alternatenames":"","latitude":"50.9869600","longitude":"-1.3090000","fclass":"P","fcode":"PPLX","country":"GB","cc2":"","admin1":"ENG","admin2":"F2","admin3":"24UP","admin4":"24UP010","population":0,"elevation":0,"gtopo30":31,"timezone":"Europe/London","moddate":"2015-07-11T00:00:00.000Z"},{"geonameid":2649322,"name":"Fleet","asciiname":"Fleet","alternatenames":"Fleet,Fleet i Hampshire,flyt  hmpshr,فلیت، همپشر","latitude":"51.2833300","longitude":"-0.8333300","fclass":"P","fcode":"PPL","country":"GB","cc2":"","admin1":"ENG","admin2":"F2","admin3":"24UG","admin4":"24UG021","population":38726,"elevation":0,"gtopo30":74,"timezone":"Europe/London","moddate":"2018-07-03T00:00:00.000Z"},{"geonameid":2649313,"name":"Fleetland","asciiname":"Fleetland","alternatenames":"","latitude":"50.8333300","longitude":"-1.1833300","fclass":"P","fcode":"PPL","country":"GB","cc2":"","admin1":"ENG","admin2":"F2","admin3":"24UE","admin4":"","population":0,"elevation":0,"gtopo30":10,"timezone":"Europe/London","moddate":"2010-05-24T00:00:00.000Z"},{"geonameid":2649228,"name":"Fordingbridge","asciiname":"Fordingbridge","alternatenames":"فوردینگ‌بریج","latitude":"50.9274700","longitude":"-1.7902900","fclass":"P","fcode":"PPL","country":"GB","cc2":"","admin1":"ENG","admin2":"F2","admin3":"24UJ","admin4":"24UJ016","population":6066,"elevation":0,"gtopo30":27,"timezone":"Europe/London","moddate":"2018-07-03T00:00:00.000Z"},{"geonameid":2649174,"name":"Forton","asciiname":"Forton","alternatenames":"Forton","latitude":"51.1833300","longitude":"-1.4000000","fclass":"P","fcode":"PPL","country":"GB","cc2":"","admin1":"ENG","admin2":"F2","admin3":"24UN","admin4":"24UN007","population":0,"elevation":0,"gtopo30":50,"timezone":"Europe/London","moddate":"2018-07-03T00:00:00.000Z"},{"geonameid":2649132,"name":"Four Marks","asciiname":"Four Marks","alternatenames":"Four Marks","latitude":"51.1073500","longitude":"-1.0494500","fclass":"P","fcode":"PPL","country":"GB","cc2":"","admin1":"ENG","admin2":"F2","admin3":"24UC","admin4":"24UC013","population":5674,"elevation":0,"gtopo30":179,"timezone":"Europe/London","moddate":"2018-07-03T00:00:00.000Z"},{"geonameid":2649042,"name":"Fritham","asciiname":"Fritham","alternatenames":"Fritham","latitude":"50.9263300","longitude":"-1.6626100","fclass":"P","fcode":"PPL","country":"GB","cc2":"","admin1":"ENG","admin2":"F2","admin3":"24UJ","admin4":"24UJ004","population":0,"elevation":0,"gtopo30":115,"timezone":"Europe/London","moddate":"2018-07-03T00:00:00.000Z"},{"geonameid":2649014,"name":"Froxfield","asciiname":"Froxfield","alternatenames":"","latitude":"51.0166700","longitude":"-1.0000000","fclass":"P","fcode":"PPL","country":"GB","cc2":"","admin1":"ENG","admin2":"F2","admin3":"24UC","admin4":"24UC014","population":0,"elevation":0,"gtopo30":167,"timezone":"Europe/London","moddate":"2018-07-03T00:00:00.000Z"},{"geonameid":2649012,"name":"Froyle","asciiname":"Froyle","alternatenames":"Froyle","latitude":"51.1909100","longitude":"-0.9456800","fclass":"P","fcode":"PPL","country":"GB","cc2":"","admin1":"ENG","admin2":"F2","admin3":"24UC","admin4":"24UC015","population":0,"elevation":0,"gtopo30":193,"timezone":"Europe/London","moddate":"2018-07-03T00:00:00.000Z"},{"geonameid":2648995,"name":"Fullerton","asciiname":"Fullerton","alternatenames":"Fullerton,Fullerton Junction","latitude":"51.1524300","longitude":"-1.4617000","fclass":"P","fcode":"PPL","country":"GB","cc2":"GB","admin1":"ENG","admin2":"F2","admin3":"24UN","admin4":"24UN057","population":0,"elevation":0,"gtopo30":46,"timezone":"Europe/London","moddate":"2018-07-03T00:00:00.000Z"},{"geonameid":2648973,"name":"Fyfield","asciiname":"Fyfield","alternatenames":"Fyfield","latitude":"51.2166700","longitude":"-1.5833300","fclass":"P","fcode":"PPL","country":"GB","cc2":"","admin1":"ENG","admin2":"F2","admin3":"24UN","admin4":"24UN020","population":0,"elevation":0,"gtopo30":78,"timezone":"Europe/London","moddate":"2018-07-03T00:00:00.000Z"},{"geonameid":2648364,"name":"Godshill","asciiname":"Godshill","alternatenames":"Godshill","latitude":"50.9329100","longitude":"-1.7557100","fclass":"P","fcode":"PPL","country":"GB","cc2":"","admin1":"ENG","admin2":"F2","admin3":"24UJ","admin4":"24UJ037","population":436,"elevation":0,"gtopo30":76,"timezone":"Europe/London","moddate":"2018-07-03T00:00:00.000Z"},{"geonameid":2648320,"name":"Goodworth Clatford","asciiname":"Goodworth Clatford","alternatenames":"Clatford,Goodworth Clatford,Lower Clatford","latitude":"51.1784300","longitude":"-1.4835400","fclass":"P","fcode":"PPL","country":"GB","cc2":"GB","admin1":"ENG","admin2":"F2","admin3":"24UN","admin4":"24UN021","population":573,"elevation":0,"gtopo30":49,"timezone":"Europe/London","moddate":"2018-07-03T00:00:00.000Z"},{"geonameid":2648272,"name":"Gosport","asciiname":"Gosport","alternatenames":"Gosport,gaspwrt,ge si bo te,Госпорт,گاسپورت,戈斯波特","latitude":"50.7950900","longitude":"-1.1290200","fclass":"P","fcode":"PPL","country":"GB","cc2":"","admin1":"ENG","admin2":"F2","admin3":"24UF","admin4":"","population":70793,"elevation":0,"gtopo30":5,"timezone":"Europe/London","moddate":"2011-02-14T00:00:00.000Z"},{"geonameid":2648196,"name":"Grateley","asciiname":"Grateley","alternatenames":"Grateley","latitude":"51.1709800","longitude":"-1.6178900","fclass":"P","fcode":"PPL","country":"GB","cc2":"","admin1":"ENG","admin2":"F2","admin3":"24UN","admin4":"24UN022","population":0,"elevation":0,"gtopo30":106,"timezone":"Europe/London","moddate":"2018-07-03T00:00:00.000Z"},{"geonameid":11592722,"name":"Grayshott","asciiname":"Grayshott","alternatenames":"","latitude":"51.1113100","longitude":"-0.7511000","fclass":"P","fcode":"PPL","country":"GB","cc2":"","admin1":"ENG","admin2":"F2","admin3":"24UC","admin4":"24UC016","population":0,"elevation":0,"gtopo30":205,"timezone":"Europe/London","moddate":"2017-06-19T00:00:00.000Z"},{"geonameid":2648090,"name":"Greatham","asciiname":"Greatham","alternatenames":"","latitude":"51.0733300","longitude":"-0.8916500","fclass":"P","fcode":"PPL","country":"GB","cc2":"","admin1":"ENG","admin2":"F2","admin3":"24UC","admin4":"24UC017","population":0,"elevation":0,"gtopo30":76,"timezone":"Europe/London","moddate":"2018-07-03T00:00:00.000Z"},{"geonameid":2647899,"name":"Greywell","asciiname":"Greywell","alternatenames":"Greywell","latitude":"51.2576900","longitude":"-0.9736600","fclass":"P","fcode":"PPL","country":"GB","cc2":"","admin1":"ENG","admin2":"F2","admin3":"24UG","admin4":"24UG006","population":237,"elevation":0,"gtopo30":89,"timezone":"Europe/London","moddate":"2018-07-03T00:00:00.000Z"},{"geonameid":2647645,"name":"Hale","asciiname":"Hale","alternatenames":"Hale","latitude":"50.9500000","longitude":"-1.7333300","fclass":"P","fcode":"PPL","country":"GB","cc2":"","admin1":"ENG","admin2":"F2","admin3":"24UJ","admin4":"24UJ036","population":0,"elevation":0,"gtopo30":62,"timezone":"Europe/London","moddate":"2018-07-03T00:00:00.000Z"},{"geonameid":2647585,"name":"Hamble-le-Rice","asciiname":"Hamble-le-Rice","alternatenames":"Hamble,Hample","latitude":"50.8596600","longitude":"-1.3243200","fclass":"P","fcode":"PPL","country":"GB","cc2":"","admin1":"ENG","admin2":"F2","admin3":"24UD","admin4":"24UD004","population":3939,"elevation":0,"gtopo30":16,"timezone":"Europe/London","moddate":"2018-07-03T00:00:00.000Z"},{"geonameid":2647582,"name":"Hambledon","asciiname":"Hambledon","alternatenames":"","latitude":"50.9315500","longitude":"-1.0810400","fclass":"P","fcode":"PPL","country":"GB","cc2":"","admin1":"ENG","admin2":"F2","admin3":"24UP","admin4":"24UP019","population":702,"elevation":0,"gtopo30":59,"timezone":"Europe/London","moddate":"2018-07-03T00:00:00.000Z"},{"geonameid":2647520,"name":"Hannington","asciiname":"Hannington","alternatenames":"Hannington","latitude":"51.2960600","longitude":"-1.2278500","fclass":"P","fcode":"PPL","country":"GB","cc2":"","admin1":"ENG","admin2":"F2","admin3":"24UB","admin4":"24UB016","population":493,"elevation":0,"gtopo30":205,"timezone":"Europe/London","moddate":"2018-07-03T00:00:00.000Z"},{"geonameid":2647396,"name":"Hartley Row","asciiname":"Hartley Row","alternatenames":"","latitude":"51.3000000","longitude":"-0.8833300","fclass":"P","fcode":"PPL","country":"GB","cc2":"","admin1":"ENG","admin2":"F2","admin3":"24UG","admin4":"24UG007","population":0,"elevation":0,"gtopo30":65,"timezone":"Europe/London","moddate":"2018-07-03T00:00:00.000Z"},{"geonameid":2647395,"name":"Hartley Wintney","asciiname":"Hartley Wintney","alternatenames":"","latitude":"51.3037900","longitude":"-0.9001900","fclass":"P","fcode":"PPL","country":"GB","cc2":"","admin1":"ENG","admin2":"F2","admin3":"24UG","admin4":"24UG007","population":4488,"elevation":0,"gtopo30":70,"timezone":"Europe/London","moddate":"2018-07-03T00:00:00.000Z"},{"geonameid":2647317,"name":"Havant","asciiname":"Havant","alternatenames":"Havant,Khavant,ha wen te,hawant,Хавант,هاوانت,哈文特","latitude":"50.8567000","longitude":"-0.9855900","fclass":"P","fcode":"PPL","country":"GB","cc2":"","admin1":"ENG","admin2":"F2","admin3":"24UH","admin4":"","population":45574,"elevation":0,"gtopo30":12,"timezone":"Europe/London","moddate":"2010-08-03T00:00:00.000Z"},{"geonameid":2647287,"name":"Hawkley","asciiname":"Hawkley","alternatenames":"","latitude":"51.0570400","longitude":"-0.9376100","fclass":"P","fcode":"PPL","country":"GB","cc2":"","admin1":"ENG","admin2":"F2","admin3":"24UC","admin4":"24UC018","population":0,"elevation":0,"gtopo30":144,"timezone":"Europe/London","moddate":"2018-07-03T00:00:00.000Z"},{"geonameid":2647281,"name":"Hawley","asciiname":"Hawley","alternatenames":"Hawley","latitude":"51.3178500","longitude":"-0.7668100","fclass":"P","fcode":"PPL","country":"GB","cc2":"","admin1":"ENG","admin2":"F2","admin3":"24UL","admin4":"","population":0,"elevation":0,"gtopo30":62,"timezone":"Europe/London","moddate":"2010-08-03T00:00:00.000Z"},{"geonameid":8299619,"name":"Hayling Island","asciiname":"Hayling Island","alternatenames":"Hayling Island,Insula Hayling,Khejling,Хејлинг","latitude":"50.7838000","longitude":"-0.9686900","fclass":"P","fcode":"PPLL","country":"GB","cc2":"","admin1":"ENG","admin2":"F2","admin3":"24UH","admin4":"","population":16887,"elevation":0,"gtopo30":4,"timezone":"Europe/London","moddate":"2012-06-01T00:00:00.000Z"},{"geonameid":2647241,"name":"Headbourne Worthy","asciiname":"Headbourne Worthy","alternatenames":"","latitude":"51.0869700","longitude":"-1.3094300","fclass":"P","fcode":"PPL","country":"GB","cc2":"","admin1":"ENG","admin2":"F2","admin3":"24UP","admin4":"24UP020","population":0,"elevation":0,"gtopo30":49,"timezone":"Europe/London","moddate":"2018-07-03T00:00:00.000Z"},{"geonameid":11550605,"name":"Headley","asciiname":"Headley","alternatenames":"","latitude":"51.3581700","longitude":"-1.2567300","fclass":"P","fcode":"PPL","country":"GB","cc2":"","admin1":"ENG","admin2":"F2","admin3":"24UB","admin4":"24UB001","population":0,"elevation":0,"gtopo30":110,"timezone":"Europe/London","moddate":"2017-06-04T00:00:00.000Z"},{"geonameid":2647237,"name":"Headley","asciiname":"Headley","alternatenames":"","latitude":"51.1197400","longitude":"-0.8218300","fclass":"P","fcode":"PPL","country":"GB","cc2":"","admin1":"ENG","admin2":"F2","admin3":"24UC","admin4":"24UC019","population":0,"elevation":0,"gtopo30":97,"timezone":"Europe/London","moddate":"2018-07-03T00:00:00.000Z"},{"geonameid":2647201,"name":"Heckfield","asciiname":"Heckfield","alternatenames":"Heckfield","latitude":"51.3394100","longitude":"-0.9606200","fclass":"P","fcode":"PPL","country":"GB","cc2":"","admin1":"ENG","admin2":"F2","admin3":"24UG","admin4":"24UG009","population":0,"elevation":0,"gtopo30":76,"timezone":"Europe/London","moddate":"2018-07-03T00:00:00.000Z"},{"geonameid":6620360,"name":"Hedge End","asciiname":"Hedge End","alternatenames":"","latitude":"50.9123400","longitude":"-1.3007600","fclass":"P","fcode":"PPL","country":"GB","cc2":"","admin1":"ENG","admin2":"F2","admin3":"24UD","admin4":"24UD005","population":17978,"elevation":0,"gtopo30":28,"timezone":"Europe/London","moddate":"2018-07-03T00:00:00.000Z"},{"geonameid":10375985,"name":"Hensting","asciiname":"Hensting","alternatenames":"","latitude":"50.9963100","longitude":"-1.2983200","fclass":"P","fcode":"PPLX","country":"GB","cc2":"","admin1":"ENG","admin2":"F2","admin3":"24UP","admin4":"24UP010","population":0,"elevation":0,"gtopo30":44,"timezone":"Europe/London","moddate":"2015-07-11T00:00:00.000Z"},{"geonameid":2647053,"name":"Herriard","asciiname":"Herriard","alternatenames":"","latitude":"51.2032800","longitude":"-1.0437900","fclass":"P","fcode":"PPL","country":"GB","cc2":"","admin1":"ENG","admin2":"F2","admin3":"24UB","admin4":"24UB018","population":0,"elevation":0,"gtopo30":171,"timezone":"Europe/London","moddate":"2018-07-03T00:00:00.000Z"},{"geonameid":2646972,"name":"Highclere","asciiname":"Highclere","alternatenames":"Highclere","latitude":"51.3386000","longitude":"-1.3756900","fclass":"P","fcode":"PPL","country":"GB","cc2":"","admin1":"ENG","admin2":"F2","admin3":"24UB","admin4":"24UB019","population":2463,"elevation":0,"gtopo30":135,"timezone":"Europe/London","moddate":"2018-07-03T00:00:00.000Z"},{"geonameid":2646897,"name":"Hill Head","asciiname":"Hill Head","alternatenames":"Hill Head","latitude":"50.8166700","longitude":"-1.2333300","fclass":"P","fcode":"PPL","country":"GB","cc2":"","admin1":"ENG","admin2":"F2","admin3":"24UE","admin4":"","population":0,"elevation":0,"gtopo30":5,"timezone":"Europe/London","moddate":"2012-01-17T00:00:00.000Z"},{"geonameid":2646847,"name":"Hinton Ampner","asciiname":"Hinton Ampner","alternatenames":"Hinton Ampner","latitude":"51.0448500","longitude":"-1.1503900","fclass":"P","fcode":"PPL","country":"GB","cc2":"","admin1":"ENG","admin2":"F2","admin3":"24UP","admin4":"24UP007","population":0,"elevation":0,"gtopo30":107,"timezone":"Europe/London","moddate":"2018-07-03T00:00:00.000Z"},{"geonameid":10100209,"name":"Hollywater","asciiname":"Hollywater","alternatenames":"","latitude":"51.1022300","longitude":"-0.8524300","fclass":"P","fcode":"PPL","country":"GB","cc2":"","admin1":"ENG","admin2":"F2","admin3":"24UC","admin4":"24UC035","population":0,"elevation":0,"gtopo30":77,"timezone":"Europe/London","moddate":"2015-02-14T00:00:00.000Z"},{"geonameid":2646687,"name":"Holybourne","asciiname":"Holybourne","alternatenames":"Holybourne","latitude":"51.1629300","longitude":"-0.9496300","fclass":"P","fcode":"PPL","country":"GB","cc2":"","admin1":"ENG","admin2":"F2","admin3":"24UC","admin4":"24UC001","population":0,"elevation":0,"gtopo30":105,"timezone":"Europe/London","moddate":"2018-07-03T00:00:00.000Z"},{"geonameid":2646654,"name":"Hook","asciiname":"Hook","alternatenames":"","latitude":"51.2842500","longitude":"-0.9596700","fclass":"P","fcode":"PPL","country":"GB","cc2":"","admin1":"ENG","admin2":"F2","admin3":"24UG","admin4":"24UG010","population":7321,"elevation":0,"gtopo30":82,"timezone":"Europe/London","moddate":"2018-07-03T00:00:00.000Z"},{"geonameid":2646610,"name":"Hordle","asciiname":"Hordle","alternatenames":"","latitude":"50.7601300","longitude":"-1.6218600","fclass":"P","fcode":"PPL","country":"GB","cc2":"","admin1":"ENG","admin2":"F2","admin3":"24UJ","admin4":"24UJ018","population":0,"elevation":0,"gtopo30":34,"timezone":"Europe/London","moddate":"2018-07-03T00:00:00.000Z"},{"geonameid":2646592,"name":"Horndean","asciiname":"Horndean","alternatenames":"","latitude":"50.9107700","longitude":"-1.0037000","fclass":"P","fcode":"PPL","country":"GB","cc2":"","admin1":"ENG","admin2":"F2","admin3":"24UC","admin4":"24UC020","population":0,"elevation":0,"gtopo30":80,"timezone":"Europe/London","moddate":"2018-07-03T00:00:00.000Z"},{"geonameid":2646573,"name":"Horsebridge","asciiname":"Horsebridge","alternatenames":"","latitude":"51.0716900","longitude":"-1.5080900","fclass":"P","fcode":"PPL","country":"GB","cc2":"","admin1":"ENG","admin2":"F2","admin3":"24UN","admin4":"24UN026","population":0,"elevation":0,"gtopo30":30,"timezone":"Europe/London","moddate":"2018-07-03T00:00:00.000Z"},{"geonameid":11592607,"name":"Houghton","asciiname":"Houghton","alternatenames":"","latitude":"51.0881900","longitude":"-1.5104900","fclass":"P","fcode":"PPL","country":"GB","cc2":"","admin1":"ENG","admin2":"F2","admin3":"24UN","admin4":"24UN023","population":0,"elevation":0,"gtopo30":30,"timezone":"Europe/London","moddate":"2017-06-18T00:00:00.000Z"},{"geonameid":2646363,"name":"Hursley","asciiname":"Hursley","alternatenames":"Hursley","latitude":"51.0253600","longitude":"-1.3906700","fclass":"P","fcode":"PPL","country":"GB","cc2":"","admin1":"ENG","admin2":"F2","admin3":"24UP","admin4":"24UP021","population":443,"elevation":0,"gtopo30":50,"timezone":"Europe/London","moddate":"2018-07-03T00:00:00.000Z"},{"geonameid":2646359,"name":"Hurstbourne Priors","asciiname":"Hurstbourne Priors","alternatenames":"","latitude":"51.2155400","longitude":"-1.3746600","fclass":"P","fcode":"PPL","country":"GB","cc2":"","admin1":"ENG","admin2":"F2","admin3":"24UB","admin4":"24UB020","population":0,"elevation":0,"gtopo30":69,"timezone":"Europe/London","moddate":"2018-07-03T00:00:00.000Z"},{"geonameid":2646358,"name":"Hurstbourne Tarrant","asciiname":"Hurstbourne Tarrant","alternatenames":"Hurstbourne Tarrant","latitude":"51.2762700","longitude":"-1.4529800","fclass":"P","fcode":"PPL","country":"GB","cc2":"","admin1":"ENG","admin2":"F2","admin3":"24UN","admin4":"24UN024","population":676,"elevation":0,"gtopo30":100,"timezone":"Europe/London","moddate":"2018-07-03T00:00:00.000Z"},{"geonameid":2646317,"name":"Hythe","asciiname":"Hythe","alternatenames":"","latitude":"50.8600400","longitude":"-1.4016200","fclass":"P","fcode":"PPL","country":"GB","cc2":"","admin1":"ENG","admin2":"F2","admin3":"24UJ","admin4":"24UJ020","population":20201,"elevation":0,"gtopo30":29,"timezone":"Europe/London","moddate":"2018-07-03T00:00:00.000Z"},{"geonameid":2646312,"name":"Ibsley","asciiname":"Ibsley","alternatenames":"","latitude":"50.8859400","longitude":"-1.7884300","fclass":"P","fcode":"PPL","country":"GB","cc2":"","admin1":"ENG","admin2":"F2","admin3":"24UJ","admin4":"24UJ013","population":0,"elevation":0,"gtopo30":22,"timezone":"Europe/London","moddate":"2018-07-03T00:00:00.000Z"},{"geonameid":2646309,"name":"Ibthorpe","asciiname":"Ibthorpe","alternatenames":"","latitude":"51.2815700","longitude":"-1.4599400","fclass":"P","fcode":"PPL","country":"GB","cc2":"","admin1":"ENG","admin2":"F2","admin3":"24UN","admin4":"24UN024","population":0,"elevation":0,"gtopo30":105,"timezone":"Europe/London","moddate":"2018-07-03T00:00:00.000Z"},{"geonameid":2646308,"name":"Ibworth","asciiname":"Ibworth","alternatenames":"","latitude":"51.2878200","longitude":"-1.1891800","fclass":"P","fcode":"PPL","country":"GB","cc2":"","admin1":"ENG","admin2":"F2","admin3":"24UB","admin4":"24UB016","population":0,"elevation":0,"gtopo30":175,"timezone":"Europe/London","moddate":"2018-07-03T00:00:00.000Z"},{"geonameid":2645998,"name":"Itchen Abbas","asciiname":"Itchen Abbas","alternatenames":"Itchen Abbas","latitude":"51.0933600","longitude":"-1.2382800","fclass":"P","fcode":"PPL","country":"GB","cc2":"","admin1":"ENG","admin2":"F2","admin3":"24UP","admin4":"24UP023","population":0,"elevation":0,"gtopo30":53,"timezone":"Europe/London","moddate":"2018-07-03T00:00:00.000Z"},{"geonameid":11550604,"name":"Kempshott","asciiname":"Kempshott","alternatenames":"","latitude":"51.2427400","longitude":"-1.1420600","fclass":"P","fcode":"PPL","country":"GB","cc2":"","admin1":"ENG","admin2":"F2","admin3":"24UB","admin4":"","population":0,"elevation":0,"gtopo30":117,"timezone":"Europe/London","moddate":"2017-06-04T00:00:00.000Z"},{"geonameid":2645596,"name":"Kilmeston","asciiname":"Kilmeston","alternatenames":"","latitude":"51.0332400","longitude":"-1.1597400","fclass":"P","fcode":"PPL","country":"GB","cc2":"","admin1":"ENG","admin2":"F2","admin3":"24UP","admin4":"24UP024","population":276,"elevation":0,"gtopo30":101,"timezone":"Europe/London","moddate":"2018-07-03T00:00:00.000Z"},{"geonameid":2645445,"name":"Kings Somborne","asciiname":"Kings Somborne","alternatenames":"","latitude":"51.0777000","longitude":"-1.4866700","fclass":"P","fcode":"PPL","country":"GB","cc2":"","admin1":"ENG","admin2":"F2","admin3":"24UN","admin4":"24UN026","population":0,"elevation":0,"gtopo30":34,"timezone":"Europe/London","moddate":"2018-07-03T00:00:00.000Z"},{"geonameid":2645413,"name":"Kings Worthy","asciiname":"Kings Worthy","alternatenames":"Kings Worthy","latitude":"51.0886200","longitude":"-1.2978000","fclass":"P","fcode":"PPL","country":"GB","cc2":"","admin1":"ENG","admin2":"F2","admin3":"24UP","admin4":"24UP025","population":4388,"elevation":0,"gtopo30":47,"timezone":"Europe/London","moddate":"2018-07-03T00:00:00.000Z"},{"geonameid":2645479,"name":"Kingsclere","asciiname":"Kingsclere","alternatenames":"","latitude":"51.3248700","longitude":"-1.2433900","fclass":"P","fcode":"PPL","country":"GB","cc2":"","admin1":"ENG","admin2":"F2","admin3":"24UB","admin4":"24UB021","population":3164,"elevation":0,"gtopo30":109,"timezone":"Europe/London","moddate":"2018-07-03T00:00:00.000Z"},{"geonameid":2645459,"name":"Kingsley","asciiname":"Kingsley","alternatenames":"","latitude":"51.1375200","longitude":"-0.8782200","fclass":"P","fcode":"PPLA4","country":"GB","cc2":"","admin1":"ENG","admin2":"F2","admin3":"24UC","admin4":"24UC021","population":0,"elevation":0,"gtopo30":72,"timezone":"Europe/London","moddate":"2018-07-03T00:00:00.000Z"},{"geonameid":2644925,"name":"Langley","asciiname":"Langley","alternatenames":"","latitude":"50.8094100","longitude":"-1.3691700","fclass":"P","fcode":"PPL","country":"GB","cc2":"","admin1":"ENG","admin2":"F2","admin3":"24UJ","admin4":"24UJ015","population":0,"elevation":0,"gtopo30":21,"timezone":"Europe/London","moddate":"2018-07-03T00:00:00.000Z"},{"geonameid":2644910,"name":"Langstone","asciiname":"Langstone","alternatenames":"Langstone","latitude":"50.8396600","longitude":"-0.9827600","fclass":"P","fcode":"PPL","country":"GB","cc2":"","admin1":"ENG","admin2":"F2","admin3":"24UH","admin4":"","population":0,"elevation":0,"gtopo30":5,"timezone":"Europe/London","moddate":"2010-08-03T00:00:00.000Z"},{"geonameid":2644838,"name":"Lasham","asciiname":"Lasham","alternatenames":"QLA","latitude":"51.1776700","longitude":"-1.0349500","fclass":"P","fcode":"PPL","country":"GB","cc2":"","admin1":"ENG","admin2":"F2","admin3":"24UC","admin4":"24UC023","population":0,"elevation":0,"gtopo30":175,"timezone":"Europe/London","moddate":"2018-07-03T00:00:00.000Z"},{"geonameid":2644799,"name":"Laverstoke","asciiname":"Laverstoke","alternatenames":"Laverstoke","latitude":"51.2346200","longitude":"-1.2965600","fclass":"P","fcode":"PPL","country":"GB","cc2":"","admin1":"ENG","admin2":"F2","admin3":"24UB","admin4":"24UB022","population":0,"elevation":0,"gtopo30":77,"timezone":"Europe/London","moddate":"2018-07-03T00:00:00.000Z"},{"geonameid":2644716,"name":"Leckford","asciiname":"Leckford","alternatenames":"","latitude":"51.1373600","longitude":"-1.4657100","fclass":"P","fcode":"PPL","country":"GB","cc2":"","admin1":"ENG","admin2":"F2","admin3":"24UN","admin4":"24UN027","population":0,"elevation":0,"gtopo30":43,"timezone":"Europe/London","moddate":"2018-07-03T00:00:00.000Z"},{"geonameid":2644680,"name":"Lee-on-the-Solent","asciiname":"Lee-on-the-Solent","alternatenames":"Lee on Solent,Lee-on-the-Solent","latitude":"50.8016900","longitude":"-1.2017400","fclass":"P","fcode":"PPL","country":"GB","cc2":"","admin1":"ENG","admin2":"F2","admin3":"24UF","admin4":"","population":7224,"elevation":0,"gtopo30":8,"timezone":"Europe/London","moddate":"2011-03-03T00:00:00.000Z"},{"geonameid":2644610,"name":"Lepe","asciiname":"Lepe","alternatenames":"","latitude":"50.7855400","longitude":"-1.3639400","fclass":"P","fcode":"PPL","country":"GB","cc2":"","admin1":"ENG","admin2":"F2","admin3":"24UJ","admin4":"24UJ014","population":0,"elevation":0,"gtopo30":6,"timezone":"Europe/London","moddate":"2018-07-03T00:00:00.000Z"},{"geonameid":10100226,"name":"Lindford","asciiname":"Lindford","alternatenames":"","latitude":"51.1189100","longitude":"-0.8465500","fclass":"P","fcode":"PPLA4","country":"GB","cc2":"","admin1":"ENG","admin2":"F2","admin3":"24UC","admin4":"24UC024","population":0,"elevation":0,"gtopo30":78,"timezone":"Europe/London","moddate":"2015-02-14T00:00:00.000Z"},{"geonameid":2644449,"name":"Linkenholt","asciiname":"Linkenholt","alternatenames":"","latitude":"51.3206100","longitude":"-1.4810500","fclass":"P","fcode":"PPL","country":"GB","cc2":"","admin1":"ENG","admin2":"F2","admin3":"24UN","admin4":"24UN028","population":0,"elevation":0,"gtopo30":207,"timezone":"Europe/London","moddate":"2018-07-03T00:00:00.000Z"},{"geonameid":2644419,"name":"Liphook","asciiname":"Liphook","alternatenames":"Liphook","latitude":"51.0767300","longitude":"-0.8032000","fclass":"P","fcode":"PPL","country":"GB","cc2":"","admin1":"ENG","admin2":"F2","admin3":"24UC","admin4":"24UC005","population":6480,"elevation":0,"gtopo30":110,"timezone":"Europe/London","moddate":"2018-07-03T00:00:00.000Z"},{"geonameid":2644398,"name":"Liss","asciiname":"Liss","alternatenames":"Liss,Лисс","latitude":"51.0427700","longitude":"-0.8923800","fclass":"P","fcode":"PPL","country":"GB","cc2":"","admin1":"ENG","admin2":"F2","admin3":"24UC","admin4":"24UC025","population":6248,"elevation":0,"gtopo30":63,"timezone":"Europe/London","moddate":"2018-07-03T00:00:00.000Z"},{"geonameid":2644387,"name":"Litchfield","asciiname":"Litchfield","alternatenames":"Litchfield","latitude":"51.2821600","longitude":"-1.3394300","fclass":"P","fcode":"PPL","country":"GB","cc2":"","admin1":"ENG","admin2":"F2","admin3":"24UB","admin4":"24UB023","population":0,"elevation":0,"gtopo30":123,"timezone":"Europe/London","moddate":"2018-07-03T00:00:00.000Z"},{"geonameid":9538948,"name":"Little Ann","asciiname":"Little Ann","alternatenames":"","latitude":"51.1911000","longitude":"-1.5223400","fclass":"P","fcode":"PPL","country":"GB","cc2":"","admin1":"ENG","admin2":"F2","admin3":"24UN","admin4":"24UN001","population":0,"elevation":0,"gtopo30":64,"timezone":"Europe/London","moddate":"2014-09-14T00:00:00.000Z"},{"geonameid":2644248,"name":"Little Somborne","asciiname":"Little Somborne","alternatenames":"","latitude":"51.0944900","longitude":"-1.4517000","fclass":"P","fcode":"PPL","country":"GB","cc2":"","admin1":"ENG","admin2":"F2","admin3":"24UN","admin4":"24UN029","population":0,"elevation":0,"gtopo30":54,"timezone":"Europe/London","moddate":"2018-07-03T00:00:00.000Z"},{"geonameid":2644235,"name":"Littleton","asciiname":"Littleton","alternatenames":"Littleton","latitude":"51.0833300","longitude":"-1.3500000","fclass":"P","fcode":"PPL","country":"GB","cc2":"","admin1":"ENG","admin2":"F2","admin3":"24UP","admin4":"24UP026","population":0,"elevation":0,"gtopo30":83,"timezone":"Europe/London","moddate":"2018-07-04T00:00:00.000Z"},{"geonameid":11593331,"name":"Lockerley","asciiname":"Lockerley","alternatenames":"","latitude":"51.0379700","longitude":"-1.5864500","fclass":"P","fcode":"PPL","country":"GB","cc2":"","admin1":"ENG","admin2":"F2","admin3":"24UN","admin4":"24UN030","population":0,"elevation":0,"gtopo30":36,"timezone":"Europe/London","moddate":"2017-06-22T00:00:00.000Z"},{"geonameid":7287932,"name":"Locks Heath","asciiname":"Locks Heath","alternatenames":"","latitude":"50.8631300","longitude":"-1.2733000","fclass":"P","fcode":"PPL","country":"GB","cc2":"","admin1":"ENG","admin2":"F2","admin3":"24UE","admin4":"","population":0,"elevation":0,"gtopo30":40,"timezone":"Europe/London","moddate":"2011-03-03T00:00:00.000Z"},{"geonameid":2643625,"name":"Long Sutton","asciiname":"Long Sutton","alternatenames":"Long Sutton","latitude":"51.2197800","longitude":"-0.9429300","fclass":"P","fcode":"PPL","country":"GB","cc2":"","admin1":"ENG","admin2":"F2","admin3":"24UG","admin4":"24UG011","population":4633,"elevation":0,"gtopo30":125,"timezone":"Europe/London","moddate":"2018-07-03T00:00:00.000Z"},{"geonameid":10102214,"name":"Longmoor","asciiname":"Longmoor","alternatenames":"","latitude":"51.0719300","longitude":"-0.8736300","fclass":"P","fcode":"PPL","country":"GB","cc2":"","admin1":"ENG","admin2":"F2","admin3":"24UC","admin4":"24UC035","population":0,"elevation":0,"gtopo30":103,"timezone":"Europe/London","moddate":"2015-02-14T00:00:00.000Z"},{"geonameid":2643649,"name":"Longparish","asciiname":"Longparish","alternatenames":"","latitude":"51.1972800","longitude":"-1.3835000","fclass":"P","fcode":"PPL","country":"GB","cc2":"","admin1":"ENG","admin2":"F2","admin3":"24UN","admin4":"24UN031","population":0,"elevation":0,"gtopo30":56,"timezone":"Europe/London","moddate":"2018-07-03T00:00:00.000Z"},{"geonameid":2643633,"name":"Longstock","asciiname":"Longstock","alternatenames":"Longstock","latitude":"51.1319400","longitude":"-1.4879600","fclass":"P","fcode":"PPL","country":"GB","cc2":"","admin1":"ENG","admin2":"F2","admin3":"24UN","admin4":"24UN032","population":292,"elevation":0,"gtopo30":44,"timezone":"Europe/London","moddate":"2018-07-03T00:00:00.000Z"},{"geonameid":2643524,"name":"Lower Farringdon","asciiname":"Lower Farringdon","alternatenames":"","latitude":"51.1102600","longitude":"-0.9940100","fclass":"P","fcode":"PPL","country":"GB","cc2":"","admin1":"ENG","admin2":"F2","admin3":"24UC","admin4":"24UC012","population":0,"elevation":0,"gtopo30":119,"timezone":"Europe/London","moddate":"2018-07-03T00:00:00.000Z"},{"geonameid":2643523,"name":"Lower Froyle","asciiname":"Lower Froyle","alternatenames":"","latitude":"51.1892300","longitude":"-0.9130000","fclass":"P","fcode":"PPL","country":"GB","cc2":"","admin1":"ENG","admin2":"F2","admin3":"24UC","admin4":"24UC015","population":0,"elevation":0,"gtopo30":124,"timezone":"Europe/London","moddate":"2018-07-03T00:00:00.000Z"},{"geonameid":9430896,"name":"Lower Swanwick","asciiname":"Lower Swanwick","alternatenames":"","latitude":"50.8853000","longitude":"-1.2962600","fclass":"P","fcode":"PPL","country":"GB","cc2":"","admin1":"ENG","admin2":"F2","admin3":"24UE","admin4":"","population":0,"elevation":0,"gtopo30":14,"timezone":"Europe/London","moddate":"2014-09-04T00:00:00.000Z"},{"geonameid":2643312,"name":"Lymington","asciiname":"Lymington","alternatenames":"Limington,Lymington,limingteon,lymyngtwn,Лимингтон,لیمینگتون,리밍턴","latitude":"50.7576700","longitude":"-1.5443000","fclass":"P","fcode":"PPL","country":"GB","cc2":"","admin1":"ENG","admin2":"F2","admin3":"24UJ","admin4":"24UJ021","population":16446,"elevation":0,"gtopo30":22,"timezone":"Europe/London","moddate":"2018-07-03T00:00:00.000Z"},{"geonameid":2643304,"name":"Lyndhurst","asciiname":"Lyndhurst","alternatenames":"","latitude":"50.8725900","longitude":"-1.5766200","fclass":"P","fcode":"PPL","country":"GB","cc2":"","admin1":"ENG","admin2":"F2","admin3":"24UJ","admin4":"24UJ022","population":2347,"elevation":0,"gtopo30":47,"timezone":"Europe/London","moddate":"2018-07-03T00:00:00.000Z"},{"geonameid":2643064,"name":"Marchwood","asciiname":"Marchwood","alternatenames":"Marchwood","latitude":"50.8896600","longitude":"-1.4544000","fclass":"P","fcode":"PPL","country":"GB","cc2":"","admin1":"ENG","admin2":"F2","admin3":"24UJ","admin4":"24UJ023","population":6141,"elevation":0,"gtopo30":10,"timezone":"Europe/London","moddate":"2018-07-03T00:00:00.000Z"},{"geonameid":2642958,"name":"Martin","asciiname":"Martin","alternatenames":"Martin","latitude":"50.9743700","longitude":"-1.9033800","fclass":"P","fcode":"PPL","country":"GB","cc2":"","admin1":"ENG","admin2":"F2","admin3":"24UJ","admin4":"24UJ024","population":413,"elevation":0,"gtopo30":64,"timezone":"Europe/London","moddate":"2018-07-03T00:00:00.000Z"},{"geonameid":2642937,"name":"Martyr Worthy","asciiname":"Martyr Worthy","alternatenames":"Martyr Worthy","latitude":"51.0932800","longitude":"-1.2645600","fclass":"P","fcode":"PPL","country":"GB","cc2":"","admin1":"ENG","admin2":"F2","admin3":"24UP","admin4":"24UP023","population":0,"elevation":0,"gtopo30":66,"timezone":"Europe/London","moddate":"2018-07-03T00:00:00.000Z"},{"geonameid":11593336,"name":"Mattingley","asciiname":"Mattingley","alternatenames":"","latitude":"51.3175500","longitude":"-0.9480900","fclass":"P","fcode":"PPL","country":"GB","cc2":"","admin1":"ENG","admin2":"F2","admin3":"24UG","admin4":"24UG012","population":0,"elevation":0,"gtopo30":67,"timezone":"Europe/London","moddate":"2017-06-22T00:00:00.000Z"},{"geonameid":2642833,"name":"Medstead","asciiname":"Medstead","alternatenames":"Medstead","latitude":"51.1296500","longitude":"-1.0652400","fclass":"P","fcode":"PPL","country":"GB","cc2":"","admin1":"ENG","admin2":"F2","admin3":"24UC","admin4":"24UC026","population":0,"elevation":0,"gtopo30":211,"timezone":"Europe/London","moddate":"2018-07-03T00:00:00.000Z"},{"geonameid":2642734,"name":"Meonstoke","asciiname":"Meonstoke","alternatenames":"Meonstoke","latitude":"50.9775100","longitude":"-1.1276000","fclass":"P","fcode":"PPL","country":"GB","cc2":"","admin1":"ENG","admin2":"F2","admin3":"24UP","admin4":"24UP012","population":833,"elevation":0,"gtopo30":67,"timezone":"Europe/London","moddate":"2018-07-03T00:00:00.000Z"},{"geonameid":2642650,"name":"Micheldever","asciiname":"Micheldever","alternatenames":"Micheldever","latitude":"51.1485300","longitude":"-1.2669000","fclass":"P","fcode":"PPL","country":"GB","cc2":"","admin1":"ENG","admin2":"F2","admin3":"24UP","admin4":"24UP027","population":471,"elevation":0,"gtopo30":80,"timezone":"Europe/London","moddate":"2018-07-03T00:00:00.000Z"},{"geonameid":2642648,"name":"Michelmersh","asciiname":"Michelmersh","alternatenames":"Michelmersh,Michlemersh","latitude":"51.0322700","longitude":"-1.5049600","fclass":"P","fcode":"PPL","country":"GB","cc2":"GB","admin1":"ENG","admin2":"F2","admin3":"24UN","admin4":"24UN034","population":881,"elevation":0,"gtopo30":56,"timezone":"Europe/London","moddate":"2018-07-03T00:00:00.000Z"},{"geonameid":2642574,"name":"Middle Wallop","asciiname":"Middle Wallop","alternatenames":"","latitude":"51.1403500","longitude":"-1.5842800","fclass":"P","fcode":"PPL","country":"GB","cc2":"","admin1":"ENG","admin2":"F2","admin3":"24UN","admin4":"24UN037","population":0,"elevation":0,"gtopo30":64,"timezone":"Europe/London","moddate":"2018-07-03T00:00:00.000Z"},{"geonameid":2642533,"name":"Milford on Sea","asciiname":"Milford on Sea","alternatenames":"Milford,Milford on Sea","latitude":"50.7256100","longitude":"-1.5900400","fclass":"P","fcode":"PPL","country":"GB","cc2":"","admin1":"ENG","admin2":"F2","admin3":"24UJ","admin4":"24UJ025","population":4348,"elevation":0,"gtopo30":7,"timezone":"Europe/London","moddate":"2018-07-03T00:00:00.000Z"},{"geonameid":2642479,"name":"Milton","asciiname":"Milton","alternatenames":"","latitude":"50.7333300","longitude":"-1.6500000","fclass":"P","fcode":"PPL","country":"GB","cc2":"","admin1":"ENG","admin2":"F2","admin3":"24UJ","admin4":"24UJ028","population":0,"elevation":0,"gtopo30":5,"timezone":"Europe/London","moddate":"2018-07-03T00:00:00.000Z"},{"geonameid":2642436,"name":"Minstead","asciiname":"Minstead","alternatenames":"Minstead","latitude":"50.9041400","longitude":"-1.6056600","fclass":"P","fcode":"PPL","country":"GB","cc2":"","admin1":"ENG","admin2":"F2","admin3":"24UJ","admin4":"24UJ026","population":326,"elevation":0,"gtopo30":79,"timezone":"Europe/London","moddate":"2018-07-03T00:00:00.000Z"},{"geonameid":2642328,"name":"Monk Sherborne","asciiname":"Monk Sherborne","alternatenames":"","latitude":"51.3005200","longitude":"-1.1276400","fclass":"P","fcode":"PPL","country":"GB","cc2":"","admin1":"ENG","admin2":"F2","admin3":"24UB","admin4":"24UB025","population":266,"elevation":0,"gtopo30":91,"timezone":"Europe/London","moddate":"2018-07-03T00:00:00.000Z"},{"geonameid":2642299,"name":"Monxton","asciiname":"Monxton","alternatenames":"","latitude":"51.1978700","longitude":"-1.5527100","fclass":"P","fcode":"PPL","country":"GB","cc2":"","admin1":"ENG","admin2":"F2","admin3":"24UN","admin4":"24UN035","population":530,"elevation":0,"gtopo30":68,"timezone":"Europe/London","moddate":"2018-07-03T00:00:00.000Z"},{"geonameid":2642207,"name":"Morestead","asciiname":"Morestead","alternatenames":"","latitude":"51.0257100","longitude":"-1.2741800","fclass":"P","fcode":"PPL","country":"GB","cc2":"","admin1":"ENG","admin2":"F2","admin3":"24UP","admin4":"24UP033","population":0,"elevation":0,"gtopo30":67,"timezone":"Europe/London","moddate":"2018-07-03T00:00:00.000Z"},{"geonameid":2642172,"name":"Mortimer Common","asciiname":"Mortimer Common","alternatenames":"","latitude":"51.3769200","longitude":"-1.0629700","fclass":"P","fcode":"PPL","country":"GB","cc2":"","admin1":"ENG","admin2":"F2","admin3":"24UB","admin4":"","population":0,"elevation":0,"gtopo30":96,"timezone":"Europe/London","moddate":"2011-02-18T00:00:00.000Z"},{"geonameid":2642169,"name":"Mortimer West End","asciiname":"Mortimer West End","alternatenames":"","latitude":"51.3698500","longitude":"-1.0914200","fclass":"P","fcode":"PPL","country":"GB","cc2":"","admin1":"ENG","admin2":"F2","admin3":"24UB","admin4":"24UB026","population":0,"elevation":0,"gtopo30":99,"timezone":"Europe/London","moddate":"2018-07-03T00:00:00.000Z"},{"geonameid":2642133,"name":"Mottisfont","asciiname":"Mottisfont","alternatenames":"","latitude":"51.0410000","longitude":"-1.5349900","fclass":"P","fcode":"PPL","country":"GB","cc2":"","admin1":"ENG","admin2":"F2","admin3":"24UN","admin4":"24UN036","population":0,"elevation":0,"gtopo30":29,"timezone":"Europe/London","moddate":"2018-07-03T00:00:00.000Z"},{"geonameid":6691762,"name":"Nately Scures","asciiname":"Nately Scures","alternatenames":"","latitude":"51.2733300","longitude":"-0.9907400","fclass":"P","fcode":"PPL","country":"GB","cc2":"","admin1":"ENG","admin2":"F2","admin3":"24UB","admin4":"24UB027","population":0,"elevation":0,"gtopo30":96,"timezone":"Europe/London","moddate":"2018-07-03T00:00:00.000Z"},{"geonameid":2641771,"name":"Nether Wallop","asciiname":"Nether Wallop","alternatenames":"","latitude":"51.1258900","longitude":"-1.5645500","fclass":"P","fcode":"PPL","country":"GB","cc2":"","admin1":"ENG","admin2":"F2","admin3":"24UN","admin4":"24UN037","population":294,"elevation":0,"gtopo30":56,"timezone":"Europe/London","moddate":"2018-07-03T00:00:00.000Z"},{"geonameid":2641765,"name":"Netley","asciiname":"Netley","alternatenames":"Abbaye de Netley,Netley,Netley Abbey,Netley Marsh","latitude":"50.8763400","longitude":"-1.3539800","fclass":"P","fcode":"PPL","country":"GB","cc2":"","admin1":"ENG","admin2":"F2","admin3":"24UD","admin4":"24UD006","population":6338,"elevation":0,"gtopo30":16,"timezone":"Europe/London","moddate":"2018-07-03T00:00:00.000Z"},{"geonameid":2641736,"name":"New Alresford","asciiname":"New Alresford","alternatenames":"Novum Forum,nyw awlrsfwrd,نیو اولرسفورد","latitude":"51.0862400","longitude":"-1.1701100","fclass":"P","fcode":"PPL","country":"GB","cc2":"","admin1":"ENG","admin2":"F2","admin3":"24UP","admin4":"24UP028","population":5431,"elevation":0,"gtopo30":85,"timezone":"Europe/London","moddate":"2018-07-03T00:00:00.000Z"},{"geonameid":2641609,"name":"New Milton","asciiname":"New Milton","alternatenames":"nyw myltn,نیو میلتن","latitude":"50.7560100","longitude":"-1.6658000","fclass":"P","fcode":"PPL","country":"GB","cc2":"","admin1":"ENG","admin2":"F2","admin3":"24UJ","admin4":"24UJ028","population":23753,"elevation":0,"gtopo30":40,"timezone":"Europe/London","moddate":"2018-07-03T00:00:00.000Z"},{"geonameid":2641524,"name":"Newtown","asciiname":"Newtown","alternatenames":"","latitude":"51.3705500","longitude":"-1.3180600","fclass":"P","fcode":"PPL","country":"GB","cc2":"","admin1":"ENG","admin2":"F2","admin3":"24UB","admin4":"24UB028","population":0,"elevation":0,"gtopo30":92,"timezone":"Europe/London","moddate":"2018-07-03T00:00:00.000Z"},{"geonameid":2641452,"name":"Norleywood","asciiname":"Norleywood","alternatenames":"","latitude":"50.7776900","longitude":"-1.4966300","fclass":"P","fcode":"PPL","country":"GB","cc2":"","admin1":"ENG","admin2":"F2","admin3":"24UJ","admin4":"24UJ003","population":342,"elevation":0,"gtopo30":22,"timezone":"Europe/London","moddate":"2018-07-03T00:00:00.000Z"},{"geonameid":8131591,"name":"North Baddesley","asciiname":"North Baddesley","alternatenames":"","latitude":"50.9774500","longitude":"-1.4454700","fclass":"P","fcode":"PPL","country":"GB","cc2":"","admin1":"ENG","admin2":"F2","admin3":"24UN","admin4":"24UN038","population":6823,"elevation":0,"gtopo30":43,"timezone":"Europe/London","moddate":"2017-06-12T00:00:00.000Z"},{"geonameid":11593350,"name":"North Boarhunt","asciiname":"North Boarhunt","alternatenames":"","latitude":"50.8892300","longitude":"-1.1469600","fclass":"P","fcode":"PPL","country":"GB","cc2":"","admin1":"ENG","admin2":"F2","admin3":"24UP","admin4":"24UP006","population":0,"elevation":0,"gtopo30":30,"timezone":"Europe/London","moddate":"2017-06-22T00:00:00.000Z"},{"geonameid":7116408,"name":"North Camp","asciiname":"North Camp","alternatenames":"","latitude":"51.2744500","longitude":"-0.7512300","fclass":"P","fcode":"PPLX","country":"GB","cc2":"","admin1":"ENG","admin2":"F2","admin3":"24UL","admin4":"","population":0,"elevation":0,"gtopo30":83,"timezone":"Europe/London","moddate":"2015-02-21T00:00:00.000Z"},{"geonameid":2641343,"name":"North Hayling","asciiname":"North Hayling","alternatenames":"Hayling Bridge,North Hayling","latitude":"50.8240500","longitude":"-0.9636200","fclass":"P","fcode":"PPL","country":"GB","cc2":"","admin1":"ENG","admin2":"F2","admin3":"24UH","admin4":"","population":439,"elevation":0,"gtopo30":5,"timezone":"Europe/London","moddate":"2017-06-12T00:00:00.000Z"},{"geonameid":2641254,"name":"North Stoneham","asciiname":"North Stoneham","alternatenames":"","latitude":"50.9532100","longitude":"-1.3704400","fclass":"P","fcode":"PPL","country":"GB","cc2":"","admin1":"ENG","admin2":"F2","admin3":"24UD","admin4":"","population":0,"elevation":0,"gtopo30":11,"timezone":"Europe/London","moddate":"2011-03-03T00:00:00.000Z"},{"geonameid":2641232,"name":"North Waltham","asciiname":"North Waltham","alternatenames":"","latitude":"51.2124800","longitude":"-1.1960500","fclass":"P","fcode":"PPL","country":"GB","cc2":"","admin1":"ENG","admin2":"F2","admin3":"24UB","admin4":"24UB029","population":870,"elevation":0,"gtopo30":119,"timezone":"Europe/London","moddate":"2018-07-03T00:00:00.000Z"},{"geonameid":9538954,"name":"North Warnborough","asciiname":"North Warnborough","alternatenames":"","latitude":"51.2607600","longitude":"-0.9537100","fclass":"P","fcode":"PPL","country":"GB","cc2":"","admin1":"ENG","admin2":"F2","admin3":"24UG","admin4":"24UG013","population":0,"elevation":0,"gtopo30":77,"timezone":"Europe/London","moddate":"2014-09-14T00:00:00.000Z"},{"geonameid":2641433,"name":"Northam","asciiname":"Northam","alternatenames":"","latitude":"50.9110400","longitude":"-1.3920000","fclass":"P","fcode":"PPLX","country":"GB","cc2":"","admin1":"ENG","admin2":"F2","admin3":"","admin4":"","population":0,"elevation":0,"gtopo30":2,"timezone":"Europe/London","moddate":"2019-10-02T00:00:00.000Z"},{"geonameid":2641329,"name":"Northington","asciiname":"Northington","alternatenames":"","latitude":"51.1327800","longitude":"-1.1891000","fclass":"P","fcode":"PPL","country":"GB","cc2":"","admin1":"ENG","admin2":"F2","admin3":"24UP","admin4":"24UP029","population":0,"elevation":0,"gtopo30":86,"timezone":"Europe/London","moddate":"2018-07-03T00:00:00.000Z"},{"geonameid":2641145,"name":"Nursling","asciiname":"Nursling","alternatenames":"Nursling,Nutshalling","latitude":"50.9448300","longitude":"-1.4652600","fclass":"P","fcode":"PPL","country":"GB","cc2":"GB","admin1":"ENG","admin2":"F2","admin3":"24UN","admin4":"24UN039","population":0,"elevation":0,"gtopo30":30,"timezone":"Europe/London","moddate":"2018-07-03T00:00:00.000Z"},{"geonameid":2641141,"name":"Nutley","asciiname":"Nutley","alternatenames":"","latitude":"51.1965600","longitude":"-1.1288000","fclass":"P","fcode":"PPL","country":"GB","cc2":"","admin1":"ENG","admin2":"F2","admin3":"24UB","admin4":"24UB030","population":0,"elevation":0,"gtopo30":141,"timezone":"Europe/London","moddate":"2018-07-03T00:00:00.000Z"},{"geonameid":2641127,"name":"Oakhanger","asciiname":"Oakhanger","alternatenames":"Oak Hangar,Oakhanger","latitude":"51.1130600","longitude":"-0.9041800","fclass":"P","fcode":"PPL","country":"GB","cc2":"","admin1":"ENG","admin2":"F2","admin3":"24UC","admin4":"24UC031","population":293,"elevation":0,"gtopo30":79,"timezone":"Europe/London","moddate":"2018-07-03T00:00:00.000Z"},{"geonameid":2641123,"name":"Oakley","asciiname":"Oakley","alternatenames":"","latitude":"51.2500400","longitude":"-1.1884100","fclass":"P","fcode":"PPL","country":"GB","cc2":"","admin1":"ENG","admin2":"F2","admin3":"24UB","admin4":"24UB031","population":0,"elevation":0,"gtopo30":112,"timezone":"Europe/London","moddate":"2018-07-03T00:00:00.000Z"},{"geonameid":2641079,"name":"Odiham","asciiname":"Odiham","alternatenames":"ODH,Odiham,Odikhem,Одихем","latitude":"51.2540700","longitude":"-0.9393300","fclass":"P","fcode":"PPL","country":"GB","cc2":"","admin1":"ENG","admin2":"F2","admin3":"24UG","admin4":"24UG013","population":3165,"elevation":0,"gtopo30":96,"timezone":"Europe/London","moddate":"2018-07-03T00:00:00.000Z"},{"geonameid":11593353,"name":"Old Alresford","asciiname":"Old Alresford","alternatenames":"","latitude":"51.1014500","longitude":"-1.1603900","fclass":"P","fcode":"PPL","country":"GB","cc2":"","admin1":"ENG","admin2":"F2","admin3":"24UP","admin4":"24UP030","population":0,"elevation":0,"gtopo30":88,"timezone":"Europe/London","moddate":"2017-06-22T00:00:00.000Z"},{"geonameid":2656193,"name":"Old Basing","asciiname":"Old Basing","alternatenames":"Basing","latitude":"51.2666700","longitude":"-1.0333300","fclass":"P","fcode":"PPL","country":"GB","cc2":"","admin1":"ENG","admin2":"F2","admin3":"24UB","admin4":"24UB032","population":3876,"elevation":0,"gtopo30":79,"timezone":"Europe/London","moddate":"2018-07-03T00:00:00.000Z"},{"geonameid":2640853,"name":"Otterbourne","asciiname":"Otterbourne","alternatenames":"","latitude":"51.0075800","longitude":"-1.3433800","fclass":"P","fcode":"PPL","country":"GB","cc2":"","admin1":"ENG","admin2":"F2","admin3":"24UP","admin4":"24UP032","population":0,"elevation":0,"gtopo30":26,"timezone":"Europe/London","moddate":"2018-07-03T00:00:00.000Z"},{"geonameid":2640761,"name":"Over Wallop","asciiname":"Over Wallop","alternatenames":"","latitude":"51.1462300","longitude":"-1.5948100","fclass":"P","fcode":"PPL","country":"GB","cc2":"","admin1":"ENG","admin2":"F2","admin3":"24UN","admin4":"24UN040","population":981,"elevation":0,"gtopo30":80,"timezone":"Europe/London","moddate":"2018-07-03T00:00:00.000Z"},{"geonameid":2640765,"name":"Overton","asciiname":"Overton","alternatenames":"Overton","latitude":"51.2438900","longitude":"-1.2615400","fclass":"P","fcode":"PPL","country":"GB","cc2":"","admin1":"ENG","admin2":"F2","admin3":"24UB","admin4":"24UB033","population":3392,"elevation":0,"gtopo30":87,"timezone":"Europe/London","moddate":"2018-07-03T00:00:00.000Z"},{"geonameid":2640754,"name":"Ovington","asciiname":"Ovington","alternatenames":"","latitude":"51.0817400","longitude":"-1.2008700","fclass":"P","fcode":"PPL","country":"GB","cc2":"","admin1":"ENG","admin2":"F2","admin3":"24UP","admin4":"24UP022","population":0,"elevation":0,"gtopo30":65,"timezone":"Europe/London","moddate":"2018-07-03T00:00:00.000Z"},{"geonameid":2640746,"name":"Ower","asciiname":"Ower","alternatenames":"","latitude":"50.8193400","longitude":"-1.3287600","fclass":"P","fcode":"PPL","country":"GB","cc2":"","admin1":"ENG","admin2":"F2","admin3":"24UJ","admin4":"24UJ015","population":0,"elevation":0,"gtopo30":13,"timezone":"Europe/London","moddate":"2018-07-03T00:00:00.000Z"},{"geonameid":2640742,"name":"Owslebury","asciiname":"Owslebury","alternatenames":"Owslebury","latitude":"51.0085700","longitude":"-1.2673800","fclass":"P","fcode":"PPL","country":"GB","cc2":"","admin1":"ENG","admin2":"F2","admin3":"24UP","admin4":"24UP033","population":818,"elevation":0,"gtopo30":112,"timezone":"Europe/London","moddate":"2018-07-03T00:00:00.000Z"},{"geonameid":10100202,"name":"Passfield","asciiname":"Passfield","alternatenames":"","latitude":"51.1022800","longitude":"-0.8235500","fclass":"P","fcode":"PPL","country":"GB","cc2":"","admin1":"ENG","admin2":"F2","admin3":"24UC","admin4":"24UC005","population":0,"elevation":0,"gtopo30":94,"timezone":"Europe/London","moddate":"2015-02-14T00:00:00.000Z"},{"geonameid":2640401,"name":"Penton Mewsey","asciiname":"Penton Mewsey","alternatenames":"Penton Mewsey","latitude":"51.2250300","longitude":"-1.5280900","fclass":"P","fcode":"PPL","country":"GB","cc2":"","admin1":"ENG","admin2":"F2","admin3":"24UN","admin4":"24UN042","population":412,"elevation":0,"gtopo30":79,"timezone":"Europe/London","moddate":"2018-07-03T00:00:00.000Z"},{"geonameid":2640348,"name":"Petersfield","asciiname":"Petersfield","alternatenames":"Petersfield,pytrsfyld,پیترسفیلد","latitude":"51.0049500","longitude":"-0.9337500","fclass":"P","fcode":"PPL","country":"GB","cc2":"","admin1":"ENG","admin2":"F2","admin3":"24UC","admin4":"24UC028","population":14974,"elevation":0,"gtopo30":62,"timezone":"Europe/London","moddate":"2018-07-03T00:00:00.000Z"},{"geonameid":2640296,"name":"Pilcot","asciiname":"Pilcot","alternatenames":"Pilcot,Pilcott","latitude":"51.2500000","longitude":"-0.8666700","fclass":"P","fcode":"PPL","country":"GB","cc2":"GB","admin1":"ENG","admin2":"F2","admin3":"24UG","admin4":"24UG002","population":0,"elevation":0,"gtopo30":85,"timezone":"Europe/London","moddate":"2018-07-03T00:00:00.000Z"},{"geonameid":2640243,"name":"Pitt","asciiname":"Pitt","alternatenames":"","latitude":"51.0493800","longitude":"-1.3542800","fclass":"P","fcode":"PPL","country":"GB","cc2":"","admin1":"ENG","admin2":"F2","admin3":"24UP","admin4":"24UP021","population":0,"elevation":0,"gtopo30":101,"timezone":"Europe/London","moddate":"2018-07-03T00:00:00.000Z"},{"geonameid":2640231,"name":"Plaitford","asciiname":"Plaitford","alternatenames":"Plaitford","latitude":"50.9666700","longitude":"-1.6000000","fclass":"P","fcode":"PPL","country":"GB","cc2":"","admin1":"ENG","admin2":"F2","admin3":"24UN","admin4":"24UN033","population":0,"elevation":0,"gtopo30":33,"timezone":"Europe/London","moddate":"2018-07-03T00:00:00.000Z"},{"geonameid":11551035,"name":"Plastow Green","asciiname":"Plastow Green","alternatenames":"","latitude":"51.3547700","longitude":"-1.2345500","fclass":"P","fcode":"PPL","country":"GB","cc2":"","admin1":"ENG","admin2":"F2","admin3":"24UB","admin4":"24UB001","population":0,"elevation":0,"gtopo30":94,"timezone":"Europe/London","moddate":"2017-06-08T00:00:00.000Z"},{"geonameid":2640092,"name":"Popham","asciiname":"Popham","alternatenames":"","latitude":"51.1911200","longitude":"-1.2006400","fclass":"P","fcode":"PPL","country":"GB","cc2":"","admin1":"ENG","admin2":"F2","admin3":"24UB","admin4":"24UB035","population":0,"elevation":0,"gtopo30":151,"timezone":"Europe/London","moddate":"2018-07-03T00:00:00.000Z"},{"geonameid":8199259,"name":"Popley","asciiname":"Popley","alternatenames":"","latitude":"51.2845700","longitude":"-1.0843800","fclass":"P","fcode":"PPL","country":"GB","cc2":"","admin1":"ENG","admin2":"F2","admin3":"24UB","admin4":"","population":0,"elevation":0,"gtopo30":81,"timezone":"Europe/London","moddate":"2012-02-18T00:00:00.000Z"},{"geonameid":2640071,"name":"Portchester","asciiname":"Portchester","alternatenames":"Porchester,Portchester","latitude":"50.8417200","longitude":"-1.1204300","fclass":"P","fcode":"PPL","country":"GB","cc2":"","admin1":"ENG","admin2":"F2","admin3":"24UE","admin4":"","population":0,"elevation":0,"gtopo30":2,"timezone":"Europe/London","moddate":"2010-08-03T00:00:00.000Z"},{"geonameid":2639908,"name":"Preston Candover","asciiname":"Preston Candover","alternatenames":"","latitude":"51.1705700","longitude":"-1.1337200","fclass":"P","fcode":"PPL","country":"GB","cc2":"","admin1":"ENG","admin2":"F2","admin3":"24UB","admin4":"24UB036","population":510,"elevation":0,"gtopo30":102,"timezone":"Europe/London","moddate":"2018-07-03T00:00:00.000Z"},{"geonameid":2639882,"name":"Privett","asciiname":"Privett","alternatenames":"","latitude":"51.0385300","longitude":"-1.0376900","fclass":"P","fcode":"PPL","country":"GB","cc2":"","admin1":"ENG","admin2":"F2","admin3":"24UC","admin4":"24UC014","population":0,"elevation":0,"gtopo30":179,"timezone":"Europe/London","moddate":"2018-07-03T00:00:00.000Z"},{"geonameid":6545317,"name":"Purbrook","asciiname":"Purbrook","alternatenames":"","latitude":"50.8653500","longitude":"-1.0341100","fclass":"P","fcode":"PPLL","country":"GB","cc2":"","admin1":"ENG","admin2":"F2","admin3":"24UH","admin4":"","population":0,"elevation":0,"gtopo30":49,"timezone":"Europe/London","moddate":"2011-03-03T00:00:00.000Z"},{"geonameid":2639806,"name":"Quarley","asciiname":"Quarley","alternatenames":"Quarley","latitude":"51.1928100","longitude":"-1.6091700","fclass":"P","fcode":"PPL","country":"GB","cc2":"","admin1":"ENG","admin2":"F2","admin3":"24UN","admin4":"24UN043","population":0,"elevation":0,"gtopo30":93,"timezone":"Europe/London","moddate":"2018-07-03T00:00:00.000Z"},{"geonameid":2639681,"name":"Rake","asciiname":"Rake","alternatenames":"","latitude":"51.0432300","longitude":"-0.8580100","fclass":"P","fcode":"PPL","country":"GB","cc2":"","admin1":"ENG","admin2":"F2","admin3":"24UC","admin4":"24UC025","population":0,"elevation":0,"gtopo30":135,"timezone":"Europe/London","moddate":"2018-07-03T00:00:00.000Z"},{"geonameid":11593376,"name":"Ramsdell","asciiname":"Ramsdell","alternatenames":"","latitude":"51.3128000","longitude":"-1.1548500","fclass":"P","fcode":"PPL","country":"GB","cc2":"","admin1":"ENG","admin2":"F2","admin3":"24UB","admin4":"24UB051","population":0,"elevation":0,"gtopo30":105,"timezone":"Europe/London","moddate":"2017-06-22T00:00:00.000Z"},{"geonameid":2639564,"name":"Redbridge","asciiname":"Redbridge","alternatenames":"","latitude":"50.9166700","longitude":"-1.4666700","fclass":"P","fcode":"PPLX","country":"GB","cc2":"","admin1":"ENG","admin2":"F2","admin3":"","admin4":"","population":0,"elevation":0,"gtopo30":4,"timezone":"Europe/London","moddate":"2007-06-15T00:00:00.000Z"},{"geonameid":2639334,"name":"Ringwood","asciiname":"Ringwood","alternatenames":"RNW,Ringwood,ryngwwd,رینگوود","latitude":"50.8454100","longitude":"-1.7887100","fclass":"P","fcode":"PPL","country":"GB","cc2":"","admin1":"ENG","admin2":"F2","admin3":"24UJ","admin4":"24UJ029","population":14084,"elevation":0,"gtopo30":16,"timezone":"Europe/London","moddate":"2018-07-03T00:00:00.000Z"},{"geonameid":2639327,"name":"Ripley","asciiname":"Ripley","alternatenames":"","latitude":"50.7833300","longitude":"-1.7666700","fclass":"P","fcode":"PPL","country":"GB","cc2":"","admin1":"ENG","admin2":"F2","admin3":"24UJ","admin4":"24UJ032","population":0,"elevation":0,"gtopo30":11,"timezone":"Europe/London","moddate":"2018-07-03T00:00:00.000Z"},{"geonameid":2639258,"name":"Rockbourne","asciiname":"Rockbourne","alternatenames":"Rockbourne","latitude":"50.9611600","longitude":"-1.8380700","fclass":"P","fcode":"PPL","country":"GB","cc2":"","admin1":"ENG","admin2":"F2","admin3":"24UJ","admin4":"24UJ030","population":167,"elevation":0,"gtopo30":48,"timezone":"Europe/London","moddate":"2018-07-03T00:00:00.000Z"},{"geonameid":2639189,"name":"Romsey","asciiname":"Romsey","alternatenames":"Romsey,luo mu xi,ramsy,رامسی,罗姆西","latitude":"50.9890600","longitude":"-1.4998900","fclass":"P","fcode":"PPL","country":"GB","cc2":"","admin1":"ENG","admin2":"F2","admin3":"24UN","admin4":"24UN044","population":17161,"elevation":0,"gtopo30":20,"timezone":"Europe/London","moddate":"2021-01-14T00:00:00.000Z"},{"geonameid":2639161,"name":"Ropley","asciiname":"Ropley","alternatenames":"Ropley","latitude":"51.0829300","longitude":"-1.0776900","fclass":"P","fcode":"PPL","country":"GB","cc2":"","admin1":"ENG","admin2":"F2","admin3":"24UC","admin4":"24UC029","population":477,"elevation":0,"gtopo30":130,"timezone":"Europe/London","moddate":"2018-07-03T00:00:00.000Z"},{"geonameid":2639087,"name":"Rotherwick","asciiname":"Rotherwick","alternatenames":"","latitude":"51.3028200","longitude":"-0.9706600","fclass":"P","fcode":"PPL","country":"GB","cc2":"","admin1":"ENG","admin2":"F2","admin3":"24UG","admin4":"24UG014","population":564,"elevation":0,"gtopo30":76,"timezone":"Europe/London","moddate":"2018-07-03T00:00:00.000Z"},