{"pageProps":{"locale":"ro","admin2":{"geonameid":677685,"name":"Comuna Gălăuţaş","country":"RO","admin1":"20","admin2":"84460","admin3":"","latitude":"46.9002800","longitude":"25.3911800"},"admin1":{"geonameid":676309,"name":"Harghita","admin1":"20"},"locations":[{"geonameid":679679,"name":"Dealu Armanului","asciiname":"Dealu Armanului","alternatenames":"Armandombja,Armàndombja,Dealu Armanului","latitude":"46.8900700","longitude":"25.3997700","fclass":"P","fcode":"PPL","country":"RO","cc2":"RO","admin1":"20","admin2":"84460","admin3":"","admin4":"","population":47,"elevation":0,"gtopo30":768,"timezone":"Europe/Bucharest","moddate":"2013-04-21T00:00:00.000Z"},{"geonameid":677687,"name":"Gălăuţaş","asciiname":"Galautas","alternatenames":"Galautas,Galautasi,Galocas,Galócaş,Gălăuţaş,Gălăuţaşi","latitude":"46.9123800","longitude":"25.4007900","fclass":"P","fcode":"PPLA2","country":"RO","cc2":"","admin1":"20","admin2":"84460","admin3":"","admin4":"","population":2618,"elevation":0,"gtopo30":699,"timezone":"Europe/Bucharest","moddate":"2020-04-20T00:00:00.000Z"},{"geonameid":677684,"name":"Gălăuțaș-Pârău","asciiname":"Galautas-Parau","alternatenames":"Galautas-Parau,Galocaspatak,Galòcàspatak,Gălăuţaş-Părău","latitude":"46.8972700","longitude":"25.3847500","fclass":"P","fcode":"PPL","country":"RO","cc2":"RO","admin1":"20","admin2":"84460","admin3":"","admin4":"","population":400,"elevation":0,"gtopo30":724,"timezone":"Europe/Bucharest","moddate":"2020-04-20T00:00:00.000Z"},{"geonameid":672121,"name":"Nuțeni","asciiname":"Nuteni","alternatenames":"Nucen,Nucèn,Nuteni,Nuţeni","latitude":"46.8857800","longitude":"25.4129300","fclass":"P","fcode":"PPL","country":"RO","cc2":"RO","admin1":"20","admin2":"84460","admin3":"","admin4":"","population":118,"elevation":0,"gtopo30":763,"timezone":"Europe/Bucharest","moddate":"2013-04-21T00:00:00.000Z"},{"geonameid":670444,"name":"Plopiș","asciiname":"Plopis","alternatenames":"Plopis,Plopiş,Ploptisu","latitude":"46.9130900","longitude":"25.3803700","fclass":"P","fcode":"PPL","country":"RO","cc2":"RO","admin1":"20","admin2":"84460","admin3":"","admin4":"","population":55,"elevation":0,"gtopo30":733,"timezone":"Europe/Bucharest","moddate":"2020-04-20T00:00:00.000Z"},{"geonameid":669681,"name":"Preluca","asciiname":"Preluca","alternatenames":"Preluca,Preluka","latitude":"46.8903800","longitude":"25.3578300","fclass":"P","fcode":"PPL","country":"RO","cc2":"RO","admin1":"20","admin2":"84460","admin3":"","admin4":"","population":14,"elevation":0,"gtopo30":848,"timezone":"Europe/Bucharest","moddate":"2013-04-21T00:00:00.000Z"},{"geonameid":664831,"name":"Toleșeni","asciiname":"Toleseni","alternatenames":"Tolesen,Toleseni,Toleşeni,Tolèsèn","latitude":"46.9175100","longitude":"25.4033800","fclass":"P","fcode":"PPL","country":"RO","cc2":"RO","admin1":"20","admin2":"84460","admin3":"","admin4":"","population":104,"elevation":0,"gtopo30":780,"timezone":"Europe/Bucharest","moddate":"2020-04-20T00:00:00.000Z"},{"geonameid":662303,"name":"Zăpodea","asciiname":"Zapodea","alternatenames":"","latitude":"46.8986400","longitude":"25.3584100","fclass":"P","fcode":"PPL","country":"RO","cc2":"","admin1":"20","admin2":"84460","admin3":"","admin4":"","population":21,"elevation":0,"gtopo30":753,"timezone":"Europe/Bucharest","moddate":"2013-04-20T00:00:00.000Z"}],"admin3":[],"alternateNames":[]},"__N_SSG":true}