{"pageProps":{"locale":"ro","admin2":{"geonameid":662347,"name":"Comuna Zagra","country":"RO","admin1":"06","admin2":"35429","admin3":"","latitude":"47.3708300","longitude":"24.2605700"},"admin1":{"geonameid":684647,"name":"Bistriţa-Năsăud","admin1":"06"},"locations":[{"geonameid":686404,"name":"Alunișul","asciiname":"Alunisul","alternatenames":"Alunisul,Alunişul,Gaureni,Găureni","latitude":"47.3914600","longitude":"24.2790600","fclass":"P","fcode":"PPL","country":"RO","cc2":"RO","admin1":"06","admin2":"35429","admin3":"","admin4":"","population":461,"elevation":0,"gtopo30":542,"timezone":"Europe/Bucharest","moddate":"2013-04-21T00:00:00.000Z"},{"geonameid":671112,"name":"Perișor","asciiname":"Perisor","alternatenames":"","latitude":"47.3141700","longitude":"24.2271900","fclass":"P","fcode":"PPL","country":"RO","cc2":"","admin1":"06","admin2":"35429","admin3":"","admin4":"","population":785,"elevation":0,"gtopo30":545,"timezone":"Europe/Bucharest","moddate":"2013-04-21T00:00:00.000Z"},{"geonameid":669991,"name":"Poienile Zagrei","asciiname":"Poienile Zagrei","alternatenames":"Poenile Zagrei,Poenile Zăgrei,Poienile Zagrei,Poienile Zăgrei","latitude":"47.3872000","longitude":"24.2568200","fclass":"P","fcode":"PPL","country":"RO","cc2":"RO","admin1":"06","admin2":"35429","admin3":"","admin4":"","population":887,"elevation":0,"gtopo30":514,"timezone":"Europe/Bucharest","moddate":"2013-04-21T00:00:00.000Z"},{"geonameid":665759,"name":"Suplai","asciiname":"Suplai","alternatenames":"Suplai,Suvlai","latitude":"47.4367100","longitude":"24.2600200","fclass":"P","fcode":"PPL","country":"RO","cc2":"RO","admin1":"06","admin2":"35429","admin3":"","admin4":"","population":885,"elevation":0,"gtopo30":632,"timezone":"Europe/Bucharest","moddate":"2013-04-21T00:00:00.000Z"},{"geonameid":662349,"name":"Zagra","asciiname":"Zagra","alternatenames":"","latitude":"47.3333300","longitude":"24.2833300","fclass":"P","fcode":"PPLA2","country":"RO","cc2":"","admin1":"06","admin2":"35429","admin3":"","admin4":"","population":3725,"elevation":0,"gtopo30":442,"timezone":"Europe/Bucharest","moddate":"2012-06-12T00:00:00.000Z"}],"admin3":[],"alternateNames":[]},"__N_SSG":true}