{"pageProps":{"locale":"en","admin2":{"geonameid":2638010,"name":"Shetland Islands","country":"GB","admin1":"SCT","admin2":"W3","admin3":"","latitude":"60.3333300","longitude":"-1.3333300"},"admin1":{"geonameid":2638360,"name":"Scotland","admin1":"SCT"},"locations":[{"geonameid":10277904,"name":"Aith","asciiname":"Aith","alternatenames":"","latitude":"60.5908700","longitude":"-0.8371500","fclass":"P","fcode":"PPL","country":"GB","cc2":"","admin1":"SCT","admin2":"W3","admin3":"","admin4":"","population":0,"elevation":0,"gtopo30":1,"timezone":"Europe/London","moddate":"2015-05-10T00:00:00.000Z"},{"geonameid":2657586,"name":"Aith","asciiname":"Aith","alternatenames":"","latitude":"60.2838600","longitude":"-1.3776000","fclass":"P","fcode":"PPL","country":"GB","cc2":"","admin1":"SCT","admin2":"W3","admin3":"","admin4":"","population":0,"elevation":0,"gtopo30":-9999,"timezone":"Europe/London","moddate":"2011-03-03T00:00:00.000Z"},{"geonameid":10277952,"name":"Baliasta","asciiname":"Baliasta","alternatenames":"","latitude":"60.7637900","longitude":"-0.8911800","fclass":"P","fcode":"PPL","country":"GB","cc2":"","admin1":"SCT","admin2":"W3","admin3":"","admin4":"","population":0,"elevation":0,"gtopo30":38,"timezone":"Europe/London","moddate":"2015-05-11T00:00:00.000Z"},{"geonameid":2656431,"name":"Baltasound","asciiname":"Baltasound","alternatenames":"Baltasound","latitude":"60.7585000","longitude":"-0.8590700","fclass":"P","fcode":"PPL","country":"GB","cc2":"","admin1":"SCT","admin2":"W3","admin3":"","admin4":"","population":0,"elevation":0,"gtopo30":8,"timezone":"Europe/London","moddate":"2012-11-28T00:00:00.000Z"},{"geonameid":2655947,"name":"Belmont","asciiname":"Belmont","alternatenames":"Belmont","latitude":"60.6873700","longitude":"-0.9668100","fclass":"P","fcode":"PPL","country":"GB","cc2":"","admin1":"SCT","admin2":"W3","admin3":"","admin4":"","population":0,"elevation":0,"gtopo30":3,"timezone":"Europe/London","moddate":"2015-04-11T00:00:00.000Z"},{"geonameid":11240127,"name":"Bigton","asciiname":"Bigton","alternatenames":"","latitude":"59.9726800","longitude":"-1.3255700","fclass":"P","fcode":"PPL","country":"GB","cc2":"","admin1":"SCT","admin2":"W3","admin3":"","admin4":"","population":0,"elevation":0,"gtopo30":37,"timezone":"Europe/London","moddate":"2016-09-10T00:00:00.000Z"},{"geonameid":2655287,"name":"Boddam","asciiname":"Boddam","alternatenames":"Bodam,Boddam","latitude":"59.9242500","longitude":"-1.2906800","fclass":"P","fcode":"PPL","country":"GB","cc2":"GB","admin1":"SCT","admin2":"W3","admin3":"","admin4":"","population":0,"elevation":0,"gtopo30":5,"timezone":"Europe/London","moddate":"2015-04-11T00:00:00.000Z"},{"geonameid":2654970,"name":"Brae","asciiname":"Brae","alternatenames":"Brae","latitude":"60.3963500","longitude":"-1.3529600","fclass":"P","fcode":"PPL","country":"GB","cc2":"","admin1":"SCT","admin2":"W3","admin3":"","admin4":"","population":720,"elevation":0,"gtopo30":36,"timezone":"Europe/London","moddate":"2017-06-12T00:00:00.000Z"},{"geonameid":10277906,"name":"Brough Lodge","asciiname":"Brough Lodge","alternatenames":"","latitude":"60.6127700","longitude":"-0.9436700","fclass":"P","fcode":"PPL","country":"GB","cc2":"","admin1":"SCT","admin2":"W3","admin3":"","admin4":"","population":0,"elevation":0,"gtopo30":1,"timezone":"Europe/London","moddate":"2015-05-10T00:00:00.000Z"},{"geonameid":11240128,"name":"Burrafirth","asciiname":"Burrafirth","alternatenames":"","latitude":"60.8008600","longitude":"-0.8777000","fclass":"P","fcode":"PPL","country":"GB","cc2":"","admin1":"SCT","admin2":"W3","admin3":"","admin4":"","population":0,"elevation":0,"gtopo30":6,"timezone":"Europe/London","moddate":"2016-09-10T00:00:00.000Z"},{"geonameid":2654243,"name":"Burravoe","asciiname":"Burravoe","alternatenames":"","latitude":"60.5833300","longitude":"-1.3333300","fclass":"P","fcode":"PPL","country":"GB","cc2":"","admin1":"SCT","admin2":"W3","admin3":"","admin4":"","population":0,"elevation":0,"gtopo30":-9999,"timezone":"Europe/London","moddate":"2004-09-24T00:00:00.000Z"},{"geonameid":2654244,"name":"Burravoe","asciiname":"Burravoe","alternatenames":"Burravoe","latitude":"60.5000000","longitude":"-1.0500000","fclass":"P","fcode":"PPL","country":"GB","cc2":"","admin1":"SCT","admin2":"W3","admin3":"","admin4":"","population":0,"elevation":0,"gtopo30":-9999,"timezone":"Europe/London","moddate":"2012-02-01T00:00:00.000Z"},{"geonameid":2654245,"name":"Burravoe","asciiname":"Burravoe","alternatenames":"","latitude":"60.4990000","longitude":"-1.0539900","fclass":"P","fcode":"PPL","country":"GB","cc2":"","admin1":"SCT","admin2":"W3","admin3":"","admin4":"","population":0,"elevation":0,"gtopo30":-9999,"timezone":"Europe/London","moddate":"2015-04-11T00:00:00.000Z"},{"geonameid":6619444,"name":"Busta","asciiname":"Busta","alternatenames":"Want of Busta","latitude":"60.3864600","longitude":"-1.3733800","fclass":"P","fcode":"PPL","country":"GB","cc2":"","admin1":"SCT","admin2":"W3","admin3":"","admin4":"","population":0,"elevation":0,"gtopo30":-9999,"timezone":"Europe/London","moddate":"2020-10-22T00:00:00.000Z"},{"geonameid":2653517,"name":"Catfirth","asciiname":"Catfirth","alternatenames":"","latitude":"60.2666700","longitude":"-1.2333300","fclass":"P","fcode":"PPL","country":"GB","cc2":"","admin1":"SCT","admin2":"W3","admin3":"","admin4":"","population":0,"elevation":0,"gtopo30":29,"timezone":"Europe/London","moddate":"2004-09-24T00:00:00.000Z"},{"geonameid":2651557,"name":"Dalsetter","asciiname":"Dalsetter","alternatenames":"","latitude":"60.6666700","longitude":"-1.0833300","fclass":"P","fcode":"PPL","country":"GB","cc2":"","admin1":"SCT","admin2":"W3","admin3":"","admin4":"","population":0,"elevation":0,"gtopo30":40,"timezone":"Europe/London","moddate":"2004-09-24T00:00:00.000Z"},{"geonameid":2650453,"name":"Easter Quarff","asciiname":"Easter Quarff","alternatenames":"","latitude":"60.1017100","longitude":"-1.2350700","fclass":"P","fcode":"PPL","country":"GB","cc2":"","admin1":"SCT","admin2":"W3","admin3":"","admin4":"","population":0,"elevation":0,"gtopo30":31,"timezone":"Europe/London","moddate":"2011-03-03T00:00:00.000Z"},{"geonameid":7670886,"name":"Fetlar","asciiname":"Fetlar","alternatenames":"FEA","latitude":"60.6034200","longitude":"-0.8959000","fclass":"P","fcode":"PPL","country":"GB","cc2":"","admin1":"SCT","admin2":"W3","admin3":"","admin4":"","population":0,"elevation":0,"gtopo30":21,"timezone":"Europe/London","moddate":"2015-05-10T00:00:00.000Z"},{"geonameid":2648985,"name":"Funzie","asciiname":"Funzie","alternatenames":"","latitude":"60.5888600","longitude":"-0.7954800","fclass":"P","fcode":"PPL","country":"GB","cc2":"","admin1":"SCT","admin2":"W3","admin3":"","admin4":"","population":0,"elevation":0,"gtopo30":1,"timezone":"Europe/London","moddate":"2015-05-10T00:00:00.000Z"},{"geonameid":11072618,"name":"Gulberwick","asciiname":"Gulberwick","alternatenames":"","latitude":"60.1285100","longitude":"-1.2102100","fclass":"P","fcode":"PPL","country":"GB","cc2":"","admin1":"SCT","admin2":"W3","admin3":"","admin4":"","population":0,"elevation":0,"gtopo30":39,"timezone":"Europe/London","moddate":"2016-03-01T00:00:00.000Z"},{"geonameid":2647748,"name":"Gutcher","asciiname":"Gutcher","alternatenames":"Gutcher","latitude":"60.6693100","longitude":"-1.0061800","fclass":"P","fcode":"PPL","country":"GB","cc2":"","admin1":"SCT","admin2":"W3","admin3":"","admin4":"","population":0,"elevation":0,"gtopo30":-9999,"timezone":"Europe/London","moddate":"2012-11-28T00:00:00.000Z"},{"geonameid":2647689,"name":"Hadd","asciiname":"Hadd","alternatenames":"Hadd,North Haa","latitude":"60.5833300","longitude":"-1.3333300","fclass":"P","fcode":"PPL","country":"GB","cc2":"GB","admin1":"SCT","admin2":"W3","admin3":"","admin4":"","population":0,"elevation":0,"gtopo30":-9999,"timezone":"Europe/London","moddate":"2012-01-17T00:00:00.000Z"},{"geonameid":2647588,"name":"Ham","asciiname":"Ham","alternatenames":"","latitude":"60.1333300","longitude":"-2.0500000","fclass":"P","fcode":"PPL","country":"GB","cc2":"","admin1":"SCT","admin2":"W3","admin3":"","admin4":"","population":0,"elevation":0,"gtopo30":-9999,"timezone":"Europe/London","moddate":"2009-02-17T00:00:00.000Z"},{"geonameid":8531879,"name":"Ham","asciiname":"Ham","alternatenames":"","latitude":"60.1379200","longitude":"-1.1140000","fclass":"P","fcode":"PPLL","country":"GB","cc2":"","admin1":"SCT","admin2":"W3","admin3":"","admin4":"","population":0,"elevation":0,"gtopo30":77,"timezone":"Europe/London","moddate":"2013-05-18T00:00:00.000Z"},{"geonameid":2647454,"name":"Haroldswick","asciiname":"Haroldswick","alternatenames":"","latitude":"60.7875300","longitude":"-0.8329900","fclass":"P","fcode":"PPL","country":"GB","cc2":"","admin1":"SCT","admin2":"W3","admin3":"","admin4":"","population":0,"elevation":0,"gtopo30":17,"timezone":"Europe/London","moddate":"2010-10-08T00:00:00.000Z"},{"geonameid":2646885,"name":"Hillswick","asciiname":"Hillswick","alternatenames":"","latitude":"60.4760200","longitude":"-1.4887400","fclass":"P","fcode":"PPL","country":"GB","cc2":"","admin1":"SCT","admin2":"W3","admin3":"","admin4":"","population":0,"elevation":0,"gtopo30":1,"timezone":"Europe/London","moddate":"2011-03-03T00:00:00.000Z"},{"geonameid":11240129,"name":"Hoswick","asciiname":"Hoswick","alternatenames":"","latitude":"59.9965500","longitude":"-1.2618800","fclass":"P","fcode":"PPL","country":"GB","cc2":"","admin1":"SCT","admin2":"W3","admin3":"","admin4":"","population":0,"elevation":0,"gtopo30":63,"timezone":"Europe/London","moddate":"2016-09-10T00:00:00.000Z"},{"geonameid":10277903,"name":"Houbie","asciiname":"Houbie","alternatenames":"","latitude":"60.5950600","longitude":"-0.8683900","fclass":"P","fcode":"PPL","country":"GB","cc2":"","admin1":"SCT","admin2":"W3","admin3":"","admin4":"","population":0,"elevation":0,"gtopo30":17,"timezone":"Europe/London","moddate":"2015-05-10T00:00:00.000Z"},{"geonameid":2646509,"name":"Housetter","asciiname":"Housetter","alternatenames":"","latitude":"60.5500000","longitude":"-1.3333300","fclass":"P","fcode":"PPL","country":"GB","cc2":"","admin1":"SCT","admin2":"W3","admin3":"","admin4":"","population":0,"elevation":0,"gtopo30":1,"timezone":"Europe/London","moddate":"2004-09-24T00:00:00.000Z"},{"geonameid":10277955,"name":"Hulland","asciiname":"Hulland","alternatenames":"","latitude":"60.7726500","longitude":"-0.9059200","fclass":"P","fcode":"PPL","country":"GB","cc2":"","admin1":"SCT","admin2":"W3","admin3":"","admin4":"","population":0,"elevation":0,"gtopo30":54,"timezone":"Europe/London","moddate":"2015-05-11T00:00:00.000Z"},{"geonameid":11611017,"name":"Hultness","asciiname":"Hultness","alternatenames":"","latitude":"60.3690800","longitude":"-1.3275600","fclass":"P","fcode":"PPL","country":"GB","cc2":"","admin1":"SCT","admin2":"W3","admin3":"","admin4":"","population":0,"elevation":0,"gtopo30":40,"timezone":"Europe/London","moddate":"2017-07-20T00:00:00.000Z"},{"geonameid":12195583,"name":"Laxo","asciiname":"Laxo","alternatenames":"","latitude":"60.3540000","longitude":"-1.1971100","fclass":"P","fcode":"PPL","country":"GB","cc2":"","admin1":"SCT","admin2":"W3","admin3":"","admin4":"","population":0,"elevation":0,"gtopo30":30,"timezone":"Europe/London","moddate":"2020-10-24T00:00:00.000Z"},{"geonameid":2644605,"name":"Lerwick","asciiname":"Lerwick","alternatenames":"LSI,Lamwic,Leirvik,Leirvík,Lergouik,Leruik,Lervik,Lervikas,Lerwick,Liurabhaig,Liùrabhaig,Liúrabhaig,Lāmwic,lei wei ke,leowig,lrwwyq,lrwyk,rau~ikku,Λέργουικ,Лервик,Лервік,Леруик,Леруік,לרוויק,لرویک,ラーウィック,勒威克,러윅","latitude":"60.1533900","longitude":"-1.1442700","fclass":"P","fcode":"PPLA2","country":"GB","cc2":"","admin1":"SCT","admin2":"W3","admin3":"","admin4":"","population":7040,"elevation":0,"gtopo30":-9999,"timezone":"Europe/London","moddate":"2019-09-05T00:00:00.000Z"},{"geonameid":2643119,"name":"Mangaster","asciiname":"Mangaster","alternatenames":"Mangaster,Mangersta","latitude":"60.4200500","longitude":"-1.4025500","fclass":"P","fcode":"PPL","country":"GB","cc2":"GB","admin1":"SCT","admin2":"W3","admin3":"","admin4":"","population":0,"elevation":0,"gtopo30":23,"timezone":"Europe/London","moddate":"2015-04-10T00:00:00.000Z"},{"geonameid":2642554,"name":"Mid Yell","asciiname":"Mid Yell","alternatenames":"Mid Yell","latitude":"60.6000000","longitude":"-1.0666700","fclass":"P","fcode":"PPL","country":"GB","cc2":"","admin1":"SCT","admin2":"W3","admin3":"","admin4":"","population":0,"elevation":0,"gtopo30":9,"timezone":"Europe/London","moddate":"2012-01-17T00:00:00.000Z"},{"geonameid":2642147,"name":"Mossbank","asciiname":"Mossbank","alternatenames":"Mossbank","latitude":"60.4596700","longitude":"-1.1815700","fclass":"P","fcode":"PPL","country":"GB","cc2":"","admin1":"SCT","admin2":"W3","admin3":"","admin4":"","population":0,"elevation":0,"gtopo30":-9999,"timezone":"Europe/London","moddate":"2012-11-28T00:00:00.000Z"},{"geonameid":2641273,"name":"North Roe","asciiname":"North Roe","alternatenames":"","latitude":"60.5872900","longitude":"-1.3356200","fclass":"P","fcode":"PPL","country":"GB","cc2":"","admin1":"SCT","admin2":"W3","admin3":"","admin4":"","population":0,"elevation":0,"gtopo30":1,"timezone":"Europe/London","moddate":"2011-03-03T00:00:00.000Z"},{"geonameid":2640979,"name":"Ollaberry","asciiname":"Ollaberry","alternatenames":"","latitude":"60.5065000","longitude":"-1.3372700","fclass":"P","fcode":"PPL","country":"GB","cc2":"","admin1":"SCT","admin2":"W3","admin3":"","admin4":"","population":0,"elevation":0,"gtopo30":-9999,"timezone":"Europe/London","moddate":"2011-03-03T00:00:00.000Z"},{"geonameid":2639807,"name":"Quarff","asciiname":"Quarff","alternatenames":"Quarff","latitude":"60.1000000","longitude":"-1.2500000","fclass":"P","fcode":"PPL","country":"GB","cc2":"","admin1":"SCT","admin2":"W3","admin3":"","admin4":"","population":0,"elevation":0,"gtopo30":73,"timezone":"Europe/London","moddate":"2012-01-17T00:00:00.000Z"},{"geonameid":2638571,"name":"Sandness","asciiname":"Sandness","alternatenames":"","latitude":"60.2985800","longitude":"-1.6498500","fclass":"P","fcode":"PPL","country":"GB","cc2":"","admin1":"SCT","admin2":"W3","admin3":"","admin4":"","population":0,"elevation":0,"gtopo30":67,"timezone":"Europe/London","moddate":"2011-03-03T00:00:00.000Z"},{"geonameid":2638534,"name":"Sandwick","asciiname":"Sandwick","alternatenames":"Sandwick","latitude":"60.0000000","longitude":"-1.2500000","fclass":"P","fcode":"PPL","country":"GB","cc2":"","admin1":"SCT","admin2":"W3","admin3":"","admin4":"","population":1217,"elevation":0,"gtopo30":14,"timezone":"Europe/London","moddate":"2018-07-04T00:00:00.000Z"},{"geonameid":2638439,"name":"Scalloway","asciiname":"Scalloway","alternatenames":"Scalloway","latitude":"60.1383200","longitude":"-1.2769000","fclass":"P","fcode":"PPL","country":"GB","cc2":"","admin1":"SCT","admin2":"W3","admin3":"","admin4":"","population":1100,"elevation":0,"gtopo30":62,"timezone":"Europe/London","moddate":"2017-06-12T00:00:00.000Z"},{"geonameid":2636980,"name":"Stebbligrind","asciiname":"Stebbligrind","alternatenames":"Stebblegrund,Stebbligrind","latitude":"60.2000000","longitude":"-1.3000000","fclass":"P","fcode":"PPL","country":"GB","cc2":"GB","admin1":"SCT","admin2":"W3","admin3":"","admin4":"","population":0,"elevation":0,"gtopo30":48,"timezone":"Europe/London","moddate":"2012-01-17T00:00:00.000Z"},{"geonameid":2636544,"name":"Sumburgh","asciiname":"Sumburgh","alternatenames":"","latitude":"59.8691600","longitude":"-1.2878100","fclass":"P","fcode":"PPL","country":"GB","cc2":"","admin1":"SCT","admin2":"W3","admin3":"","admin4":"","population":0,"elevation":0,"gtopo30":9,"timezone":"Europe/London","moddate":"2012-11-28T00:00:00.000Z"},{"geonameid":8426371,"name":"Symbister","asciiname":"Symbister","alternatenames":"","latitude":"60.3419400","longitude":"-1.0246100","fclass":"P","fcode":"PPL","country":"GB","cc2":"","admin1":"SCT","admin2":"W3","admin3":"","admin4":"","population":797,"elevation":0,"gtopo30":72,"timezone":"Europe/London","moddate":"2012-11-28T00:00:00.000Z"},{"geonameid":11240130,"name":"Tangwick","asciiname":"Tangwick","alternatenames":"","latitude":"60.4845200","longitude":"-1.5806600","fclass":"P","fcode":"PPL","country":"GB","cc2":"","admin1":"SCT","admin2":"W3","admin3":"","admin4":"","population":0,"elevation":0,"gtopo30":1,"timezone":"Europe/London","moddate":"2016-09-10T00:00:00.000Z"},{"geonameid":2635795,"name":"Tingwall","asciiname":"Tingwall","alternatenames":"Tingwall","latitude":"60.1666700","longitude":"-1.2333300","fclass":"P","fcode":"PPL","country":"GB","cc2":"","admin1":"SCT","admin2":"W3","admin3":"","admin4":"","population":0,"elevation":0,"gtopo30":31,"timezone":"Europe/London","moddate":"2012-02-01T00:00:00.000Z"},{"geonameid":2635713,"name":"Toab","asciiname":"Toab","alternatenames":"Toab,Tolob","latitude":"59.8919500","longitude":"-1.3122200","fclass":"P","fcode":"PPL","country":"GB","cc2":"GB","admin1":"SCT","admin2":"W3","admin3":"","admin4":"","population":0,"elevation":0,"gtopo30":34,"timezone":"Europe/London","moddate":"2014-10-27T00:00:00.000Z"},{"geonameid":10277905,"name":"Tresta","asciiname":"Tresta","alternatenames":"","latitude":"60.5951000","longitude":"-0.8903600","fclass":"P","fcode":"PPL","country":"GB","cc2":"","admin1":"SCT","admin2":"W3","admin3":"","admin4":"","population":0,"elevation":0,"gtopo30":11,"timezone":"Europe/London","moddate":"2015-05-10T00:00:00.000Z"},{"geonameid":2635486,"name":"Tresta","asciiname":"Tresta","alternatenames":"","latitude":"60.2432600","longitude":"-1.3474500","fclass":"P","fcode":"PPL","country":"GB","cc2":"","admin1":"SCT","admin2":"W3","admin3":"","admin4":"","population":0,"elevation":0,"gtopo30":154,"timezone":"Europe/London","moddate":"2011-03-03T00:00:00.000Z"},{"geonameid":2635320,"name":"Twatt","asciiname":"Twatt","alternatenames":"Twatt","latitude":"60.2666700","longitude":"-1.4166700","fclass":"P","fcode":"PPL","country":"GB","cc2":"","admin1":"SCT","admin2":"W3","admin3":"","admin4":"","population":0,"elevation":0,"gtopo30":20,"timezone":"Europe/London","moddate":"2012-01-17T00:00:00.000Z"},{"geonameid":2635188,"name":"Ulsta","asciiname":"Ulsta","alternatenames":"Ulsta","latitude":"60.5000000","longitude":"-1.1500000","fclass":"P","fcode":"PPL","country":"GB","cc2":"","admin1":"SCT","admin2":"W3","admin3":"","admin4":"","population":0,"elevation":0,"gtopo30":2,"timezone":"Europe/London","moddate":"2012-01-17T00:00:00.000Z"},{"geonameid":8426372,"name":"Uyeasound","asciiname":"Uyeasound","alternatenames":"","latitude":"60.6889700","longitude":"-0.9182200","fclass":"P","fcode":"PPL","country":"GB","cc2":"","admin1":"SCT","admin2":"W3","admin3":"","admin4":"","population":10,"elevation":0,"gtopo30":-9999,"timezone":"Europe/London","moddate":"2012-11-28T00:00:00.000Z"},{"geonameid":11240131,"name":"Valsgarth","asciiname":"Valsgarth","alternatenames":"","latitude":"60.7958900","longitude":"-0.8176200","fclass":"P","fcode":"PPL","country":"GB","cc2":"","admin1":"SCT","admin2":"W3","admin3":"","admin4":"","population":0,"elevation":0,"gtopo30":49,"timezone":"Europe/London","moddate":"2016-09-10T00:00:00.000Z"},{"geonameid":6693639,"name":"Veensgarth","asciiname":"Veensgarth","alternatenames":"","latitude":"60.1831800","longitude":"-1.2302100","fclass":"P","fcode":"PPL","country":"GB","cc2":"","admin1":"SCT","admin2":"W3","admin3":"","admin4":"","population":0,"elevation":0,"gtopo30":7,"timezone":"Europe/London","moddate":"2010-05-25T00:00:00.000Z"},{"geonameid":2634950,"name":"Virkie","asciiname":"Virkie","alternatenames":"Virkie","latitude":"59.8866500","longitude":"-1.3076700","fclass":"P","fcode":"PPL","country":"GB","cc2":"","admin1":"SCT","admin2":"W3","admin3":"","admin4":"","population":0,"elevation":0,"gtopo30":27,"timezone":"Europe/London","moddate":"2014-10-27T00:00:00.000Z"},{"geonameid":2634946,"name":"Voe","asciiname":"Voe","alternatenames":"","latitude":"60.5166700","longitude":"-1.3833300","fclass":"P","fcode":"PPL","country":"GB","cc2":"","admin1":"SCT","admin2":"W3","admin3":"","admin4":"","population":0,"elevation":0,"gtopo30":53,"timezone":"Europe/London","moddate":"2004-09-24T00:00:00.000Z"},{"geonameid":2634947,"name":"Voe","asciiname":"Voe","alternatenames":"","latitude":"60.3556200","longitude":"-1.2623000","fclass":"P","fcode":"PPL","country":"GB","cc2":"","admin1":"SCT","admin2":"W3","admin3":"","admin4":"","population":0,"elevation":0,"gtopo30":77,"timezone":"Europe/London","moddate":"2011-03-03T00:00:00.000Z"},{"geonameid":2634865,"name":"Walls","asciiname":"Walls","alternatenames":"Waas","latitude":"60.2287400","longitude":"-1.5631300","fclass":"P","fcode":"PPL","country":"GB","cc2":"","admin1":"SCT","admin2":"W3","admin3":"","admin4":"","population":0,"elevation":0,"gtopo30":1,"timezone":"Europe/London","moddate":"2012-11-28T00:00:00.000Z"},{"geonameid":11256862,"name":"Weisdale","asciiname":"Weisdale","alternatenames":"","latitude":"60.2537300","longitude":"-1.2912400","fclass":"P","fcode":"PPL","country":"GB","cc2":"","admin1":"SCT","admin2":"W3","admin3":"","admin4":"","population":0,"elevation":0,"gtopo30":96,"timezone":"Europe/London","moddate":"2016-09-11T00:00:00.000Z"},{"geonameid":2634426,"name":"Wester Quarff","asciiname":"Wester Quarff","alternatenames":"","latitude":"60.0951200","longitude":"-1.2647800","fclass":"P","fcode":"PPL","country":"GB","cc2":"","admin1":"SCT","admin2":"W3","admin3":"","admin4":"","population":0,"elevation":0,"gtopo30":105,"timezone":"Europe/London","moddate":"2011-03-03T00:00:00.000Z"}],"admin3":[],"alternateNames":[]},"__N_SSG":true}