{"pageProps":{"locale":"ro","admin2":{"geonameid":677008,"name":"Comuna Godeanu","country":"RO","admin1":"26","admin2":"111818","admin3":"","latitude":"44.8080800","longitude":"22.6087000"},"admin1":{"geonameid":673612,"name":"Mehedinţi","admin1":"26"},"locations":[{"geonameid":677010,"name":"Godeanu","asciiname":"Godeanu","alternatenames":"Godeanu,Godeanul","latitude":"44.8011100","longitude":"22.6086100","fclass":"P","fcode":"PPLA2","country":"RO","cc2":"","admin1":"26","admin2":"111818","admin3":"","admin4":"","population":766,"elevation":0,"gtopo30":648,"timezone":"Europe/Bucharest","moddate":"2012-06-12T00:00:00.000Z"},{"geonameid":673830,"name":"Marga","asciiname":"Marga","alternatenames":"","latitude":"44.8175800","longitude":"22.5841800","fclass":"P","fcode":"PPL","country":"RO","cc2":"","admin1":"26","admin2":"111818","admin3":"","admin4":"","population":95,"elevation":0,"gtopo30":580,"timezone":"Europe/Bucharest","moddate":"2013-04-21T00:00:00.000Z"},{"geonameid":671211,"name":"Păunești","asciiname":"Paunesti","alternatenames":"Haunesti,Hăuneşti,Paunesti,Păuneşti","latitude":"44.7867200","longitude":"22.6328300","fclass":"P","fcode":"PPL","country":"RO","cc2":"RO","admin1":"26","admin2":"111818","admin3":"","admin4":"","population":218,"elevation":0,"gtopo30":505,"timezone":"Europe/Bucharest","moddate":"2013-04-21T00:00:00.000Z"},{"geonameid":666805,"name":"Șiroca","asciiname":"Siroca","alternatenames":"Siroca,Siroka,Şiroca","latitude":"44.8274900","longitude":"22.6098600","fclass":"P","fcode":"PPL","country":"RO","cc2":"RO","admin1":"26","admin2":"111818","admin3":"","admin4":"","population":218,"elevation":0,"gtopo30":646,"timezone":"Europe/Bucharest","moddate":"2013-04-21T00:00:00.000Z"}],"admin3":[],"alternateNames":[]},"__N_SSG":true}