{"pageProps":{"locale":"ro","admin2":{"geonameid":8334872,"name":"Comuna Hilişeu-Horia","country":"RO","admin1":"07","admin2":"37672","admin3":"","latitude":"48.0133600","longitude":"26.2968500"},"admin1":{"geonameid":684038,"name":"Botoşani","admin1":"07"},"locations":[{"geonameid":680824,"name":"Corjăuți","asciiname":"Corjauti","alternatenames":"Corjauti,Corjeuti,Corjeuţi,Corjăuţi","latitude":"48.0336600","longitude":"26.2744700","fclass":"P","fcode":"PPL","country":"RO","cc2":"RO","admin1":"07","admin2":"37672","admin3":"","admin4":"","population":504,"elevation":0,"gtopo30":216,"timezone":"Europe/Bucharest","moddate":"2013-04-21T00:00:00.000Z"},{"geonameid":677329,"name":"Ghiorţani","asciiname":"Ghiortani","alternatenames":"","latitude":"48.0333300","longitude":"26.3000000","fclass":"P","fcode":"PPLX","country":"RO","cc2":"","admin1":"07","admin2":"37672","admin3":"","admin4":"","population":0,"elevation":0,"gtopo30":226,"timezone":"Europe/Bucharest","moddate":"2016-02-07T00:00:00.000Z"},{"geonameid":676196,"name":"Hilișeu-Cloșca","asciiname":"Hiliseu-Closca","alternatenames":"Gafencu,Hiliseu,Hiliseu-Closca,Hiliseu-Cloşca,Hiliseu-Gafencu,Hiliseul Cafency,Hilişeu,Hilişeu-Gafencu,Hilişeul Cafency","latitude":"48.0153300","longitude":"26.3346600","fclass":"P","fcode":"PPL","country":"RO","cc2":"RO","admin1":"07","admin2":"37672","admin3":"","admin4":"","population":656,"elevation":0,"gtopo30":165,"timezone":"Europe/Bucharest","moddate":"2013-04-21T00:00:00.000Z"},{"geonameid":676195,"name":"Hilișeu-Crișan","asciiname":"Hiliseu-Crisan","alternatenames":"Hiliseu Virnav,Hiliseu-Crisan,Hiliseu-Varnav,Hiliseul Varnav,Hiliseul Vârnav,Hilişeu Vîrnav,Hilişeu-Crişan,Hilişeu-Vârnav","latitude":"48.0360600","longitude":"26.2368600","fclass":"P","fcode":"PPL","country":"RO","cc2":"RO","admin1":"07","admin2":"37672","admin3":"","admin4":"","population":961,"elevation":0,"gtopo30":195,"timezone":"Europe/Bucharest","moddate":"2013-04-21T00:00:00.000Z"},{"geonameid":676194,"name":"Hilişeu-Horia","asciiname":"Hiliseu-Horia","alternatenames":"Hiliseu-Curt,Hiliseu-Horia,Hiliseul Curt,Hilişeu-Curt,Hilişeu-Horia,Hilişeul Curt","latitude":"48.0333300","longitude":"26.2500000","fclass":"P","fcode":"PPLA2","country":"RO","cc2":"","admin1":"07","admin2":"37672","admin3":"","admin4":"","population":3684,"elevation":0,"gtopo30":201,"timezone":"Europe/Bucharest","moddate":"2012-06-12T00:00:00.000Z"},{"geonameid":678520,"name":"Iezer","asciiname":"Iezer","alternatenames":"","latitude":"47.9832100","longitude":"26.3333800","fclass":"P","fcode":"PPL","country":"RO","cc2":"","admin1":"07","admin2":"37672","admin3":"","admin4":"","population":547,"elevation":0,"gtopo30":215,"timezone":"Europe/Bucharest","moddate":"2013-04-21T00:00:00.000Z"}],"admin3":[],"alternateNames":[]},"__N_SSG":true}