{"pageProps":{"locale":"ro","admin2":{"geonameid":671599,"name":"Comuna Oteşani","country":"RO","admin1":"39","admin2":"171931","admin3":"","latitude":"45.0480700","longitude":"24.0398900"},"admin1":{"geonameid":662892,"name":"Vâlcea","admin1":"39"},"locations":[{"geonameid":684404,"name":"Bogdănești","asciiname":"Bogdanesti","alternatenames":"","latitude":"45.0339800","longitude":"24.0519300","fclass":"P","fcode":"PPL","country":"RO","cc2":"","admin1":"39","admin2":"171931","admin3":"","admin4":"","population":474,"elevation":0,"gtopo30":319,"timezone":"Europe/Bucharest","moddate":"2013-04-21T00:00:00.000Z"},{"geonameid":683323,"name":"Bulenii","asciiname":"Bulenii","alternatenames":"","latitude":"45.0833300","longitude":"24.0166700","fclass":"P","fcode":"PPLX","country":"RO","cc2":"","admin1":"39","admin2":"171931","admin3":"","admin4":"","population":0,"elevation":0,"gtopo30":376,"timezone":"Europe/Bucharest","moddate":"2016-02-07T00:00:00.000Z"},{"geonameid":681531,"name":"Cârstăneşti","asciiname":"Carstanesti","alternatenames":"Carstanesti,Cirstanesti,Cârstăneşti,Cîrstăneşti","latitude":"45.0500000","longitude":"24.0500000","fclass":"P","fcode":"PPL","country":"RO","cc2":"RO","admin1":"39","admin2":"171931","admin3":"","admin4":"","population":0,"elevation":0,"gtopo30":445,"timezone":"Europe/Bucharest","moddate":"2020-03-08T00:00:00.000Z"},{"geonameid":680049,"name":"Cucești","asciiname":"Cucesti","alternatenames":"","latitude":"45.0234100","longitude":"24.0640600","fclass":"P","fcode":"PPL","country":"RO","cc2":"","admin1":"39","admin2":"171931","admin3":"","admin4":"","population":298,"elevation":0,"gtopo30":316,"timezone":"Europe/Bucharest","moddate":"2013-04-21T00:00:00.000Z"},{"geonameid":674257,"name":"Lupuleşti","asciiname":"Lupulesti","alternatenames":"","latitude":"45.0833300","longitude":"24.0000000","fclass":"P","fcode":"PPLX","country":"RO","cc2":"","admin1":"39","admin2":"171931","admin3":"","admin4":"","population":0,"elevation":0,"gtopo30":486,"timezone":"Europe/Bucharest","moddate":"2016-02-07T00:00:00.000Z"},{"geonameid":672621,"name":"Muret","asciiname":"Muret","alternatenames":"Muret,Muretu","latitude":"45.0500000","longitude":"24.0500000","fclass":"P","fcode":"PPL","country":"RO","cc2":"","admin1":"39","admin2":"171931","admin3":"","admin4":"","population":0,"elevation":0,"gtopo30":445,"timezone":"Europe/Bucharest","moddate":"2016-02-07T00:00:00.000Z"},{"geonameid":672446,"name":"Necşoaia","asciiname":"Necsoaia","alternatenames":"Necsoaia,Necşoaia,Nicsoaia,Nicşoaia","latitude":"45.0833300","longitude":"24.0166700","fclass":"P","fcode":"PPLX","country":"RO","cc2":"","admin1":"39","admin2":"171931","admin3":"","admin4":"","population":0,"elevation":0,"gtopo30":376,"timezone":"Europe/Bucharest","moddate":"2016-02-07T00:00:00.000Z"},{"geonameid":671600,"name":"Oteşani","asciiname":"Otesani","alternatenames":"Otesani,Oteşani","latitude":"45.0666700","longitude":"24.0333300","fclass":"P","fcode":"PPLA2","country":"RO","cc2":"","admin1":"39","admin2":"171931","admin3":"","admin4":"","population":3001,"elevation":0,"gtopo30":360,"timezone":"Europe/Bucharest","moddate":"2012-06-12T00:00:00.000Z"},{"geonameid":665867,"name":"Sub Deal","asciiname":"Sub Deal","alternatenames":"","latitude":"45.0632300","longitude":"24.0083900","fclass":"P","fcode":"PPL","country":"RO","cc2":"","admin1":"39","admin2":"171931","admin3":"","admin4":"","population":97,"elevation":0,"gtopo30":495,"timezone":"Europe/Bucharest","moddate":"2013-04-21T00:00:00.000Z"},{"geonameid":665865,"name":"Sub Dos","asciiname":"Sub Dos","alternatenames":"","latitude":"45.0666700","longitude":"24.0333300","fclass":"P","fcode":"PPLX","country":"RO","cc2":"","admin1":"39","admin2":"171931","admin3":"","admin4":"","population":0,"elevation":0,"gtopo30":360,"timezone":"Europe/Bucharest","moddate":"2016-02-07T00:00:00.000Z"}],"admin3":[],"alternateNames":[]},"__N_SSG":true}