{"pageProps":{"locale":"ro","admin2":{"geonameid":678202,"name":"Comuna Finta","country":"RO","admin1":"16","admin2":"67470","admin3":"","latitude":"44.7937000","longitude":"25.7992600"},"admin1":{"geonameid":679385,"name":"Dâmboviţa","admin1":"16"},"locations":[{"geonameid":685192,"name":"Bechinești","asciiname":"Bechinesti","alternatenames":"Becheinesti,Becheineşti,Bechenestii,Becheneştii,Beghinesti,Beghineşti","latitude":"44.7909300","longitude":"25.8170200","fclass":"P","fcode":"PPL","country":"RO","cc2":"RO","admin1":"16","admin2":"67470","admin3":"","admin4":"","population":760,"elevation":0,"gtopo30":151,"timezone":"Europe/Bucharest","moddate":"2013-04-21T00:00:00.000Z"},{"geonameid":678200,"name":"Finta Mare","asciiname":"Finta Mare","alternatenames":"Finta,Finta Mare","latitude":"44.8000000","longitude":"25.8000000","fclass":"P","fcode":"PPL","country":"RO","cc2":"","admin1":"16","admin2":"67470","admin3":"","admin4":"","population":4613,"elevation":0,"gtopo30":155,"timezone":"Europe/Bucharest","moddate":"2016-02-07T00:00:00.000Z"},{"geonameid":678199,"name":"Finta Veche","asciiname":"Finta Veche","alternatenames":"","latitude":"44.7913100","longitude":"25.8362000","fclass":"P","fcode":"PPL","country":"RO","cc2":"","admin1":"16","admin2":"67470","admin3":"","admin4":"","population":268,"elevation":0,"gtopo30":146,"timezone":"Europe/Bucharest","moddate":"2013-04-21T00:00:00.000Z"},{"geonameid":677489,"name":"Gheboaia","asciiname":"Gheboaia","alternatenames":"","latitude":"44.8020300","longitude":"25.7487500","fclass":"P","fcode":"PPL","country":"RO","cc2":"","admin1":"16","admin2":"67470","admin3":"","admin4":"","population":2336,"elevation":0,"gtopo30":167,"timezone":"Europe/Bucharest","moddate":"2013-04-21T00:00:00.000Z"},{"geonameid":665689,"name":"Suseni","asciiname":"Suseni","alternatenames":"Suseni,Suzeni","latitude":"44.7666700","longitude":"25.7833300","fclass":"P","fcode":"PPLX","country":"RO","cc2":"","admin1":"16","admin2":"67470","admin3":"","admin4":"","population":0,"elevation":0,"gtopo30":153,"timezone":"Europe/Bucharest","moddate":"2016-02-07T00:00:00.000Z"}],"admin3":[],"alternateNames":[]},"__N_SSG":true}