{"pageProps":{"locale":"ro","admin2":{"geonameid":676753,"name":"Comuna Greci","country":"RO","admin1":"26","admin2":"111916","admin3":"","latitude":"44.5716200","longitude":"23.1074500"},"admin1":{"geonameid":673612,"name":"Mehedinţi","admin1":"26"},"locations":[{"geonameid":684845,"name":"Bâltanele","asciiname":"Baltanele","alternatenames":"Baltanele,Biltanele,Bâltanele,Bîltanele","latitude":"44.5786500","longitude":"23.1479800","fclass":"P","fcode":"PPL","country":"RO","cc2":"RO","admin1":"26","admin2":"111916","admin3":"","admin4":"","population":476,"elevation":0,"gtopo30":190,"timezone":"Europe/Bucharest","moddate":"2013-04-21T00:00:00.000Z"},{"geonameid":684571,"name":"Blidaru","asciiname":"Blidaru","alternatenames":"","latitude":"44.5592800","longitude":"23.0700300","fclass":"P","fcode":"PPL","country":"RO","cc2":"","admin1":"26","admin2":"111916","admin3":"","admin4":"","population":62,"elevation":0,"gtopo30":231,"timezone":"Europe/Bucharest","moddate":"2013-04-21T00:00:00.000Z"},{"geonameid":682562,"name":"Cătăneşti","asciiname":"Catanesti","alternatenames":"","latitude":"44.5500000","longitude":"23.0833300","fclass":"P","fcode":"PPLX","country":"RO","cc2":"","admin1":"26","admin2":"111916","admin3":"","admin4":"","population":0,"elevation":0,"gtopo30":324,"timezone":"Europe/Bucharest","moddate":"2016-02-07T00:00:00.000Z"},{"geonameid":680273,"name":"Creţeşti","asciiname":"Cretesti","alternatenames":"","latitude":"44.5666700","longitude":"23.1333300","fclass":"P","fcode":"PPLX","country":"RO","cc2":"","admin1":"26","admin2":"111916","admin3":"","admin4":"","population":0,"elevation":0,"gtopo30":232,"timezone":"Europe/Bucharest","moddate":"2016-02-07T00:00:00.000Z"},{"geonameid":678598,"name":"Duţeşti","asciiname":"Dutesti","alternatenames":"","latitude":"44.5500000","longitude":"23.0666700","fclass":"P","fcode":"PPLX","country":"RO","cc2":"","admin1":"26","admin2":"111916","admin3":"","admin4":"","population":0,"elevation":0,"gtopo30":280,"timezone":"Europe/Bucharest","moddate":"2016-02-07T00:00:00.000Z"},{"geonameid":676758,"name":"Greci","asciiname":"Greci","alternatenames":"Grec,Greci","latitude":"44.5500000","longitude":"23.1166700","fclass":"P","fcode":"PPLA2","country":"RO","cc2":"","admin1":"26","admin2":"111916","admin3":"","admin4":"","population":1508,"elevation":0,"gtopo30":220,"timezone":"Europe/Bucharest","moddate":"2012-06-12T00:00:00.000Z"},{"geonameid":668227,"name":"Sălătruc","asciiname":"Salatruc","alternatenames":"Salatrucu,Salatrucul,Sălătrucu","latitude":"44.5737300","longitude":"23.0952200","fclass":"P","fcode":"PPL","country":"RO","cc2":"RO","admin1":"26","admin2":"111916","admin3":"","admin4":"","population":255,"elevation":0,"gtopo30":238,"timezone":"Europe/Bucharest","moddate":"2013-04-21T00:00:00.000Z"},{"geonameid":663525,"name":"Valea Petrii","asciiname":"Valea Petrii","alternatenames":"Valea Petrei,Valea Petrii","latitude":"44.5830200","longitude":"23.0935900","fclass":"P","fcode":"PPL","country":"RO","cc2":"RO","admin1":"26","admin2":"111916","admin3":"","admin4":"","population":65,"elevation":0,"gtopo30":248,"timezone":"Europe/Bucharest","moddate":"2013-04-20T00:00:00.000Z"},{"geonameid":662696,"name":"Vișina","asciiname":"Visina","alternatenames":"Vargati,Visina,Vişina,Vărgaţi","latitude":"44.5730700","longitude":"23.1280600","fclass":"P","fcode":"PPL","country":"RO","cc2":"RO","admin1":"26","admin2":"111916","admin3":"","admin4":"","population":24,"elevation":0,"gtopo30":252,"timezone":"Europe/Bucharest","moddate":"2013-04-20T00:00:00.000Z"}],"admin3":[],"alternateNames":[]},"__N_SSG":true}