{"pageProps":{"locale":"ro","admin2":{"geonameid":676036,"name":"Comuna Hopârta","country":"RO","admin1":"01","admin2":"4703","admin3":"","latitude":"46.3313400","longitude":"23.9034000"},"admin1":{"geonameid":686581,"name":"Alba","admin1":"01"},"locations":[{"geonameid":676037,"name":"Hopârta","asciiname":"Hoparta","alternatenames":"Hoparta,Hopirta,Hopârţa,Hopîrta","latitude":"46.3213400","longitude":"23.8724400","fclass":"P","fcode":"PPLA2","country":"RO","cc2":"RO","admin1":"01","admin2":"4703","admin3":"","admin4":"","population":407,"elevation":0,"gtopo30":321,"timezone":"Europe/Bucharest","moddate":"2013-04-21T00:00:00.000Z"},{"geonameid":667159,"name":"Silivaș","asciiname":"Silivas","alternatenames":"","latitude":"46.3414800","longitude":"23.8758500","fclass":"P","fcode":"PPL","country":"RO","cc2":"","admin1":"01","admin2":"4703","admin3":"","admin4":"","population":218,"elevation":0,"gtopo30":341,"timezone":"Europe/Bucharest","moddate":"2013-04-21T00:00:00.000Z"},{"geonameid":666387,"name":"Șpălnaca","asciiname":"Spalnaca","alternatenames":"","latitude":"46.3412300","longitude":"23.9083300","fclass":"P","fcode":"PPL","country":"RO","cc2":"","admin1":"01","admin2":"4703","admin3":"","admin4":"","population":329,"elevation":0,"gtopo30":316,"timezone":"Europe/Bucharest","moddate":"2013-04-21T00:00:00.000Z"},{"geonameid":664458,"name":"Turdaș","asciiname":"Turdas","alternatenames":"","latitude":"46.3062000","longitude":"23.9184100","fclass":"P","fcode":"PPL","country":"RO","cc2":"","admin1":"01","admin2":"4703","admin3":"","admin4":"","population":361,"elevation":0,"gtopo30":343,"timezone":"Europe/Bucharest","moddate":"2013-04-21T00:00:00.000Z"},{"geonameid":663218,"name":"Vama Seacă","asciiname":"Vama Seaca","alternatenames":"","latitude":"46.3464700","longitude":"23.9419600","fclass":"P","fcode":"PPL","country":"RO","cc2":"","admin1":"01","admin2":"4703","admin3":"","admin4":"","population":243,"elevation":0,"gtopo30":303,"timezone":"Europe/Bucharest","moddate":"2013-04-20T00:00:00.000Z"}],"admin3":[],"alternateNames":[]},"__N_SSG":true}