{"pageProps":{"locale":"ro","admin2":{"geonameid":664151,"name":"Comuna Uriu","country":"RO","admin1":"06","admin2":"35269","admin3":"","latitude":"47.2120200","longitude":"24.0775500"},"admin1":{"geonameid":684647,"name":"Bistriţa-Năsăud","admin1":"06"},"locations":[{"geonameid":680171,"name":"Cristeștii Ciceului","asciiname":"Cristestii Ciceului","alternatenames":"Cristestii Ciceiului,Cristestii-Ciceului,Cristeştii Ciceiului,Cristeştii-Ciceului","latitude":"47.1932600","longitude":"24.0960500","fclass":"P","fcode":"PPL","country":"RO","cc2":"RO","admin1":"06","admin2":"35269","admin3":"","admin4":"","population":1130,"elevation":0,"gtopo30":248,"timezone":"Europe/Bucharest","moddate":"2013-04-21T00:00:00.000Z"},{"geonameid":676283,"name":"Hășmașu Ciceului","asciiname":"Hasmasu Ciceului","alternatenames":"Hasmasu Ciceului,Hasmasul Ciceului,Hăsmaşul Ciceului,Hăşmaşu Ciceului","latitude":"47.2317700","longitude":"24.0606700","fclass":"P","fcode":"PPL","country":"RO","cc2":"RO","admin1":"06","admin2":"35269","admin3":"","admin4":"","population":330,"elevation":0,"gtopo30":400,"timezone":"Europe/Bucharest","moddate":"2013-04-21T00:00:00.000Z"},{"geonameid":675647,"name":"Ilișua","asciiname":"Ilisua","alternatenames":"","latitude":"47.2186900","longitude":"24.0905300","fclass":"P","fcode":"PPL","country":"RO","cc2":"","admin1":"06","admin2":"35269","admin3":"","admin4":"","population":738,"elevation":0,"gtopo30":258,"timezone":"Europe/Bucharest","moddate":"2013-04-21T00:00:00.000Z"},{"geonameid":664152,"name":"Uriu","asciiname":"Uriu","alternatenames":"Uri,Uriu,Uriul,Uriul-de-Sus","latitude":"47.2000000","longitude":"24.0500000","fclass":"P","fcode":"PPLA2","country":"RO","cc2":"","admin1":"06","admin2":"35269","admin3":"","admin4":"","population":3572,"elevation":0,"gtopo30":247,"timezone":"Europe/Bucharest","moddate":"2012-06-12T00:00:00.000Z"}],"admin3":[],"alternateNames":[]},"__N_SSG":true}