{"pageProps":{"locale":"ro","admin2":{"geonameid":663445,"name":"Comuna Valea Sării","country":"RO","admin1":"40","admin2":"178313","admin3":"","latitude":"45.8789200","longitude":"26.8082300"},"admin1":{"geonameid":662447,"name":"Vrancea","admin1":"40","localeAltName":"Vrancea"},"locations":[{"geonameid":681133,"name":"Colacu","asciiname":"Colacu","alternatenames":"Colacu,Colacul","latitude":"45.8897300","longitude":"26.8290800","fclass":"P","fcode":"PPL","country":"RO","cc2":"RO","admin1":"40","admin2":"178313","admin3":"","admin4":"","population":799,"elevation":0,"gtopo30":326,"timezone":"Europe/Bucharest","moddate":"2013-04-21T00:00:00.000Z"},{"geonameid":680758,"name":"Cornet","asciiname":"Cornet","alternatenames":"Cornet,Cornetul,Gornetu","latitude":"45.9000000","longitude":"26.8000000","fclass":"P","fcode":"PPL","country":"RO","cc2":"","admin1":"40","admin2":"178313","admin3":"","admin4":"","population":0,"elevation":0,"gtopo30":442,"timezone":"Europe/Bucharest","moddate":"2016-02-07T00:00:00.000Z"},{"geonameid":673700,"name":"Mătăcina","asciiname":"Matacina","alternatenames":"","latitude":"45.8833300","longitude":"26.8000000","fclass":"P","fcode":"PPL","country":"RO","cc2":"","admin1":"40","admin2":"178313","admin3":"","admin4":"","population":2093,"elevation":0,"gtopo30":378,"timezone":"Europe/Bucharest","moddate":"2016-02-07T00:00:00.000Z"},{"geonameid":670276,"name":"Poduri","asciiname":"Poduri","alternatenames":"Poduri,Podurile","latitude":"45.8813200","longitude":"26.8226300","fclass":"P","fcode":"PPL","country":"RO","cc2":"RO","admin1":"40","admin2":"178313","admin3":"","admin4":"","population":398,"elevation":0,"gtopo30":332,"timezone":"Europe/Bucharest","moddate":"2013-04-21T00:00:00.000Z"},{"geonameid":669624,"name":"Prisaca","asciiname":"Prisaca","alternatenames":"","latitude":"45.8636000","longitude":"26.7825600","fclass":"P","fcode":"PPL","country":"RO","cc2":"","admin1":"40","admin2":"178313","admin3":"","admin4":"","population":226,"elevation":0,"gtopo30":310,"timezone":"Europe/Bucharest","moddate":"2013-04-21T00:00:00.000Z"},{"geonameid":663447,"name":"Valea Sării","asciiname":"Valea Sarii","alternatenames":"Valea Sarii,Valea Sării,Valea-Sarei,Valea-Sărei","latitude":"45.8768600","longitude":"26.7987300","fclass":"P","fcode":"PPLA2","country":"RO","cc2":"RO","admin1":"40","admin2":"178313","admin3":"","admin4":"","population":545,"elevation":0,"gtopo30":353,"timezone":"Europe/Bucharest","moddate":"2013-04-20T00:00:00.000Z"}],"admin3":[],"alternateNames":[{"alternatenameId":391637,"geonameid":662447,"isoLanguage":"ro","alternateName":"Vrancea","isPreferredName":true,"isShortName":true,"isColloquial":false,"isHistoric":false}]},"__N_SSG":true}