{"pageProps":{"locale":"ro","admin2":{"geonameid":683053,"name":"Comuna Căianu","country":"RO","admin1":"06","admin2":"32811","admin3":"","latitude":"47.2538900","longitude":"24.1344000"},"admin1":{"geonameid":684647,"name":"Bistriţa-Năsăud","admin1":"06"},"locations":[{"geonameid":683052,"name":"Căianu Mare","asciiname":"Caianu Mare","alternatenames":"Caianu Mare,Caianul-Mare,Căianu Mare","latitude":"47.2326800","longitude":"24.1637500","fclass":"P","fcode":"PPL","country":"RO","cc2":"RO","admin1":"06","admin2":"32811","admin3":"","admin4":"","population":718,"elevation":0,"gtopo30":284,"timezone":"Europe/Bucharest","moddate":"2013-04-21T00:00:00.000Z"},{"geonameid":683050,"name":"Căianu Mic","asciiname":"Caianu Mic","alternatenames":"Caianu Mic,Caianul-Mic,Căianu Mic","latitude":"47.2333300","longitude":"24.1500000","fclass":"P","fcode":"PPL","country":"RO","cc2":"","admin1":"06","admin2":"32811","admin3":"","admin4":"","population":5340,"elevation":0,"gtopo30":276,"timezone":"Europe/Bucharest","moddate":"2020-06-10T00:00:00.000Z"},{"geonameid":681947,"name":"Ciceu-Poieni","asciiname":"Ciceu-Poieni","alternatenames":"Ciceu-Poeni,Ciceu-Poieni","latitude":"47.3001900","longitude":"24.0888700","fclass":"P","fcode":"PPL","country":"RO","cc2":"RO","admin1":"06","admin2":"32811","admin3":"","admin4":"","population":965,"elevation":0,"gtopo30":383,"timezone":"Europe/Bucharest","moddate":"2013-04-21T00:00:00.000Z"},{"geonameid":679241,"name":"Dobric","asciiname":"Dobric","alternatenames":"","latitude":"47.2469000","longitude":"24.1277700","fclass":"P","fcode":"PPL","country":"RO","cc2":"","admin1":"06","admin2":"32811","admin3":"","admin4":"","population":1110,"elevation":0,"gtopo30":283,"timezone":"Europe/Bucharest","moddate":"2013-04-21T00:00:00.000Z"}],"admin3":[],"alternateNames":[]},"__N_SSG":true}