{"pageProps":{"locale":"ro","admin2":{"geonameid":679212,"name":"Comuna Dobrosloveni","country":"RO","admin1":"29","admin2":"126718","admin3":"","latitude":"44.1735600","longitude":"24.3655800"},"admin1":{"geonameid":671857,"name":"Olt","admin1":"29"},"locations":[{"geonameid":679213,"name":"Dobrosloveni","asciiname":"Dobrosloveni","alternatenames":"Dobrosloveni,Ion Gheorghe Duca","latitude":"44.1833300","longitude":"24.3666700","fclass":"P","fcode":"PPLA2","country":"RO","cc2":"","admin1":"29","admin2":"126718","admin3":"","admin4":"","population":3821,"elevation":0,"gtopo30":100,"timezone":"Europe/Bucharest","moddate":"2012-06-12T00:00:00.000Z"},{"geonameid":677946,"name":"Frăsinetu","asciiname":"Frasinetu","alternatenames":"Frasinet,Frasinetu,Frasinetu Padure,Frasinetul,Frăsinet,Frăsinetu,Frăsinetu Pădure,Frăsinetul","latitude":"44.1570400","longitude":"24.3234800","fclass":"P","fcode":"PPL","country":"RO","cc2":"RO","admin1":"29","admin2":"126718","admin3":"","admin4":"","population":491,"elevation":0,"gtopo30":114,"timezone":"Europe/Bucharest","moddate":"2013-04-21T00:00:00.000Z"},{"geonameid":669744,"name":"Potopinu","asciiname":"Potopinu","alternatenames":"Potopinu,Potopinul","latitude":"44.1937500","longitude":"24.3533800","fclass":"P","fcode":"PPL","country":"RO","cc2":"RO","admin1":"29","admin2":"126718","admin3":"","admin4":"","population":698,"elevation":0,"gtopo30":103,"timezone":"Europe/Bucharest","moddate":"2013-04-21T00:00:00.000Z"},{"geonameid":668958,"name":"Reșca","asciiname":"Resca","alternatenames":"","latitude":"44.1726500","longitude":"24.3924300","fclass":"P","fcode":"PPL","country":"RO","cc2":"","admin1":"29","admin2":"126718","admin3":"","admin4":"","population":855,"elevation":0,"gtopo30":85,"timezone":"Europe/Bucharest","moddate":"2013-04-21T00:00:00.000Z"},{"geonameid":668957,"name":"Reșcuța","asciiname":"Rescuta","alternatenames":"","latitude":"44.1707300","longitude":"24.4023200","fclass":"P","fcode":"PPL","country":"RO","cc2":"","admin1":"29","admin2":"126718","admin3":"","admin4":"","population":484,"elevation":0,"gtopo30":83,"timezone":"Europe/Bucharest","moddate":"2013-04-21T00:00:00.000Z"}],"admin3":[],"alternateNames":[]},"__N_SSG":true}