{"pageProps":{"locale":"ro","admin2":{"geonameid":680159,"name":"Comuna Criștioru de Jos","country":"RO","admin1":"05","admin2":"28889","admin3":"","latitude":"46.4233300","longitude":"22.5656500"},"admin1":{"geonameid":684878,"name":"Bihor","admin1":"05"},"locations":[{"geonameid":684868,"name":"Bâlc","asciiname":"Balc","alternatenames":"Balc,Bilc,Bâlc,Bîlc","latitude":"46.4031400","longitude":"22.5945600","fclass":"P","fcode":"PPL","country":"RO","cc2":"RO","admin1":"05","admin2":"28889","admin3":"","admin4":"","population":42,"elevation":0,"gtopo30":646,"timezone":"Europe/Bucharest","moddate":"2013-04-21T00:00:00.000Z"},{"geonameid":680158,"name":"Criştioru de Jos","asciiname":"Cristioru de Jos","alternatenames":"Alsokristyor,Alsókristyór,Biharkristyor,Biharkristyór,Cristior-de-Jos,Cristioru de Jos,Criştior-de-Jos,Criștioru de Jos,Felsokristyor,Felsőkristyór,Kristyor","latitude":"46.4193700","longitude":"22.5345700","fclass":"P","fcode":"PPLA2","country":"RO","cc2":"","admin1":"05","admin2":"28889","admin3":"","admin4":"","population":357,"elevation":0,"gtopo30":391,"timezone":"Europe/Bucharest","moddate":"2015-11-05T00:00:00.000Z"},{"geonameid":680157,"name":"Criștioru de Sus","asciiname":"Cristioru de Sus","alternatenames":"Aszoirtas,Aszóirtás,Cristior de Sus,Cristioru de Sus,Criştior de Sus,Criștioru de Sus,Felsokristyor,Felsőkristyór,Lazuri,Sohodol,Sohodol-Lazuri,Szohodol-Lazur,Szohodol-Lazúr","latitude":"46.4169800","longitude":"22.5741300","fclass":"P","fcode":"PPL","country":"RO","cc2":"","admin1":"05","admin2":"28889","admin3":"","admin4":"","population":105,"elevation":0,"gtopo30":541,"timezone":"Europe/Bucharest","moddate":"2015-11-05T00:00:00.000Z"},{"geonameid":670138,"name":"Poiana","asciiname":"Poiana","alternatenames":"Biharmezo,Biharmező,Bojana,Poiana,Pojana","latitude":"46.4483000","longitude":"22.5799800","fclass":"P","fcode":"PPL","country":"RO","cc2":"","admin1":"05","admin2":"28889","admin3":"","admin4":"","population":663,"elevation":0,"gtopo30":474,"timezone":"Europe/Bucharest","moddate":"2013-04-21T00:00:00.000Z"},{"geonameid":668137,"name":"Sălişte de Vaşcău","asciiname":"Saliste de Vascau","alternatenames":"Saliste,Saliste de Vascau,Saliste-Vascau,Szelistye,Sălişte,Sălişte-Vaşcău,Săliște de Vașcău,Vaskohszeleste,Vaskohszelistye","latitude":"46.4330700","longitude":"22.5391400","fclass":"P","fcode":"PPL","country":"RO","cc2":"","admin1":"05","admin2":"28889","admin3":"","admin4":"","population":0,"elevation":0,"gtopo30":388,"timezone":"Europe/Bucharest","moddate":"2016-02-07T00:00:00.000Z"}],"admin3":[],"alternateNames":[]},"__N_SSG":true}