{"pageProps":{"locale":"en","admin2":{"geonameid":2641169,"name":"Nottinghamshire","country":"GB","admin1":"ENG","admin2":"J9","admin3":"","latitude":"53.1666700","longitude":"-1.0000000"},"admin1":{"geonameid":6269131,"name":"England","admin1":"ENG","localeAltName":"England"},"locations":[{"geonameid":2657285,"name":"Annesley","asciiname":"Annesley","alternatenames":"","latitude":"53.0815700","longitude":"-1.2437500","fclass":"P","fcode":"PPL","country":"GB","cc2":"","admin1":"ENG","admin2":"J9","admin3":"37UB","admin4":"","population":0,"elevation":0,"gtopo30":174,"timezone":"Europe/London","moddate":"2011-03-03T00:00:00.000Z"},{"geonameid":11549425,"name":"Annesley Woodhouse","asciiname":"Annesley Woodhouse","alternatenames":"","latitude":"53.0784000","longitude":"-1.2552700","fclass":"P","fcode":"PPL","country":"GB","cc2":"","admin1":"ENG","admin2":"J9","admin3":"37UB","admin4":"","population":0,"elevation":0,"gtopo30":182,"timezone":"Europe/London","moddate":"2017-05-22T00:00:00.000Z"},{"geonameid":2657030,"name":"Arnold","asciiname":"Arnold","alternatenames":"Arnol'd,Arnold,Арнолд,Арнольд,آرنلڈ، ناٹنگھمشائر","latitude":"53.0000000","longitude":"-1.1333300","fclass":"P","fcode":"PPL","country":"GB","cc2":"","admin1":"ENG","admin2":"J9","admin3":"37UE","admin4":"","population":37873,"elevation":0,"gtopo30":66,"timezone":"Europe/London","moddate":"2012-01-17T00:00:00.000Z"},{"geonameid":2656904,"name":"Askham","asciiname":"Askham","alternatenames":"Askham","latitude":"53.2666700","longitude":"-0.8833300","fclass":"P","fcode":"PPL","country":"GB","cc2":"","admin1":"ENG","admin2":"J9","admin3":"37UC","admin4":"37UC001","population":0,"elevation":0,"gtopo30":34,"timezone":"Europe/London","moddate":"2018-07-03T00:00:00.000Z"},{"geonameid":2656893,"name":"Aslockton","asciiname":"Aslockton","alternatenames":"Aslockton,Aslocton","latitude":"52.9529900","longitude":"-0.8970000","fclass":"P","fcode":"PPL","country":"GB","cc2":"","admin1":"ENG","admin2":"J9","admin3":"37UJ","admin4":"37UJ001","population":1571,"elevation":0,"gtopo30":26,"timezone":"Europe/London","moddate":"2018-07-03T00:00:00.000Z"},{"geonameid":2656840,"name":"Attenborough","asciiname":"Attenborough","alternatenames":"","latitude":"52.9062600","longitude":"-1.2316200","fclass":"P","fcode":"PPL","country":"GB","cc2":"","admin1":"ENG","admin2":"J9","admin3":"37UD","admin4":"","population":0,"elevation":0,"gtopo30":31,"timezone":"Europe/London","moddate":"2011-03-03T00:00:00.000Z"},{"geonameid":2656731,"name":"Awsworth","asciiname":"Awsworth","alternatenames":"Awsworth","latitude":"52.9891200","longitude":"-1.2835400","fclass":"P","fcode":"PPL","country":"GB","cc2":"","admin1":"ENG","admin2":"J9","admin3":"37UD","admin4":"37UD001","population":2634,"elevation":0,"gtopo30":88,"timezone":"Europe/London","moddate":"2018-07-03T00:00:00.000Z"},{"geonameid":6697497,"name":"Babworth","asciiname":"Babworth","alternatenames":"","latitude":"53.3179900","longitude":"-0.9758300","fclass":"P","fcode":"PPL","country":"GB","cc2":"","admin1":"ENG","admin2":"J9","admin3":"37UC","admin4":"37UC002","population":1329,"elevation":0,"gtopo30":22,"timezone":"Europe/London","moddate":"2018-07-03T00:00:00.000Z"},{"geonameid":2656595,"name":"Balderton","asciiname":"Balderton","alternatenames":"Balderton","latitude":"53.0666700","longitude":"-0.7833300","fclass":"P","fcode":"PPL","country":"GB","cc2":"","admin1":"ENG","admin2":"J9","admin3":"37UG","admin4":"37UG003","population":0,"elevation":0,"gtopo30":19,"timezone":"Europe/London","moddate":"2018-07-03T00:00:00.000Z"},{"geonameid":2656298,"name":"Barnby in the Willows","asciiname":"Barnby in the Willows","alternatenames":"Barnby,Barnby in the Willows","latitude":"53.0623400","longitude":"-0.7192900","fclass":"P","fcode":"PPL","country":"GB","cc2":"","admin1":"ENG","admin2":"J9","admin3":"37UG","admin4":"37UG004","population":0,"elevation":0,"gtopo30":19,"timezone":"Europe/London","moddate":"2018-07-03T00:00:00.000Z"},{"geonameid":2656297,"name":"Barnby Moor","asciiname":"Barnby Moor","alternatenames":"Barnby Moor","latitude":"53.3520400","longitude":"-1.0021800","fclass":"P","fcode":"PPL","country":"GB","cc2":"","admin1":"ENG","admin2":"J9","admin3":"37UC","admin4":"37UC003","population":0,"elevation":0,"gtopo30":21,"timezone":"Europe/London","moddate":"2018-07-03T00:00:00.000Z"},{"geonameid":2656278,"name":"Barnstone","asciiname":"Barnstone","alternatenames":"","latitude":"52.9113000","longitude":"-0.9101200","fclass":"P","fcode":"PPL","country":"GB","cc2":"","admin1":"ENG","admin2":"J9","admin3":"37UJ","admin4":"37UJ028","population":0,"elevation":0,"gtopo30":34,"timezone":"Europe/London","moddate":"2018-07-03T00:00:00.000Z"},{"geonameid":2656213,"name":"Barton in Fabis","asciiname":"Barton in Fabis","alternatenames":"Barton,Barton in Fabis","latitude":"52.8898500","longitude":"-1.2242900","fclass":"P","fcode":"PPL","country":"GB","cc2":"","admin1":"ENG","admin2":"J9","admin3":"37UJ","admin4":"37UJ002","population":0,"elevation":0,"gtopo30":31,"timezone":"Europe/London","moddate":"2018-07-03T00:00:00.000Z"},{"geonameid":2656196,"name":"Basford","asciiname":"Basford","alternatenames":"","latitude":"52.9666700","longitude":"-1.1833300","fclass":"P","fcode":"PPL","country":"GB","cc2":"","admin1":"ENG","admin2":"J9","admin3":"","admin4":"","population":16000,"elevation":0,"gtopo30":35,"timezone":"Europe/London","moddate":"2017-06-26T00:00:00.000Z"},{"geonameid":2656056,"name":"Beckingham","asciiname":"Beckingham","alternatenames":"Beckingham","latitude":"53.4000000","longitude":"-0.8333300","fclass":"P","fcode":"PPL","country":"GB","cc2":"","admin1":"ENG","admin2":"J9","admin3":"37UC","admin4":"37UC004","population":1098,"elevation":0,"gtopo30":23,"timezone":"Europe/London","moddate":"2018-07-03T00:00:00.000Z"},{"geonameid":2656014,"name":"Beeston","asciiname":"Beeston","alternatenames":"Beeston,Beeston i Nottinghamshire,Bistonas","latitude":"52.9166700","longitude":"-1.2166700","fclass":"P","fcode":"PPL","country":"GB","cc2":"","admin1":"ENG","admin2":"J9","admin3":"37UD","admin4":"","population":0,"elevation":0,"gtopo30":31,"timezone":"Europe/London","moddate":"2012-01-17T00:00:00.000Z"},{"geonameid":2655809,"name":"Besthorpe","asciiname":"Besthorpe","alternatenames":"Besthorpe","latitude":"53.1666700","longitude":"-0.7666700","fclass":"P","fcode":"PPL","country":"GB","cc2":"","admin1":"ENG","admin2":"J9","admin3":"37UG","admin4":"37UG006","population":0,"elevation":0,"gtopo30":11,"timezone":"Europe/London","moddate":"2018-07-03T00:00:00.000Z"},{"geonameid":11669838,"name":"Bestwood Village","asciiname":"Bestwood Village","alternatenames":"","latitude":"53.0249300","longitude":"-1.1767000","fclass":"P","fcode":"PPL","country":"GB","cc2":"","admin1":"ENG","admin2":"J9","admin3":"37UE","admin4":"37UE001","population":0,"elevation":0,"gtopo30":70,"timezone":"Europe/London","moddate":"2017-08-25T00:00:00.000Z"},{"geonameid":2655655,"name":"Bilsthorpe","asciiname":"Bilsthorpe","alternatenames":"Bilsthorpe","latitude":"53.1402400","longitude":"-1.0339200","fclass":"P","fcode":"PPL","country":"GB","cc2":"","admin1":"ENG","admin2":"J9","admin3":"37UG","admin4":"37UG007","population":3514,"elevation":0,"gtopo30":77,"timezone":"Europe/London","moddate":"2018-07-03T00:00:00.000Z"},{"geonameid":2655643,"name":"Bingham","asciiname":"Bingham","alternatenames":"Bingham i Nottinghamshire,بنگہم، ناٹنگھم شائر,بینگهام، ناتینگهام‌شر","latitude":"52.9497800","longitude":"-0.9590700","fclass":"P","fcode":"PPL","country":"GB","cc2":"","admin1":"ENG","admin2":"J9","admin3":"37UJ","admin4":"37UJ003","population":9131,"elevation":0,"gtopo30":33,"timezone":"Europe/London","moddate":"2018-07-03T00:00:00.000Z"},{"geonameid":2655624,"name":"Bircotes","asciiname":"Bircotes","alternatenames":"Bircotes","latitude":"53.4193300","longitude":"-1.0490500","fclass":"P","fcode":"PPL","country":"GB","cc2":"","admin1":"ENG","admin2":"J9","admin3":"37UC","admin4":"37UC026","population":7948,"elevation":0,"gtopo30":37,"timezone":"Europe/London","moddate":"2018-07-03T00:00:00.000Z"},{"geonameid":2655364,"name":"Bleasby","asciiname":"Bleasby","alternatenames":"Bleasby","latitude":"53.0394000","longitude":"-0.9352400","fclass":"P","fcode":"PPL","country":"GB","cc2":"","admin1":"ENG","admin2":"J9","admin3":"37UG","admin4":"37UG008","population":824,"elevation":0,"gtopo30":19,"timezone":"Europe/London","moddate":"2018-07-03T00:00:00.000Z"},{"geonameid":2655346,"name":"Blidworth","asciiname":"Blidworth","alternatenames":"","latitude":"53.0984900","longitude":"-1.1168900","fclass":"P","fcode":"PPL","country":"GB","cc2":"","admin1":"ENG","admin2":"J9","admin3":"37UG","admin4":"37UG009","population":4457,"elevation":0,"gtopo30":111,"timezone":"Europe/London","moddate":"2018-07-03T00:00:00.000Z"},{"geonameid":2655316,"name":"Blyth","asciiname":"Blyth","alternatenames":"","latitude":"53.3786200","longitude":"-1.0625000","fclass":"P","fcode":"PPL","country":"GB","cc2":"","admin1":"ENG","admin2":"J9","admin3":"37UC","admin4":"37UC006","population":0,"elevation":0,"gtopo30":21,"timezone":"Europe/London","moddate":"2018-07-03T00:00:00.000Z"},{"geonameid":2655132,"name":"Bothamsall","asciiname":"Bothamsall","alternatenames":"Bothamsall","latitude":"53.2531300","longitude":"-0.9894900","fclass":"P","fcode":"PPL","country":"GB","cc2":"","admin1":"ENG","admin2":"J9","admin3":"37UC","admin4":"37UC008","population":0,"elevation":0,"gtopo30":45,"timezone":"Europe/London","moddate":"2018-07-03T00:00:00.000Z"},{"geonameid":2655117,"name":"Boughton","asciiname":"Boughton","alternatenames":"Boughton","latitude":"53.2000000","longitude":"-0.9833300","fclass":"P","fcode":"PPL","country":"GB","cc2":"","admin1":"ENG","admin2":"J9","admin3":"37UG","admin4":"37UG058","population":10120,"elevation":0,"gtopo30":39,"timezone":"Europe/London","moddate":"2018-07-03T00:00:00.000Z"},{"geonameid":2654980,"name":"Bradmore","asciiname":"Bradmore","alternatenames":"Bradmore","latitude":"52.8758600","longitude":"-1.1327900","fclass":"P","fcode":"PPL","country":"GB","cc2":"","admin1":"ENG","admin2":"J9","admin3":"37UJ","admin4":"37UJ004","population":0,"elevation":0,"gtopo30":47,"timezone":"Europe/London","moddate":"2018-07-03T00:00:00.000Z"},{"geonameid":2654933,"name":"Bramcote","asciiname":"Bramcote","alternatenames":"Bramcote","latitude":"52.9333300","longitude":"-1.2500000","fclass":"P","fcode":"PPL","country":"GB","cc2":"","admin1":"ENG","admin2":"J9","admin3":"37UD","admin4":"","population":0,"elevation":0,"gtopo30":73,"timezone":"Europe/London","moddate":"2012-01-17T00:00:00.000Z"},{"geonameid":2654680,"name":"Brinsley","asciiname":"Brinsley","alternatenames":"","latitude":"53.0346100","longitude":"-1.3127400","fclass":"P","fcode":"PPL","country":"GB","cc2":"","admin1":"ENG","admin2":"J9","admin3":"37UD","admin4":"37UD002","population":0,"elevation":0,"gtopo30":93,"timezone":"Europe/London","moddate":"2018-07-03T00:00:00.000Z"},{"geonameid":2654384,"name":"Budby","asciiname":"Budby","alternatenames":"","latitude":"53.2240700","longitude":"-1.0745600","fclass":"P","fcode":"PPL","country":"GB","cc2":"","admin1":"ENG","admin2":"J9","admin3":"37UG","admin4":"37UG062","population":0,"elevation":0,"gtopo30":44,"timezone":"Europe/London","moddate":"2018-07-03T00:00:00.000Z"},{"geonameid":2654324,"name":"Bunny","asciiname":"Bunny","alternatenames":"","latitude":"52.8609400","longitude":"-1.1355400","fclass":"P","fcode":"PPL","country":"GB","cc2":"","admin1":"ENG","admin2":"J9","admin3":"37UJ","admin4":"37UJ005","population":0,"elevation":0,"gtopo30":40,"timezone":"Europe/London","moddate":"2018-07-03T00:00:00.000Z"},{"geonameid":2654209,"name":"Burton Joyce","asciiname":"Burton Joyce","alternatenames":"","latitude":"52.9882500","longitude":"-1.0340700","fclass":"P","fcode":"PPL","country":"GB","cc2":"","admin1":"ENG","admin2":"J9","admin3":"37UE","admin4":"37UE002","population":3752,"elevation":0,"gtopo30":22,"timezone":"Europe/London","moddate":"2018-07-03T00:00:00.000Z"},{"geonameid":2653960,"name":"Calverton","asciiname":"Calverton","alternatenames":"Calverton,Claverton","latitude":"53.0372800","longitude":"-1.0826300","fclass":"P","fcode":"PPL","country":"GB","cc2":"GB","admin1":"ENG","admin2":"J9","admin3":"37UE","admin4":"37UE003","population":6868,"elevation":0,"gtopo30":54,"timezone":"Europe/London","moddate":"2018-07-03T00:00:00.000Z"},{"geonameid":2653827,"name":"Carburton","asciiname":"Carburton","alternatenames":"Carburton","latitude":"53.2520400","longitude":"-1.0839100","fclass":"P","fcode":"PPL","country":"GB","cc2":"","admin1":"ENG","admin2":"J9","admin3":"37UC","admin4":"37UC009","population":0,"elevation":0,"gtopo30":39,"timezone":"Europe/London","moddate":"2018-07-03T00:00:00.000Z"},{"geonameid":2653768,"name":"Carlton","asciiname":"Carlton","alternatenames":"Karlton,Карлтон,کارلتون، ناتینگهام‌شر,کارلٹن، نوٹنگھم شائر","latitude":"52.9621900","longitude":"-1.0807800","fclass":"P","fcode":"PPL","country":"GB","cc2":"","admin1":"ENG","admin2":"J9","admin3":"37UE","admin4":"","population":0,"elevation":0,"gtopo30":25,"timezone":"Europe/London","moddate":"2010-05-24T00:00:00.000Z"},{"geonameid":11592600,"name":"Carlton in Lindrick","asciiname":"Carlton in Lindrick","alternatenames":"","latitude":"53.3577500","longitude":"-1.1185000","fclass":"P","fcode":"PPL","country":"GB","cc2":"","admin1":"ENG","admin2":"J9","admin3":"37UC","admin4":"37UC010","population":0,"elevation":0,"gtopo30":37,"timezone":"Europe/London","moddate":"2017-06-18T00:00:00.000Z"},{"geonameid":2653758,"name":"Carlton on Trent","asciiname":"Carlton on Trent","alternatenames":"","latitude":"53.1652400","longitude":"-0.8069100","fclass":"P","fcode":"PPL","country":"GB","cc2":"","admin1":"ENG","admin2":"J9","admin3":"37UG","admin4":"37UG012","population":229,"elevation":0,"gtopo30":11,"timezone":"Europe/London","moddate":"2018-07-03T00:00:00.000Z"},{"geonameid":2653484,"name":"Caunton","asciiname":"Caunton","alternatenames":"Caunton","latitude":"53.1330900","longitude":"-0.8867600","fclass":"P","fcode":"PPL","country":"GB","cc2":"","admin1":"ENG","admin2":"J9","admin3":"37UG","admin4":"37UG013","population":483,"elevation":0,"gtopo30":29,"timezone":"Europe/London","moddate":"2018-07-03T00:00:00.000Z"},{"geonameid":2653151,"name":"Chilwell","asciiname":"Chilwell","alternatenames":"","latitude":"52.9118000","longitude":"-1.2363100","fclass":"P","fcode":"PPL","country":"GB","cc2":"","admin1":"ENG","admin2":"J9","admin3":"37UD","admin4":"","population":0,"elevation":0,"gtopo30":30,"timezone":"Europe/London","moddate":"2010-05-24T00:00:00.000Z"},{"geonameid":11776859,"name":"Church Warsop","asciiname":"Church Warsop","alternatenames":"","latitude":"53.2136400","longitude":"-1.1571300","fclass":"P","fcode":"PPLL","country":"GB","cc2":"","admin1":"ENG","admin2":"J9","admin3":"37UF","admin4":"37UF001","population":0,"elevation":61,"gtopo30":63,"timezone":"Europe/London","moddate":"2017-11-21T00:00:00.000Z"},{"geonameid":2652942,"name":"Clarborough","asciiname":"Clarborough","alternatenames":"","latitude":"53.3454900","longitude":"-0.9038200","fclass":"P","fcode":"PPL","country":"GB","cc2":"","admin1":"ENG","admin2":"J9","admin3":"37UC","admin4":"37UC011","population":1281,"elevation":0,"gtopo30":22,"timezone":"Europe/London","moddate":"2018-07-03T00:00:00.000Z"},{"geonameid":2652897,"name":"Clayworth","asciiname":"Clayworth","alternatenames":"","latitude":"53.3859000","longitude":"-0.9068100","fclass":"P","fcode":"PPL","country":"GB","cc2":"","admin1":"ENG","admin2":"J9","admin3":"37UC","admin4":"37UC012","population":419,"elevation":0,"gtopo30":20,"timezone":"Europe/London","moddate":"2018-07-03T00:00:00.000Z"},{"geonameid":2652841,"name":"Clifton","asciiname":"Clifton","alternatenames":"","latitude":"52.9000000","longitude":"-1.1833300","fclass":"P","fcode":"PPL","country":"GB","cc2":"","admin1":"ENG","admin2":"J9","admin3":"","admin4":"","population":0,"elevation":0,"gtopo30":45,"timezone":"Europe/London","moddate":"2007-06-16T00:00:00.000Z"},{"geonameid":2652821,"name":"Clipstone","asciiname":"Clipstone","alternatenames":"Clipstone","latitude":"53.1666700","longitude":"-1.1000000","fclass":"P","fcode":"PPL","country":"GB","cc2":"","admin1":"ENG","admin2":"J9","admin3":"37UG","admin4":"37UG015","population":0,"elevation":0,"gtopo30":75,"timezone":"Europe/London","moddate":"2018-07-03T00:00:00.000Z"},{"geonameid":2652661,"name":"Coddington","asciiname":"Coddington","alternatenames":"Coddington","latitude":"53.0833300","longitude":"-0.7500000","fclass":"P","fcode":"PPL","country":"GB","cc2":"","admin1":"ENG","admin2":"J9","admin3":"37UG","admin4":"37UG016","population":0,"elevation":0,"gtopo30":21,"timezone":"Europe/London","moddate":"2018-07-03T00:00:00.000Z"},{"geonameid":2652527,"name":"Colston Bassett","asciiname":"Colston Bassett","alternatenames":"Colston Bassett","latitude":"52.8941000","longitude":"-0.9657700","fclass":"P","fcode":"PPL","country":"GB","cc2":"","admin1":"ENG","admin2":"J9","admin3":"37UJ","admin4":"37UJ008","population":0,"elevation":0,"gtopo30":43,"timezone":"Europe/London","moddate":"2018-07-03T00:00:00.000Z"},{"geonameid":2652515,"name":"Colwick","asciiname":"Colwick","alternatenames":"","latitude":"52.9542200","longitude":"-1.0842100","fclass":"P","fcode":"PPL","country":"GB","cc2":"","admin1":"ENG","admin2":"J9","admin3":"37UE","admin4":"","population":0,"elevation":0,"gtopo30":24,"timezone":"Europe/London","moddate":"2010-05-24T00:00:00.000Z"},{"geonameid":2652292,"name":"Cossall","asciiname":"Cossall","alternatenames":"","latitude":"52.9773500","longitude":"-1.2847400","fclass":"P","fcode":"PPL","country":"GB","cc2":"","admin1":"ENG","admin2":"J9","admin3":"37UD","admin4":"37UD003","population":0,"elevation":0,"gtopo30":78,"timezone":"Europe/London","moddate":"2018-07-03T00:00:00.000Z"},{"geonameid":2652288,"name":"Costock","asciiname":"Costock","alternatenames":"Costock","latitude":"52.8321200","longitude":"-1.1480700","fclass":"P","fcode":"PPL","country":"GB","cc2":"","admin1":"ENG","admin2":"J9","admin3":"37UJ","admin4":"37UJ009","population":337,"elevation":0,"gtopo30":56,"timezone":"Europe/London","moddate":"2018-07-03T00:00:00.000Z"},{"geonameid":2652282,"name":"Cotgrave","asciiname":"Cotgrave","alternatenames":"","latitude":"52.9085900","longitude":"-1.0375200","fclass":"P","fcode":"PPL","country":"GB","cc2":"","admin1":"ENG","admin2":"J9","admin3":"37UJ","admin4":"37UJ010","population":7203,"elevation":0,"gtopo30":47,"timezone":"Europe/London","moddate":"2018-07-03T00:00:00.000Z"},{"geonameid":2652281,"name":"Cotham","asciiname":"Cotham","alternatenames":"Cotham","latitude":"53.0166700","longitude":"-0.8166700","fclass":"P","fcode":"PPL","country":"GB","cc2":"","admin1":"ENG","admin2":"J9","admin3":"37UG","admin4":"37UG018","population":0,"elevation":0,"gtopo30":22,"timezone":"Europe/London","moddate":"2018-07-03T00:00:00.000Z"},{"geonameid":2652270,"name":"Cottam","asciiname":"Cottam","alternatenames":"Cottam,Cottom","latitude":"53.3000000","longitude":"-0.7666700","fclass":"P","fcode":"PPL","country":"GB","cc2":"GB","admin1":"ENG","admin2":"J9","admin3":"37UC","admin4":"37UC044","population":0,"elevation":0,"gtopo30":6,"timezone":"Europe/London","moddate":"2018-07-03T00:00:00.000Z"},{"geonameid":2651922,"name":"Cromwell","asciiname":"Cromwell","alternatenames":"","latitude":"53.1463100","longitude":"-0.8076400","fclass":"P","fcode":"PPL","country":"GB","cc2":"","admin1":"ENG","admin2":"J9","admin3":"37UG","admin4":"37UG019","population":232,"elevation":0,"gtopo30":11,"timezone":"Europe/London","moddate":"2018-07-03T00:00:00.000Z"},{"geonameid":2651896,"name":"Cropwell Bishop","asciiname":"Cropwell Bishop","alternatenames":"Cropwell Bishop","latitude":"52.9148000","longitude":"-0.9848200","fclass":"P","fcode":"PPL","country":"GB","cc2":"","admin1":"ENG","admin2":"J9","admin3":"37UJ","admin4":"37UJ011","population":1853,"elevation":0,"gtopo30":39,"timezone":"Europe/London","moddate":"2018-07-03T00:00:00.000Z"},{"geonameid":2651895,"name":"Cropwell Butler","asciiname":"Cropwell Butler","alternatenames":"Cropwell,Cropwell Butler","latitude":"52.9282600","longitude":"-0.9844800","fclass":"P","fcode":"PPL","country":"GB","cc2":"","admin1":"ENG","admin2":"J9","admin3":"37UJ","admin4":"37UJ012","population":357,"elevation":0,"gtopo30":39,"timezone":"Europe/London","moddate":"2018-07-03T00:00:00.000Z"},{"geonameid":2651784,"name":"Cuckney","asciiname":"Cuckney","alternatenames":"Cuckney,Norton Cuckney","latitude":"53.2352500","longitude":"-1.1557500","fclass":"P","fcode":"PPL","country":"GB","cc2":"","admin1":"ENG","admin2":"J9","admin3":"37UC","admin4":"37UC014","population":0,"elevation":0,"gtopo30":62,"timezone":"Europe/London","moddate":"2018-07-03T00:00:00.000Z"},{"geonameid":2651512,"name":"Darlton","asciiname":"Darlton","alternatenames":"","latitude":"53.2538600","longitude":"-0.8411800","fclass":"P","fcode":"PPL","country":"GB","cc2":"","admin1":"ENG","admin2":"J9","admin3":"37UC","admin4":"37UC015","population":0,"elevation":0,"gtopo30":20,"timezone":"Europe/London","moddate":"2018-07-03T00:00:00.000Z"},{"geonameid":2650571,"name":"Eakring","asciiname":"Eakring","alternatenames":"","latitude":"53.1536100","longitude":"-0.9973400","fclass":"P","fcode":"PPL","country":"GB","cc2":"","admin1":"ENG","admin2":"J9","admin3":"37UG","admin4":"37UG020","population":419,"elevation":0,"gtopo30":85,"timezone":"Europe/London","moddate":"2018-07-03T00:00:00.000Z"},{"geonameid":2650495,"name":"East Bridgford","asciiname":"East Bridgford","alternatenames":"East Bridgford","latitude":"52.9795400","longitude":"-0.9656300","fclass":"P","fcode":"PPL","country":"GB","cc2":"","admin1":"ENG","admin2":"J9","admin3":"37UJ","admin4":"37UJ013","population":1814,"elevation":0,"gtopo30":52,"timezone":"Europe/London","moddate":"2018-07-03T00:00:00.000Z"},{"geonameid":2650404,"name":"East Kirkby","asciiname":"East Kirkby","alternatenames":"","latitude":"53.0833300","longitude":"-1.2500000","fclass":"P","fcode":"PPL","country":"GB","cc2":"","admin1":"ENG","admin2":"J9","admin3":"37UB","admin4":"","population":0,"elevation":0,"gtopo30":160,"timezone":"Europe/London","moddate":"2010-05-24T00:00:00.000Z"},{"geonameid":2650397,"name":"East Leake","asciiname":"East Leake","alternatenames":"","latitude":"52.8301500","longitude":"-1.1810300","fclass":"P","fcode":"PPL","country":"GB","cc2":"","admin1":"ENG","admin2":"J9","admin3":"37UJ","admin4":"37UJ014","population":6337,"elevation":0,"gtopo30":52,"timezone":"Europe/London","moddate":"2018-07-03T00:00:00.000Z"},{"geonameid":2650379,"name":"East Markham","asciiname":"East Markham","alternatenames":"East Markham,Markham","latitude":"53.2522100","longitude":"-0.8938500","fclass":"P","fcode":"PPL","country":"GB","cc2":"","admin1":"ENG","admin2":"J9","admin3":"37UC","admin4":"37UC018","population":1160,"elevation":0,"gtopo30":61,"timezone":"Europe/London","moddate":"2018-07-03T00:00:00.000Z"},{"geonameid":2650333,"name":"East Stoke","asciiname":"East Stoke","alternatenames":"East Stoke","latitude":"53.0333300","longitude":"-0.8833300","fclass":"P","fcode":"PPL","country":"GB","cc2":"","admin1":"ENG","admin2":"J9","admin3":"37UG","admin4":"37UG021","population":0,"elevation":0,"gtopo30":34,"timezone":"Europe/London","moddate":"2018-07-03T00:00:00.000Z"},{"geonameid":2650309,"name":"Eastwood","asciiname":"Eastwood","alternatenames":"Eastwood,Eastwood i Nottinghamshire,ایستوود، ناتینگهام‌شر","latitude":"53.0000000","longitude":"-1.3000000","fclass":"P","fcode":"PPL","country":"GB","cc2":"","admin1":"ENG","admin2":"J9","admin3":"37UD","admin4":"37UD005","population":18612,"elevation":0,"gtopo30":58,"timezone":"Europe/London","moddate":"2018-07-03T00:00:00.000Z"},{"geonameid":2650221,"name":"Edingley","asciiname":"Edingley","alternatenames":"","latitude":"53.0954600","longitude":"-1.0067400","fclass":"P","fcode":"PPL","country":"GB","cc2":"","admin1":"ENG","admin2":"J9","admin3":"37UG","admin4":"37UG022","population":443,"elevation":0,"gtopo30":41,"timezone":"Europe/London","moddate":"2018-07-03T00:00:00.000Z"},{"geonameid":2650203,"name":"Edwalton","asciiname":"Edwalton","alternatenames":"Edwalton","latitude":"52.9157300","longitude":"-1.1115100","fclass":"P","fcode":"PPL","country":"GB","cc2":"","admin1":"ENG","admin2":"J9","admin3":"37UJ","admin4":"","population":0,"elevation":0,"gtopo30":33,"timezone":"Europe/London","moddate":"2010-08-03T00:00:00.000Z"},{"geonameid":2650200,"name":"Edwinstowe","asciiname":"Edwinstowe","alternatenames":"","latitude":"53.1945400","longitude":"-1.0643900","fclass":"P","fcode":"PPL","country":"GB","cc2":"","admin1":"ENG","admin2":"J9","admin3":"37UG","admin4":"37UG023","population":5188,"elevation":0,"gtopo30":62,"timezone":"Europe/London","moddate":"2018-07-03T00:00:00.000Z"},{"geonameid":2650175,"name":"Egmanton","asciiname":"Egmanton","alternatenames":"Egmanton","latitude":"53.2115400","longitude":"-0.9000900","fclass":"P","fcode":"PPL","country":"GB","cc2":"","admin1":"ENG","admin2":"J9","admin3":"37UG","admin4":"37UG024","population":286,"elevation":0,"gtopo30":36,"timezone":"Europe/London","moddate":"2018-07-03T00:00:00.000Z"},{"geonameid":2650113,"name":"Elkesley","asciiname":"Elkesley","alternatenames":"Elkesley,Elksley","latitude":"53.2728200","longitude":"-0.9707600","fclass":"P","fcode":"PPL","country":"GB","cc2":"","admin1":"ENG","admin2":"J9","admin3":"37UC","admin4":"37UC020","population":822,"elevation":0,"gtopo30":32,"timezone":"Europe/London","moddate":"2018-07-03T00:00:00.000Z"},{"geonameid":2650049,"name":"Elston","asciiname":"Elston","alternatenames":"Elston","latitude":"53.0244600","longitude":"-0.8693000","fclass":"P","fcode":"PPL","country":"GB","cc2":"","admin1":"ENG","admin2":"J9","admin3":"37UG","admin4":"37UG025","population":631,"elevation":0,"gtopo30":26,"timezone":"Europe/London","moddate":"2018-07-03T00:00:00.000Z"},{"geonameid":2650038,"name":"Elton","asciiname":"Elton","alternatenames":"","latitude":"52.9333300","longitude":"-0.8500000","fclass":"P","fcode":"PPL","country":"GB","cc2":"","admin1":"ENG","admin2":"J9","admin3":"37UJ","admin4":"37UJ015","population":0,"elevation":0,"gtopo30":31,"timezone":"Europe/London","moddate":"2018-07-03T00:00:00.000Z"},{"geonameid":11592729,"name":"Epperstone","asciiname":"Epperstone","alternatenames":"","latitude":"53.0294700","longitude":"-1.0294500","fclass":"P","fcode":"PPL","country":"GB","cc2":"","admin1":"ENG","admin2":"J9","admin3":"37UG","admin4":"37UG026","population":0,"elevation":0,"gtopo30":41,"timezone":"Europe/London","moddate":"2017-06-19T00:00:00.000Z"},{"geonameid":2649835,"name":"Everton","asciiname":"Everton","alternatenames":"Everton","latitude":"53.4123600","longitude":"-0.9604400","fclass":"P","fcode":"PPL","country":"GB","cc2":"","admin1":"ENG","admin2":"J9","admin3":"37UC","admin4":"37UC021","population":0,"elevation":0,"gtopo30":16,"timezone":"Europe/London","moddate":"2018-07-03T00:00:00.000Z"},{"geonameid":2649666,"name":"Farndon","asciiname":"Farndon","alternatenames":"Farndon","latitude":"53.0500000","longitude":"-0.8500000","fclass":"P","fcode":"PPL","country":"GB","cc2":"","admin1":"ENG","admin2":"J9","admin3":"37UG","admin4":"37UG027","population":2506,"elevation":0,"gtopo30":13,"timezone":"Europe/London","moddate":"2018-07-03T00:00:00.000Z"},{"geonameid":2649652,"name":"Farnsfield","asciiname":"Farnsfield","alternatenames":"Farnsfield","latitude":"53.1022300","longitude":"-1.0332000","fclass":"P","fcode":"PPL","country":"GB","cc2":"","admin1":"ENG","admin2":"J9","admin3":"37UG","admin4":"37UG028","population":2566,"elevation":0,"gtopo30":58,"timezone":"Europe/London","moddate":"2018-07-03T00:00:00.000Z"},{"geonameid":2649361,"name":"Fiskerton","asciiname":"Fiskerton","alternatenames":"Fiskerton,Fiskerton Ferry","latitude":"53.0520500","longitude":"-0.9026800","fclass":"P","fcode":"PPL","country":"GB","cc2":"","admin1":"ENG","admin2":"J9","admin3":"37UG","admin4":"37UG029","population":0,"elevation":0,"gtopo30":16,"timezone":"Europe/London","moddate":"2018-07-03T00:00:00.000Z"},{"geonameid":2649323,"name":"Fledborough","asciiname":"Fledborough","alternatenames":"","latitude":"53.2390900","longitude":"-0.8009300","fclass":"P","fcode":"PPL","country":"GB","cc2":"","admin1":"ENG","admin2":"J9","admin3":"37UC","admin4":"37UC022","population":0,"elevation":0,"gtopo30":9,"timezone":"Europe/London","moddate":"2018-07-03T00:00:00.000Z"},{"geonameid":2649300,"name":"Flintham","asciiname":"Flintham","alternatenames":"Flintham","latitude":"53.0200700","longitude":"-0.9122700","fclass":"P","fcode":"PPL","country":"GB","cc2":"","admin1":"ENG","admin2":"J9","admin3":"37UJ","admin4":"37UJ017","population":304,"elevation":0,"gtopo30":65,"timezone":"Europe/London","moddate":"2018-07-03T00:00:00.000Z"},{"geonameid":2648895,"name":"Gamston","asciiname":"Gamston","alternatenames":"Gamston","latitude":"53.2779700","longitude":"-0.9368400","fclass":"P","fcode":"PPL","country":"GB","cc2":"","admin1":"ENG","admin2":"J9","admin3":"37UC","admin4":"37UC023","population":246,"elevation":0,"gtopo30":33,"timezone":"Europe/London","moddate":"2018-07-03T00:00:00.000Z"},{"geonameid":2648738,"name":"Gedling","asciiname":"Gedling","alternatenames":"","latitude":"52.9757400","longitude":"-1.0787300","fclass":"P","fcode":"PPL","country":"GB","cc2":"","admin1":"ENG","admin2":"J9","admin3":"37UE","admin4":"","population":0,"elevation":0,"gtopo30":37,"timezone":"Europe/London","moddate":"2011-03-03T00:00:00.000Z"},{"geonameid":11902894,"name":"Giltbrook","asciiname":"Giltbrook","alternatenames":"","latitude":"53.0052700","longitude":"-1.2809400","fclass":"P","fcode":"PPL","country":"GB","cc2":"","admin1":"ENG","admin2":"J9","admin3":"37UD","admin4":"37UD005","population":0,"elevation":0,"gtopo30":87,"timezone":"Europe/London","moddate":"2018-07-10T00:00:00.000Z"},{"geonameid":2648265,"name":"Gotham","asciiname":"Gotham","alternatenames":"Gotham","latitude":"52.8679900","longitude":"-1.2055800","fclass":"P","fcode":"PPL","country":"GB","cc2":"","admin1":"ENG","admin2":"J9","admin3":"37UJ","admin4":"37UJ019","population":1563,"elevation":0,"gtopo30":36,"timezone":"Europe/London","moddate":"2018-07-03T00:00:00.000Z"},{"geonameid":2648225,"name":"Granby","asciiname":"Granby","alternatenames":"Granby","latitude":"52.9000000","longitude":"-0.8833300","fclass":"P","fcode":"PPL","country":"GB","cc2":"","admin1":"ENG","admin2":"J9","admin3":"37UJ","admin4":"37UJ028","population":0,"elevation":0,"gtopo30":37,"timezone":"Europe/London","moddate":"2018-07-03T00:00:00.000Z"},{"geonameid":2648180,"name":"Greasley","asciiname":"Greasley","alternatenames":"Greasley","latitude":"53.0204100","longitude":"-1.2718800","fclass":"P","fcode":"PPL","country":"GB","cc2":"","admin1":"ENG","admin2":"J9","admin3":"37UD","admin4":"37UD005","population":0,"elevation":0,"gtopo30":115,"timezone":"Europe/London","moddate":"2018-07-03T00:00:00.000Z"},{"geonameid":2647862,"name":"Gringley on the Hill","asciiname":"Gringley on the Hill","alternatenames":"Gringley,Gringley on the Hill","latitude":"53.4081300","longitude":"-0.8927900","fclass":"P","fcode":"PPL","country":"GB","cc2":"","admin1":"ENG","admin2":"J9","admin3":"37UC","admin4":"37UC024","population":699,"elevation":0,"gtopo30":66,"timezone":"Europe/London","moddate":"2018-07-03T00:00:00.000Z"},{"geonameid":2647836,"name":"Grove","asciiname":"Grove","alternatenames":"Grove","latitude":"53.3000000","longitude":"-0.9000000","fclass":"P","fcode":"PPL","country":"GB","cc2":"","admin1":"ENG","admin2":"J9","admin3":"37UC","admin4":"37UC029","population":0,"elevation":0,"gtopo30":45,"timezone":"Europe/London","moddate":"2018-07-03T00:00:00.000Z"},{"geonameid":11592728,"name":"Gunthorpe","asciiname":"Gunthorpe","alternatenames":"","latitude":"52.9905300","longitude":"-0.9868800","fclass":"P","fcode":"PPL","country":"GB","cc2":"","admin1":"ENG","admin2":"J9","admin3":"37UG","admin4":"37UG033","population":0,"elevation":0,"gtopo30":20,"timezone":"Europe/London","moddate":"2017-06-19T00:00:00.000Z"},{"geonameid":11593290,"name":"Halam","asciiname":"Halam","alternatenames":"","latitude":"53.0824500","longitude":"-0.9904400","fclass":"P","fcode":"PPL","country":"GB","cc2":"","admin1":"ENG","admin2":"J9","admin3":"37UG","admin4":"37UG034","population":0,"elevation":0,"gtopo30":48,"timezone":"Europe/London","moddate":"2017-06-22T00:00:00.000Z"},{"geonameid":2647613,"name":"Halloughton","asciiname":"Halloughton","alternatenames":"","latitude":"53.0575800","longitude":"-0.9734300","fclass":"P","fcode":"PPL","country":"GB","cc2":"","admin1":"ENG","admin2":"J9","admin3":"37UG","admin4":"37UG035","population":0,"elevation":0,"gtopo30":58,"timezone":"Europe/London","moddate":"2018-07-03T00:00:00.000Z"},{"geonameid":8604586,"name":"Harby","asciiname":"Harby","alternatenames":"","latitude":"53.2254600","longitude":"-0.6836400","fclass":"P","fcode":"PPL","country":"GB","cc2":"","admin1":"ENG","admin2":"J9","admin3":"37UG","admin4":"37UG036","population":250,"elevation":0,"gtopo30":11,"timezone":"Europe/London","moddate":"2013-08-16T00:00:00.000Z"},{"geonameid":11863041,"name":"Hardwick Village","asciiname":"Hardwick Village","alternatenames":"","latitude":"53.2737200","longitude":"-1.0432000","fclass":"P","fcode":"PPL","country":"GB","cc2":"","admin1":"ENG","admin2":"J9","admin3":"37UC","admin4":"37UC068","population":1881,"elevation":0,"gtopo30":55,"timezone":"Europe/London","moddate":"2018-05-10T00:00:00.000Z"},{"geonameid":2647384,"name":"Harwell","asciiname":"Harwell","alternatenames":"Harwell","latitude":"53.4166700","longitude":"-0.9666700","fclass":"P","fcode":"PPL","country":"GB","cc2":"","admin1":"ENG","admin2":"J9","admin3":"37UC","admin4":"37UC021","population":0,"elevation":0,"gtopo30":18,"timezone":"Europe/London","moddate":"2019-02-21T00:00:00.000Z"},{"geonameid":2647377,"name":"Harworth","asciiname":"Harworth","alternatenames":"","latitude":"53.4174600","longitude":"-1.0755900","fclass":"P","fcode":"PPL","country":"GB","cc2":"","admin1":"ENG","admin2":"J9","admin3":"37UC","admin4":"37UC026","population":0,"elevation":0,"gtopo30":18,"timezone":"Europe/London","moddate":"2018-07-03T00:00:00.000Z"},{"geonameid":2647283,"name":"Hawksworth","asciiname":"Hawksworth","alternatenames":"Hawksworth","latitude":"52.9666700","longitude":"-0.8666700","fclass":"P","fcode":"PPL","country":"GB","cc2":"","admin1":"ENG","admin2":"J9","admin3":"37UJ","admin4":"37UJ047","population":0,"elevation":0,"gtopo30":20,"timezone":"Europe/London","moddate":"2018-07-03T00:00:00.000Z"},{"geonameid":2647270,"name":"Hawton","asciiname":"Hawton","alternatenames":"Hawton","latitude":"53.0517200","longitude":"-0.8255700","fclass":"P","fcode":"PPL","country":"GB","cc2":"","admin1":"ENG","admin2":"J9","admin3":"37UG","admin4":"37UG037","population":0,"elevation":0,"gtopo30":17,"timezone":"Europe/London","moddate":"2018-07-03T00:00:00.000Z"},{"geonameid":2647251,"name":"Hayton","asciiname":"Hayton","alternatenames":"","latitude":"53.3500000","longitude":"-0.9000000","fclass":"P","fcode":"PPL","country":"GB","cc2":"","admin1":"ENG","admin2":"J9","admin3":"37UC","admin4":"37UC028","population":0,"elevation":0,"gtopo30":47,"timezone":"Europe/London","moddate":"2018-07-03T00:00:00.000Z"},{"geonameid":2647236,"name":"Headon","asciiname":"Headon","alternatenames":"","latitude":"53.2833300","longitude":"-0.8833300","fclass":"P","fcode":"PPL","country":"GB","cc2":"","admin1":"ENG","admin2":"J9","admin3":"37UC","admin4":"37UC029","population":0,"elevation":0,"gtopo30":32,"timezone":"Europe/London","moddate":"2018-07-03T00:00:00.000Z"},{"geonameid":2646817,"name":"Hockerton","asciiname":"Hockerton","alternatenames":"","latitude":"53.1009100","longitude":"-0.9319400","fclass":"P","fcode":"PPL","country":"GB","cc2":"","admin1":"ENG","admin2":"J9","admin3":"37UG","admin4":"37UG038","population":0,"elevation":0,"gtopo30":43,"timezone":"Europe/London","moddate":"2018-07-03T00:00:00.000Z"},{"geonameid":2646784,"name":"Holbeck","asciiname":"Holbeck","alternatenames":"Holbeck","latitude":"53.2500000","longitude":"-1.1833300","fclass":"P","fcode":"PPL","country":"GB","cc2":"","admin1":"ENG","admin2":"J9","admin3":"37UC","admin4":"37UC031","population":0,"elevation":0,"gtopo30":77,"timezone":"Europe/London","moddate":"2018-07-03T00:00:00.000Z"},{"geonameid":2646730,"name":"Holme","asciiname":"Holme","alternatenames":"Holme","latitude":"53.1166700","longitude":"-0.8000000","fclass":"P","fcode":"PPL","country":"GB","cc2":"","admin1":"ENG","admin2":"J9","admin3":"37UG","admin4":"37UG039","population":0,"elevation":0,"gtopo30":11,"timezone":"Europe/London","moddate":"2018-07-03T00:00:00.000Z"},{"geonameid":2646721,"name":"Holme Pierrepont","asciiname":"Holme Pierrepont","alternatenames":"Holme Pierrepont","latitude":"52.9471900","longitude":"-1.0689400","fclass":"P","fcode":"PPL","country":"GB","cc2":"","admin1":"ENG","admin2":"J9","admin3":"37UJ","admin4":"37UJ023","population":0,"elevation":0,"gtopo30":25,"timezone":"Europe/London","moddate":"2018-07-03T00:00:00.000Z"},{"geonameid":2646503,"name":"Hoveringham","asciiname":"Hoveringham","alternatenames":"Hoveringham","latitude":"53.0128900","longitude":"-0.9594100","fclass":"P","fcode":"PPL","country":"GB","cc2":"","admin1":"ENG","admin2":"J9","admin3":"37UG","admin4":"37UG040","population":359,"elevation":0,"gtopo30":21,"timezone":"Europe/London","moddate":"2018-07-03T00:00:00.000Z"},{"geonameid":2646460,"name":"Hucknall","asciiname":"Hucknall","alternatenames":"Hucknall Torkard,Khuknal,Хъкнал","latitude":"53.0333300","longitude":"-1.2000000","fclass":"P","fcode":"PPL","country":"GB","cc2":"","admin1":"ENG","admin2":"J9","admin3":"37UB","admin4":"","population":29728,"elevation":0,"gtopo30":80,"timezone":"Europe/London","moddate":"2012-03-29T00:00:00.000Z"},{"geonameid":2646459,"name":"Hucknall under Huthwaite","asciiname":"Hucknall under Huthwaite","alternatenames":"Hucknall,Hucknall under Huthwaite,Huthwaite","latitude":"53.1333300","longitude":"-1.3000000","fclass":"P","fcode":"PPL","country":"GB","cc2":"GB","admin1":"ENG","admin2":"J9","admin3":"37UB","admin4":"","population":0,"elevation":0,"gtopo30":193,"timezone":"Europe/London","moddate":"2018-08-23T00:00:00.000Z"},{"geonameid":2645870,"name":"Kelham","asciiname":"Kelham","alternatenames":"Kelham,Kellam","latitude":"53.0929700","longitude":"-0.8459000","fclass":"P","fcode":"PPL","country":"GB","cc2":"","admin1":"ENG","admin2":"J9","admin3":"37UG","admin4":"37UG041","population":0,"elevation":0,"gtopo30":15,"timezone":"Europe/London","moddate":"2018-07-03T00:00:00.000Z"},{"geonameid":2645767,"name":"Kersall","asciiname":"Kersall","alternatenames":"","latitude":"53.1520600","longitude":"-0.9329000","fclass":"P","fcode":"PPL","country":"GB","cc2":"","admin1":"ENG","admin2":"J9","admin3":"37UG","admin4":"37UG042","population":0,"elevation":0,"gtopo30":67,"timezone":"Europe/London","moddate":"2018-07-03T00:00:00.000Z"},{"geonameid":11238357,"name":"Keyworth","asciiname":"Keyworth","alternatenames":"","latitude":"52.8712200","longitude":"-1.0899100","fclass":"P","fcode":"PPL","country":"GB","cc2":"","admin1":"ENG","admin2":"J9","admin3":"37UJ","admin4":"37UJ024","population":6733,"elevation":0,"gtopo30":86,"timezone":"Europe/London","moddate":"2017-06-12T00:00:00.000Z"},{"geonameid":2645543,"name":"Kilvington","asciiname":"Kilvington","alternatenames":"","latitude":"52.9774200","longitude":"-0.8104800","fclass":"P","fcode":"PPL","country":"GB","cc2":"","admin1":"ENG","admin2":"J9","admin3":"37UG","admin4":"37UG043","population":0,"elevation":0,"gtopo30":26,"timezone":"Europe/London","moddate":"2018-07-03T00:00:00.000Z"},{"geonameid":2645539,"name":"Kimberley","asciiname":"Kimberley","alternatenames":"Kimberley,Kimberley i Nottinghamshire,کیمبرلی، ناتینگهام‌شر","latitude":"52.9833300","longitude":"-1.2666700","fclass":"P","fcode":"PPL","country":"GB","cc2":"","admin1":"ENG","admin2":"J9","admin3":"37UD","admin4":"37UD009","population":11273,"elevation":0,"gtopo30":93,"timezone":"Europe/London","moddate":"2018-07-03T00:00:00.000Z"},{"geonameid":11789071,"name":"King's Clipstone","asciiname":"King's Clipstone","alternatenames":"","latitude":"53.1769000","longitude":"-1.1012900","fclass":"P","fcode":"PPL","country":"GB","cc2":"","admin1":"ENG","admin2":"J9","admin3":"37UG","admin4":"37UG015","population":3469,"elevation":0,"gtopo30":76,"timezone":"Europe/London","moddate":"2017-12-12T00:00:00.000Z"},{"geonameid":2645428,"name":"Kingston on Soar","asciiname":"Kingston on Soar","alternatenames":"Kingston,Kingston on Soar","latitude":"52.8446700","longitude":"-1.2557000","fclass":"P","fcode":"PPL","country":"GB","cc2":"","admin1":"ENG","admin2":"J9","admin3":"37UJ","admin4":"37UJ025","population":0,"elevation":0,"gtopo30":38,"timezone":"Europe/London","moddate":"2018-07-03T00:00:00.000Z"},{"geonameid":2645368,"name":"Kinoulton","asciiname":"Kinoulton","alternatenames":"","latitude":"52.8714100","longitude":"-0.9916900","fclass":"P","fcode":"PPL","country":"GB","cc2":"","admin1":"ENG","admin2":"J9","admin3":"37UJ","admin4":"37UJ026","population":868,"elevation":0,"gtopo30":44,"timezone":"Europe/London","moddate":"2018-07-03T00:00:00.000Z"},{"geonameid":2645309,"name":"Kirkby in Ashfield","asciiname":"Kirkby in Ashfield","alternatenames":"Kirkby,Kirkby in Ashfield","latitude":"53.0998200","longitude":"-1.2437900","fclass":"P","fcode":"PPL","country":"GB","cc2":"","admin1":"ENG","admin2":"J9","admin3":"37UB","admin4":"","population":27539,"elevation":0,"gtopo30":162,"timezone":"Europe/London","moddate":"2011-03-03T00:00:00.000Z"},{"geonameid":2645252,"name":"Kirklington","asciiname":"Kirklington","alternatenames":"Kirklington","latitude":"53.1120300","longitude":"-0.9871400","fclass":"P","fcode":"PPL","country":"GB","cc2":"","admin1":"ENG","admin2":"J9","admin3":"37UG","admin4":"37UG044","population":400,"elevation":0,"gtopo30":38,"timezone":"Europe/London","moddate":"2018-07-03T00:00:00.000Z"},{"geonameid":11592592,"name":"Kirton","asciiname":"Kirton","alternatenames":"","latitude":"53.2134300","longitude":"-0.9723800","fclass":"P","fcode":"PPL","country":"GB","cc2":"","admin1":"ENG","admin2":"J9","admin3":"37UG","admin4":"37UG045","population":0,"elevation":0,"gtopo30":34,"timezone":"Europe/London","moddate":"2017-06-18T00:00:00.000Z"},{"geonameid":2645159,"name":"Kneesall","asciiname":"Kneesall","alternatenames":"","latitude":"53.1703700","longitude":"-0.9490000","fclass":"P","fcode":"PPL","country":"GB","cc2":"","admin1":"ENG","admin2":"J9","admin3":"37UG","admin4":"37UG046","population":0,"elevation":0,"gtopo30":90,"timezone":"Europe/London","moddate":"2018-07-03T00:00:00.000Z"},{"geonameid":2645158,"name":"Kneeton","asciiname":"Kneeton","alternatenames":"Kneeton","latitude":"53.0073000","longitude":"-0.9422500","fclass":"P","fcode":"PPL","country":"GB","cc2":"","admin1":"ENG","admin2":"J9","admin3":"37UJ","admin4":"37UJ027","population":0,"elevation":0,"gtopo30":75,"timezone":"Europe/London","moddate":"2018-07-03T00:00:00.000Z"},{"geonameid":2644996,"name":"Lambley","asciiname":"Lambley","alternatenames":"Lambley","latitude":"53.0017000","longitude":"-1.0631400","fclass":"P","fcode":"PPL","country":"GB","cc2":"","admin1":"ENG","admin2":"J9","admin3":"37UE","admin4":"37UE005","population":857,"elevation":0,"gtopo30":64,"timezone":"Europe/London","moddate":"2018-07-03T00:00:00.000Z"},{"geonameid":2644959,"name":"Laneham","asciiname":"Laneham","alternatenames":"Laneham","latitude":"53.2766800","longitude":"-0.7965800","fclass":"P","fcode":"PPL","country":"GB","cc2":"","admin1":"ENG","admin2":"J9","admin3":"37UC","admin4":"37UC032","population":0,"elevation":0,"gtopo30":11,"timezone":"Europe/London","moddate":"2018-07-03T00:00:00.000Z"},{"geonameid":2644955,"name":"Langar","asciiname":"Langar","alternatenames":"","latitude":"52.9037900","longitude":"-0.9253100","fclass":"P","fcode":"PPL","country":"GB","cc2":"","admin1":"ENG","admin2":"J9","admin3":"37UJ","admin4":"37UJ028","population":0,"elevation":0,"gtopo30":35,"timezone":"Europe/London","moddate":"2018-07-03T00:00:00.000Z"},{"geonameid":2644774,"name":"Laxton","asciiname":"Laxton","alternatenames":"Laxton","latitude":"53.1953700","longitude":"-0.9213700","fclass":"P","fcode":"PPL","country":"GB","cc2":"","admin1":"ENG","admin2":"J9","admin3":"37UG","admin4":"37UG048","population":449,"elevation":0,"gtopo30":68,"timezone":"Europe/London","moddate":"2018-07-03T00:00:00.000Z"},{"geonameid":2644490,"name":"Linby","asciiname":"Linby","alternatenames":"Linby","latitude":"53.0541600","longitude":"-1.2027100","fclass":"P","fcode":"PPL","country":"GB","cc2":"","admin1":"ENG","admin2":"J9","admin3":"37UE","admin4":"37UE006","population":0,"elevation":0,"gtopo30":94,"timezone":"Europe/London","moddate":"2018-07-03T00:00:00.000Z"},{"geonameid":2644368,"name":"Littleborough","asciiname":"Littleborough","alternatenames":"Littleborough","latitude":"53.3333300","longitude":"-0.7666700","fclass":"P","fcode":"PPL","country":"GB","cc2":"","admin1":"ENG","admin2":"J9","admin3":"37UC","admin4":"37UC054","population":0,"elevation":0,"gtopo30":7,"timezone":"Europe/London","moddate":"2018-07-03T00:00:00.000Z"},{"geonameid":2643554,"name":"Lound","asciiname":"Lound","alternatenames":"Lound","latitude":"53.3672400","longitude":"-0.9612300","fclass":"P","fcode":"PPL","country":"GB","cc2":"","admin1":"ENG","admin2":"J9","admin3":"37UC","admin4":"37UC033","population":471,"elevation":0,"gtopo30":16,"timezone":"Europe/London","moddate":"2018-07-03T00:00:00.000Z"},{"geonameid":2643543,"name":"Lowdham","asciiname":"Lowdham","alternatenames":"","latitude":"53.0120500","longitude":"-1.0048300","fclass":"P","fcode":"PPL","country":"GB","cc2":"","admin1":"ENG","admin2":"J9","admin3":"37UG","admin4":"37UG051","population":2234,"elevation":0,"gtopo30":25,"timezone":"Europe/London","moddate":"2018-07-03T00:00:00.000Z"},{"geonameid":2643097,"name":"Mansfield","asciiname":"Mansfield","alternatenames":"Mansfield,Mansfijld,Mansfildas,Mehnsfild,Mensfild,ZMA,maenseupildeu,man si fei er de,mansufirudo,mnspyld,mnzfyld,Мансфийлд,Менсфилд,Менсфілд,Мэнсфилд,מנספילד,منزفیلد,マンスフィールド,曼斯菲爾德,맨스필드","latitude":"53.1333300","longitude":"-1.2000000","fclass":"P","fcode":"PPL","country":"GB","cc2":"","admin1":"ENG","admin2":"J9","admin3":"37UF","admin4":"","population":171958,"elevation":0,"gtopo30":122,"timezone":"Europe/London","moddate":"2017-06-12T00:00:00.000Z"},{"geonameid":2643096,"name":"Mansfield Woodhouse","asciiname":"Mansfield Woodhouse","alternatenames":"","latitude":"53.1649500","longitude":"-1.1938400","fclass":"P","fcode":"PPL","country":"GB","cc2":"","admin1":"ENG","admin2":"J9","admin3":"37UF","admin4":"","population":18330,"elevation":0,"gtopo30":88,"timezone":"Europe/London","moddate":"2011-03-03T00:00:00.000Z"},{"geonameid":2643022,"name":"Market Warsop","asciiname":"Market Warsop","alternatenames":"","latitude":"53.2051600","longitude":"-1.1525700","fclass":"P","fcode":"PPL","country":"GB","cc2":"","admin1":"ENG","admin2":"J9","admin3":"37UF","admin4":"37UF001","population":9018,"elevation":0,"gtopo30":61,"timezone":"Europe/London","moddate":"2018-07-03T00:00:00.000Z"},{"geonameid":6620450,"name":"Markham Moor","asciiname":"Markham Moor","alternatenames":"","latitude":"53.2576000","longitude":"-0.9259300","fclass":"P","fcode":"PPL","country":"GB","cc2":"","admin1":"ENG","admin2":"J9","admin3":"37UC","admin4":"37UC064","population":0,"elevation":0,"gtopo30":26,"timezone":"Europe/London","moddate":"2018-07-03T00:00:00.000Z"},{"geonameid":2642906,"name":"Mattersey","asciiname":"Mattersey","alternatenames":"","latitude":"53.3961800","longitude":"-0.9649300","fclass":"P","fcode":"PPL","country":"GB","cc2":"","admin1":"ENG","admin2":"J9","admin3":"37UC","admin4":"37UC035","population":466,"elevation":0,"gtopo30":12,"timezone":"Europe/London","moddate":"2018-07-03T00:00:00.000Z"},{"geonameid":11776858,"name":"Meden Vale","asciiname":"Meden Vale","alternatenames":"","latitude":"53.2236100","longitude":"-1.1311600","fclass":"P","fcode":"PPLL","country":"GB","cc2":"","admin1":"ENG","admin2":"J9","admin3":"37UF","admin4":"37UF001","population":0,"elevation":74,"gtopo30":67,"timezone":"Europe/London","moddate":"2017-11-21T00:00:00.000Z"},{"geonameid":2642419,"name":"Misson","asciiname":"Misson","alternatenames":"","latitude":"53.4476300","longitude":"-0.9663900","fclass":"P","fcode":"PPL","country":"GB","cc2":"","admin1":"ENG","admin2":"J9","admin3":"37UC","admin4":"37UC036","population":745,"elevation":0,"gtopo30":9,"timezone":"Europe/London","moddate":"2018-07-03T00:00:00.000Z"},{"geonameid":2642417,"name":"Misterton","asciiname":"Misterton","alternatenames":"Misterton","latitude":"53.4449200","longitude":"-0.8503200","fclass":"P","fcode":"PPL","country":"GB","cc2":"","admin1":"ENG","admin2":"J9","admin3":"37UC","admin4":"37UC037","population":1862,"elevation":0,"gtopo30":12,"timezone":"Europe/London","moddate":"2018-07-03T00:00:00.000Z"},{"geonameid":2642164,"name":"Morton","asciiname":"Morton","alternatenames":"","latitude":"53.4000000","longitude":"-0.7833300","fclass":"P","fcode":"PPL","country":"GB","cc2":"","admin1":"ENG","admin2":"J9","admin3":"37UC","admin4":"37UC004","population":0,"elevation":0,"gtopo30":5,"timezone":"Europe/London","moddate":"2018-07-03T00:00:00.000Z"},{"geonameid":2641731,"name":"Newark on Trent","asciiname":"Newark on Trent","alternatenames":"Newark,Newark on Trent,Newark upon Trent","latitude":"53.0666700","longitude":"-0.8166700","fclass":"P","fcode":"PPL","country":"GB","cc2":"","admin1":"ENG","admin2":"J9","admin3":"37UG","admin4":"37UG054","population":43363,"elevation":0,"gtopo30":16,"timezone":"Europe/London","moddate":"2018-07-03T00:00:00.000Z"},{"geonameid":2641568,"name":"Newstead","asciiname":"Newstead","alternatenames":"Newstead","latitude":"53.0666700","longitude":"-1.2166700","fclass":"P","fcode":"PPL","country":"GB","cc2":"","admin1":"ENG","admin2":"J9","admin3":"37UE","admin4":"37UE007","population":0,"elevation":0,"gtopo30":119,"timezone":"Europe/London","moddate":"2018-07-03T00:00:00.000Z"},{"geonameid":11593554,"name":"Newton","asciiname":"Newton","alternatenames":"","latitude":"52.9652100","longitude":"-0.9786400","fclass":"P","fcode":"PPL","country":"GB","cc2":"","admin1":"ENG","admin2":"J9","admin3":"37UJ","admin4":"37UJ041","population":0,"elevation":0,"gtopo30":47,"timezone":"Europe/London","moddate":"2017-06-22T00:00:00.000Z"},{"geonameid":11593349,"name":"Normanton on Soar","asciiname":"Normanton on Soar","alternatenames":"","latitude":"52.8004800","longitude":"-1.2309000","fclass":"P","fcode":"PPL","country":"GB","cc2":"","admin1":"ENG","admin2":"J9","admin3":"37UJ","admin4":"37UJ029","population":0,"elevation":0,"gtopo30":41,"timezone":"Europe/London","moddate":"2017-06-22T00:00:00.000Z"},{"geonameid":2641441,"name":"Normanton on the Wolds","asciiname":"Normanton on the Wolds","alternatenames":"Normanton,Normanton on the Wolds","latitude":"52.8901600","longitude":"-1.0756300","fclass":"P","fcode":"PPL","country":"GB","cc2":"","admin1":"ENG","admin2":"J9","admin3":"37UJ","admin4":"37UJ030","population":245,"elevation":0,"gtopo30":54,"timezone":"Europe/London","moddate":"2018-07-03T00:00:00.000Z"},{"geonameid":2641440,"name":"Normanton on Trent","asciiname":"Normanton on Trent","alternatenames":"Normanton,Normanton on Trent,Normanton upon Trent","latitude":"53.2125900","longitude":"-0.8170900","fclass":"P","fcode":"PPL","country":"GB","cc2":"","admin1":"ENG","admin2":"J9","admin3":"37UC","admin4":"37UC039","population":345,"elevation":0,"gtopo30":17,"timezone":"Europe/London","moddate":"2018-07-03T00:00:00.000Z"},{"geonameid":2641438,"name":"Normanton upon Soar","asciiname":"Normanton upon Soar","alternatenames":"Normanton,Normanton upon Soar","latitude":"52.8082600","longitude":"-1.2424900","fclass":"P","fcode":"PPL","country":"GB","cc2":"","admin1":"ENG","admin2":"J9","admin3":"37UJ","admin4":"37UJ029","population":0,"elevation":0,"gtopo30":36,"timezone":"Europe/London","moddate":"2018-07-03T00:00:00.000Z"},{"geonameid":2641392,"name":"North Clifton","asciiname":"North Clifton","alternatenames":"","latitude":"53.2398600","longitude":"-0.7666100","fclass":"P","fcode":"PPL","country":"GB","cc2":"","admin1":"ENG","admin2":"J9","admin3":"37UG","admin4":"37UG055","population":0,"elevation":0,"gtopo30":12,"timezone":"Europe/London","moddate":"2018-07-03T00:00:00.000Z"},{"geonameid":2641389,"name":"North Collingham","asciiname":"North Collingham","alternatenames":"Collingham,North Collingham","latitude":"53.1500000","longitude":"-0.7500000","fclass":"P","fcode":"PPL","country":"GB","cc2":"GB","admin1":"ENG","admin2":"J9","admin3":"37UG","admin4":"37UG017","population":2578,"elevation":0,"gtopo30":12,"timezone":"Europe/London","moddate":"2018-07-03T00:00:00.000Z"},{"geonameid":2641314,"name":"North Leverton","asciiname":"North Leverton","alternatenames":"","latitude":"53.3305300","longitude":"-0.8225700","fclass":"P","fcode":"PPL","country":"GB","cc2":"","admin1":"ENG","admin2":"J9","admin3":"37UC","admin4":"37UC040","population":0,"elevation":0,"gtopo30":16,"timezone":"Europe/London","moddate":"2018-07-03T00:00:00.000Z"},{"geonameid":2641298,"name":"North Muskham","asciiname":"North Muskham","alternatenames":"Muskham,North Muskham","latitude":"53.1198800","longitude":"-0.8109100","fclass":"P","fcode":"PPL","country":"GB","cc2":"","admin1":"ENG","admin2":"J9","admin3":"37UG","admin4":"37UG056","population":985,"elevation":0,"gtopo30":12,"timezone":"Europe/London","moddate":"2018-07-03T00:00:00.000Z"},{"geonameid":2641225,"name":"North Wheatley","asciiname":"North Wheatley","alternatenames":"North Wheatley,Wheatley","latitude":"53.3623200","longitude":"-0.8563500","fclass":"P","fcode":"PPL","country":"GB","cc2":"","admin1":"ENG","admin2":"J9","admin3":"37UC","admin4":"37UC052","population":509,"elevation":0,"gtopo30":22,"timezone":"Europe/London","moddate":"2018-07-03T00:00:00.000Z"},{"geonameid":2641200,"name":"Norton","asciiname":"Norton","alternatenames":"Norton","latitude":"53.2333300","longitude":"-1.1333300","fclass":"P","fcode":"PPL","country":"GB","cc2":"","admin1":"ENG","admin2":"J9","admin3":"37UC","admin4":"37UC042","population":0,"elevation":0,"gtopo30":82,"timezone":"Europe/London","moddate":"2018-07-03T00:00:00.000Z"},{"geonameid":2641182,"name":"Norwell","asciiname":"Norwell","alternatenames":"Norwell","latitude":"53.1479500","longitude":"-0.8458900","fclass":"P","fcode":"PPL","country":"GB","cc2":"","admin1":"ENG","admin2":"J9","admin3":"37UG","admin4":"37UG057","population":490,"elevation":0,"gtopo30":25,"timezone":"Europe/London","moddate":"2018-07-03T00:00:00.000Z"},{"geonameid":11902865,"name":"Nuthall","asciiname":"Nuthall","alternatenames":"","latitude":"52.9945900","longitude":"-1.2374500","fclass":"P","fcode":"PPL","country":"GB","cc2":"","admin1":"ENG","admin2":"J9","admin3":"37UD","admin4":"37UD007","population":0,"elevation":0,"gtopo30":82,"timezone":"Europe/London","moddate":"2018-07-10T00:00:00.000Z"},{"geonameid":2640976,"name":"Ollerton","asciiname":"Ollerton","alternatenames":"Ollerton","latitude":"53.2166700","longitude":"-1.0166700","fclass":"P","fcode":"PPL","country":"GB","cc2":"","admin1":"ENG","admin2":"J9","admin3":"37UG","admin4":"37UG058","population":0,"elevation":0,"gtopo30":42,"timezone":"Europe/London","moddate":"2018-07-03T00:00:00.000Z"},{"geonameid":2640965,"name":"Ompton","asciiname":"Ompton","alternatenames":"","latitude":"53.1791400","longitude":"-0.9712200","fclass":"P","fcode":"PPL","country":"GB","cc2":"","admin1":"ENG","admin2":"J9","admin3":"37UG","admin4":"37UG059","population":0,"elevation":0,"gtopo30":68,"timezone":"Europe/London","moddate":"2018-07-03T00:00:00.000Z"},{"geonameid":6697496,"name":"Ordsall","asciiname":"Ordsall","alternatenames":"","latitude":"53.3085300","longitude":"-0.9490400","fclass":"P","fcode":"PPLX","country":"GB","cc2":"","admin1":"ENG","admin2":"J9","admin3":"37UC","admin4":"","population":0,"elevation":0,"gtopo30":28,"timezone":"Europe/London","moddate":"2010-05-25T00:00:00.000Z"},{"geonameid":2640889,"name":"Orston","asciiname":"Orston","alternatenames":"Orston,Orston Camp","latitude":"52.9613100","longitude":"-0.8544200","fclass":"P","fcode":"PPL","country":"GB","cc2":"","admin1":"ENG","admin2":"J9","admin3":"37UJ","admin4":"37UJ031","population":454,"elevation":0,"gtopo30":25,"timezone":"Europe/London","moddate":"2018-07-03T00:00:00.000Z"},{"geonameid":2640866,"name":"Ossington","asciiname":"Ossington","alternatenames":"","latitude":"53.1740400","longitude":"-0.8686000","fclass":"P","fcode":"PPL","country":"GB","cc2":"","admin1":"ENG","admin2":"J9","admin3":"37UG","admin4":"37UG060","population":0,"elevation":0,"gtopo30":42,"timezone":"Europe/London","moddate":"2018-07-03T00:00:00.000Z"},{"geonameid":2640716,"name":"Oxton","asciiname":"Oxton","alternatenames":"","latitude":"53.0552600","longitude":"-1.0628000","fclass":"P","fcode":"PPL","country":"GB","cc2":"","admin1":"ENG","admin2":"J9","admin3":"37UG","admin4":"37UG061","population":568,"elevation":0,"gtopo30":56,"timezone":"Europe/London","moddate":"2018-07-03T00:00:00.000Z"},{"geonameid":2640625,"name":"Papplewick","asciiname":"Papplewick","alternatenames":"","latitude":"53.0541900","longitude":"-1.1828800","fclass":"P","fcode":"PPL","country":"GB","cc2":"","admin1":"ENG","admin2":"J9","admin3":"37UE","admin4":"37UE008","population":369,"elevation":0,"gtopo30":82,"timezone":"Europe/London","moddate":"2018-07-03T00:00:00.000Z"},{"geonameid":2640197,"name":"Plumtree","asciiname":"Plumtree","alternatenames":"","latitude":"52.8914000","longitude":"-1.0900500","fclass":"P","fcode":"PPL","country":"GB","cc2":"","admin1":"ENG","admin2":"J9","admin3":"37UJ","admin4":"37UJ033","population":0,"elevation":0,"gtopo30":50,"timezone":"Europe/London","moddate":"2018-07-03T00:00:00.000Z"},{"geonameid":2639727,"name":"Radcliffe on Trent","asciiname":"Radcliffe on Trent","alternatenames":"Radcliffe,Radcliffe on Trent","latitude":"52.9480200","longitude":"-1.0385500","fclass":"P","fcode":"PPL","country":"GB","cc2":"","admin1":"ENG","admin2":"J9","admin3":"37UJ","admin4":"37UJ034","population":7510,"elevation":0,"gtopo30":30,"timezone":"Europe/London","moddate":"2018-07-03T00:00:00.000Z"},{"geonameid":2639687,"name":"Rainworth","asciiname":"Rainworth","alternatenames":"","latitude":"53.1188300","longitude":"-1.1185200","fclass":"P","fcode":"PPL","country":"GB","cc2":"","admin1":"ENG","admin2":"J9","admin3":"37UG","admin4":"37UG063","population":7693,"elevation":0,"gtopo30":99,"timezone":"Europe/London","moddate":"2018-07-03T00:00:00.000Z"},{"geonameid":2639670,"name":"Rampton","asciiname":"Rampton","alternatenames":"Bampton,Rampton","latitude":"53.3000000","longitude":"-0.8000000","fclass":"P","fcode":"PPL","country":"GB","cc2":"GB","admin1":"ENG","admin2":"J9","admin3":"37UC","admin4":"37UC044","population":0,"elevation":0,"gtopo30":9,"timezone":"Europe/London","moddate":"2018-07-03T00:00:00.000Z"},{"geonameid":2639654,"name":"Ranby","asciiname":"Ranby","alternatenames":"Ranby","latitude":"53.3211700","longitude":"-1.0237600","fclass":"P","fcode":"PPL","country":"GB","cc2":"","admin1":"ENG","admin2":"J9","admin3":"37UC","admin4":"37UC002","population":0,"elevation":0,"gtopo30":33,"timezone":"Europe/London","moddate":"2018-07-03T00:00:00.000Z"},{"geonameid":2639638,"name":"Ranskill","asciiname":"Ranskill","alternatenames":"Ramskill,Ranskill","latitude":"53.3828100","longitude":"-1.0140200","fclass":"P","fcode":"PPL","country":"GB","cc2":"","admin1":"ENG","admin2":"J9","admin3":"37UC","admin4":"37UC045","population":1362,"elevation":0,"gtopo30":19,"timezone":"Europe/London","moddate":"2018-07-03T00:00:00.000Z"},{"geonameid":2639626,"name":"Ratcliffe on Soar","asciiname":"Ratcliffe on Soar","alternatenames":"Ratcliffe,Ratcliffe on Soar,Ratcliffe-upon-Soar","latitude":"52.8659900","longitude":"-1.2557200","fclass":"P","fcode":"PPL","country":"GB","cc2":"","admin1":"ENG","admin2":"J9","admin3":"37UJ","admin4":"37UJ035","population":0,"elevation":0,"gtopo30":57,"timezone":"Europe/London","moddate":"2018-07-03T00:00:00.000Z"},{"geonameid":11153048,"name":"Ravenshead","asciiname":"Ravenshead","alternatenames":"","latitude":"53.0865000","longitude":"-1.1602600","fclass":"P","fcode":"PPL","country":"GB","cc2":"","admin1":"ENG","admin2":"J9","admin3":"37UE","admin4":"37UE009","population":5759,"elevation":0,"gtopo30":137,"timezone":"Europe/London","moddate":"2017-06-12T00:00:00.000Z"},{"geonameid":6695041,"name":"Redhill","asciiname":"Redhill","alternatenames":"","latitude":"53.0128200","longitude":"-1.1325400","fclass":"P","fcode":"PPLX","country":"GB","cc2":"","admin1":"ENG","admin2":"J9","admin3":"37UE","admin4":"","population":0,"elevation":0,"gtopo30":88,"timezone":"Europe/London","moddate":"2010-05-25T00:00:00.000Z"},{"geonameid":2639498,"name":"Rempstone","asciiname":"Rempstone","alternatenames":"Rempstone","latitude":"52.8143800","longitude":"-1.1468700","fclass":"P","fcode":"PPL","country":"GB","cc2":"","admin1":"ENG","admin2":"J9","admin3":"37UJ","admin4":"37UJ036","population":367,"elevation":0,"gtopo30":74,"timezone":"Europe/London","moddate":"2018-07-03T00:00:00.000Z"},{"geonameid":2650346,"name":"Retford","asciiname":"Retford","alternatenames":"East Retford,rtfwrd,رتفورد","latitude":"53.3221300","longitude":"-0.9431500","fclass":"P","fcode":"PPL","country":"GB","cc2":"","admin1":"ENG","admin2":"J9","admin3":"37UC","admin4":"","population":22023,"elevation":0,"gtopo30":19,"timezone":"Europe/London","moddate":"2017-06-12T00:00:00.000Z"},{"geonameid":2639204,"name":"Rolleston","asciiname":"Rolleston","alternatenames":"","latitude":"53.0642200","longitude":"-0.8913500","fclass":"P","fcode":"PPL","country":"GB","cc2":"","admin1":"ENG","admin2":"J9","admin3":"37UG","admin4":"37UG064","population":312,"elevation":0,"gtopo30":18,"timezone":"Europe/London","moddate":"2018-07-03T00:00:00.000Z"},{"geonameid":2638995,"name":"Ruddington","asciiname":"Ruddington","alternatenames":"","latitude":"52.8925400","longitude":"-1.1495300","fclass":"P","fcode":"PPL","country":"GB","cc2":"","admin1":"ENG","admin2":"J9","admin3":"37UJ","admin4":"37UJ037","population":6404,"elevation":0,"gtopo30":41,"timezone":"Europe/London","moddate":"2018-07-03T00:00:00.000Z"},{"geonameid":2638491,"name":"Saundby","asciiname":"Saundby","alternatenames":"","latitude":"53.3850400","longitude":"-0.8227800","fclass":"P","fcode":"PPL","country":"GB","cc2":"","admin1":"ENG","admin2":"J9","admin3":"37UC","admin4":"37UC047","population":0,"elevation":0,"gtopo30":16,"timezone":"Europe/London","moddate":"2018-07-03T00:00:00.000Z"},{"geonameid":2638463,"name":"Saxondale","asciiname":"Saxondale","alternatenames":"","latitude":"52.9534000","longitude":"-0.9861900","fclass":"P","fcode":"PPL","country":"GB","cc2":"","admin1":"ENG","admin2":"J9","admin3":"37UJ","admin4":"37UJ038","population":0,"elevation":0,"gtopo30":37,"timezone":"Europe/London","moddate":"2018-07-03T00:00:00.000Z"},{"geonameid":2638453,"name":"Scaftworth","asciiname":"Scaftworth","alternatenames":"","latitude":"53.4179900","longitude":"-1.0012500","fclass":"P","fcode":"PPL","country":"GB","cc2":"","admin1":"ENG","admin2":"J9","admin3":"37UC","admin4":"37UC048","population":0,"elevation":0,"gtopo30":13,"timezone":"Europe/London","moddate":"2018-07-03T00:00:00.000Z"},{"geonameid":2638403,"name":"Scarrington","asciiname":"Scarrington","alternatenames":"","latitude":"52.9674800","longitude":"-0.9069700","fclass":"P","fcode":"PPL","country":"GB","cc2":"","admin1":"ENG","admin2":"J9","admin3":"37UJ","admin4":"37UJ039","population":0,"elevation":0,"gtopo30":24,"timezone":"Europe/London","moddate":"2018-07-03T00:00:00.000Z"},{"geonameid":2638381,"name":"Scofton","asciiname":"Scofton","alternatenames":"","latitude":"53.3176100","longitude":"-1.0558300","fclass":"P","fcode":"PPL","country":"GB","cc2":"","admin1":"ENG","admin2":"J9","admin3":"37UC","admin4":"","population":0,"elevation":0,"gtopo30":29,"timezone":"Europe/London","moddate":"2011-03-03T00:00:00.000Z"},{"geonameid":2638329,"name":"Scrooby","asciiname":"Scrooby","alternatenames":"","latitude":"53.4097800","longitude":"-1.0223200","fclass":"P","fcode":"PPL","country":"GB","cc2":"","admin1":"ENG","admin2":"J9","admin3":"37UC","admin4":"37UC049","population":0,"elevation":0,"gtopo30":15,"timezone":"Europe/London","moddate":"2018-07-03T00:00:00.000Z"},{"geonameid":2638215,"name":"Selston","asciiname":"Selston","alternatenames":"Selston","latitude":"53.0719300","longitude":"-1.3017900","fclass":"P","fcode":"PPL","country":"GB","cc2":"","admin1":"ENG","admin2":"J9","admin3":"37UB","admin4":"37UB003","population":0,"elevation":0,"gtopo30":122,"timezone":"Europe/London","moddate":"2018-07-03T00:00:00.000Z"},{"geonameid":2638068,"name":"Shelford","asciiname":"Shelford","alternatenames":"","latitude":"52.9723900","longitude":"-1.0154200","fclass":"P","fcode":"PPL","country":"GB","cc2":"","admin1":"ENG","admin2":"J9","admin3":"37UJ","admin4":"37UJ041","population":0,"elevation":0,"gtopo30":22,"timezone":"Europe/London","moddate":"2018-07-03T00:00:00.000Z"},{"geonameid":2638055,"name":"Shelton","asciiname":"Shelton","alternatenames":"Shelton","latitude":"52.9833300","longitude":"-0.8333300","fclass":"P","fcode":"PPL","country":"GB","cc2":"","admin1":"ENG","admin2":"J9","admin3":"37UJ","admin4":"37UJ016","population":0,"elevation":0,"gtopo30":19,"timezone":"Europe/London","moddate":"2018-07-03T00:00:00.000Z"},{"geonameid":2637938,"name":"Shireoaks","asciiname":"Shireoaks","alternatenames":"","latitude":"53.3260700","longitude":"-1.1656200","fclass":"P","fcode":"PPL","country":"GB","cc2":"","admin1":"ENG","admin2":"J9","admin3":"37UC","admin4":"37UC050","population":0,"elevation":0,"gtopo30":54,"timezone":"Europe/London","moddate":"2018-07-03T00:00:00.000Z"},{"geonameid":2637765,"name":"Skegby","asciiname":"Skegby","alternatenames":"Skegby","latitude":"53.1333300","longitude":"-1.2500000","fclass":"P","fcode":"PPL","country":"GB","cc2":"","admin1":"ENG","admin2":"J9","admin3":"37UB","admin4":"","population":0,"elevation":0,"gtopo30":157,"timezone":"Europe/London","moddate":"2012-02-01T00:00:00.000Z"},{"geonameid":2637521,"name":"Sookholme","asciiname":"Sookholme","alternatenames":"","latitude":"53.1833300","longitude":"-1.1833300","fclass":"P","fcode":"PPL","country":"GB","cc2":"","admin1":"ENG","admin2":"J9","admin3":"37UF","admin4":"37UF001","population":0,"elevation":0,"gtopo30":80,"timezone":"Europe/London","moddate":"2018-07-03T00:00:00.000Z"},{"geonameid":2637453,"name":"South Clifton","asciiname":"South Clifton","alternatenames":"","latitude":"53.2221700","longitude":"-0.7696500","fclass":"P","fcode":"PPL","country":"GB","cc2":"","admin1":"ENG","admin2":"J9","admin3":"37UG","admin4":"37UG066","population":0,"elevation":0,"gtopo30":10,"timezone":"Europe/London","moddate":"2018-07-03T00:00:00.000Z"},{"geonameid":2637450,"name":"South Collingham","asciiname":"South Collingham","alternatenames":"","latitude":"53.1333300","longitude":"-0.7666700","fclass":"P","fcode":"PPL","country":"GB","cc2":"","admin1":"ENG","admin2":"J9","admin3":"37UG","admin4":"37UG017","population":2637,"elevation":0,"gtopo30":13,"timezone":"Europe/London","moddate":"2018-07-03T00:00:00.000Z"},{"geonameid":2637383,"name":"South Leverton","asciiname":"South Leverton","alternatenames":"","latitude":"53.3196900","longitude":"-0.8256900","fclass":"P","fcode":"PPL","country":"GB","cc2":"","admin1":"ENG","admin2":"J9","admin3":"37UC","admin4":"37UC051","population":480,"elevation":0,"gtopo30":26,"timezone":"Europe/London","moddate":"2018-07-03T00:00:00.000Z"},{"geonameid":2637368,"name":"South Muskham","asciiname":"South Muskham","alternatenames":"","latitude":"53.1069000","longitude":"-0.8211900","fclass":"P","fcode":"PPL","country":"GB","cc2":"","admin1":"ENG","admin2":"J9","admin3":"37UG","admin4":"37UG067","population":0,"elevation":0,"gtopo30":14,"timezone":"Europe/London","moddate":"2018-07-03T00:00:00.000Z"},{"geonameid":2637333,"name":"South Scarle","asciiname":"South Scarle","alternatenames":"Scarle,South Scarle","latitude":"53.1665900","longitude":"-0.7360800","fclass":"P","fcode":"PPL","country":"GB","cc2":"","admin1":"ENG","admin2":"J9","admin3":"37UG","admin4":"37UG068","population":0,"elevation":0,"gtopo30":18,"timezone":"Europe/London","moddate":"2018-07-03T00:00:00.000Z"},{"geonameid":2637292,"name":"South Wheatley","asciiname":"South Wheatley","alternatenames":"South Wheatley","latitude":"53.3500000","longitude":"-0.8500000","fclass":"P","fcode":"PPL","country":"GB","cc2":"","admin1":"ENG","admin2":"J9","admin3":"37UC","admin4":"37UC054","population":0,"elevation":0,"gtopo30":35,"timezone":"Europe/London","moddate":"2018-12-04T00:00:00.000Z"},{"geonameid":2637296,"name":"Southwell","asciiname":"Southwell","alternatenames":"Southwell,Southwell i Nottinghamshire,ساوتول، ناتینگهام‌شر","latitude":"53.0780400","longitude":"-0.9553800","fclass":"P","fcode":"PPL","country":"GB","cc2":"","admin1":"ENG","admin2":"J9","admin3":"37UG","admin4":"37UG069","population":6757,"elevation":0,"gtopo30":42,"timezone":"Europe/London","moddate":"2018-07-03T00:00:00.000Z"},{"geonameid":2637085,"name":"Stanford on Soar","asciiname":"Stanford on Soar","alternatenames":"Stanford,Stanford on Soar,Stanford-upon-Soar","latitude":"52.7918600","longitude":"-1.1959600","fclass":"P","fcode":"PPL","country":"GB","cc2":"","admin1":"ENG","admin2":"J9","admin3":"37UJ","admin4":"37UJ044","population":0,"elevation":0,"gtopo30":42,"timezone":"Europe/London","moddate":"2018-07-03T00:00:00.000Z"},{"geonameid":2637022,"name":"Stapleford","asciiname":"Stapleford","alternatenames":"Stapleford,Stapleford i Nottinghamshire,استاپلفورد، ناتینگهام‌شر","latitude":"52.9166700","longitude":"-1.2666700","fclass":"P","fcode":"PPL","country":"GB","cc2":"","admin1":"ENG","admin2":"J9","admin3":"37UD","admin4":"","population":0,"elevation":0,"gtopo30":63,"timezone":"Europe/London","moddate":"2012-02-01T00:00:00.000Z"},{"geonameid":2636998,"name":"Staunton in the Vale","asciiname":"Staunton in the Vale","alternatenames":"Staunton,Staunton in the Vale","latitude":"52.9843900","longitude":"-0.8010900","fclass":"P","fcode":"PPL","country":"GB","cc2":"","admin1":"ENG","admin2":"J9","admin3":"37UG","admin4":"37UG071","population":0,"elevation":0,"gtopo30":29,"timezone":"Europe/London","moddate":"2018-07-03T00:00:00.000Z"},{"geonameid":2636984,"name":"Staythorpe","asciiname":"Staythorpe","alternatenames":"","latitude":"53.0768700","longitude":"-0.8757500","fclass":"P","fcode":"PPL","country":"GB","cc2":"","admin1":"ENG","admin2":"J9","admin3":"37UG","admin4":"37UG072","population":0,"elevation":0,"gtopo30":13,"timezone":"Europe/London","moddate":"2018-07-03T00:00:00.000Z"},{"geonameid":2636851,"name":"Stokeham","asciiname":"Stokeham","alternatenames":"","latitude":"53.2831500","longitude":"-0.8255500","fclass":"P","fcode":"PPL","country":"GB","cc2":"","admin1":"ENG","admin2":"J9","admin3":"37UC","admin4":"37UC053","population":0,"elevation":0,"gtopo30":24,"timezone":"Europe/London","moddate":"2018-07-03T00:00:00.000Z"},{"geonameid":2636580,"name":"Sturton le Steeple","asciiname":"Sturton le Steeple","alternatenames":"Sturton,Sturton le Steeple","latitude":"53.3496800","longitude":"-0.8205400","fclass":"P","fcode":"PPL","country":"GB","cc2":"","admin1":"ENG","admin2":"J9","admin3":"37UC","admin4":"37UC054","population":486,"elevation":0,"gtopo30":18,"timezone":"Europe/London","moddate":"2018-07-03T00:00:00.000Z"},{"geonameid":2636576,"name":"Styrrup","asciiname":"Styrrup","alternatenames":"","latitude":"53.4088700","longitude":"-1.0891900","fclass":"P","fcode":"PPL","country":"GB","cc2":"","admin1":"ENG","admin2":"J9","admin3":"37UC","admin4":"37UC055","population":0,"elevation":0,"gtopo30":16,"timezone":"Europe/London","moddate":"2018-07-03T00:00:00.000Z"},{"geonameid":2636488,"name":"Sutton Bonington","asciiname":"Sutton Bonington","alternatenames":"Sutton Bonington","latitude":"52.8214400","longitude":"-1.2496900","fclass":"P","fcode":"PPL","country":"GB","cc2":"","admin1":"ENG","admin2":"J9","admin3":"37UJ","admin4":"37UJ046","population":1218,"elevation":0,"gtopo30":48,"timezone":"Europe/London","moddate":"2018-07-03T00:00:00.000Z"},{"geonameid":2636484,"name":"Sutton in Ashfield","asciiname":"Sutton in Ashfield","alternatenames":"Sutton in Ashfield","latitude":"53.1254200","longitude":"-1.2613500","fclass":"P","fcode":"PPL","country":"GB","cc2":"","admin1":"ENG","admin2":"J9","admin3":"37UB","admin4":"","population":43912,"elevation":0,"gtopo30":157,"timezone":"Europe/London","moddate":"2011-03-03T00:00:00.000Z"},{"geonameid":2636474,"name":"Sutton on Trent","asciiname":"Sutton on Trent","alternatenames":"Sutton,Sutton on Trent,Sutton upon Trent","latitude":"53.1843700","longitude":"-0.8109100","fclass":"P","fcode":"PPL","country":"GB","cc2":"","admin1":"ENG","admin2":"J9","admin3":"37UG","admin4":"37UG073","population":1171,"elevation":0,"gtopo30":12,"timezone":"Europe/London","moddate":"2018-07-03T00:00:00.000Z"},{"geonameid":2636494,"name":"Sutton-cum-Lound","asciiname":"Sutton-cum-Lound","alternatenames":"Sutton","latitude":"53.3547500","longitude":"-0.9784800","fclass":"P","fcode":"PPL","country":"GB","cc2":"","admin1":"ENG","admin2":"J9","admin3":"37UC","admin4":"37UC056","population":0,"elevation":0,"gtopo30":15,"timezone":"Europe/London","moddate":"2018-07-03T00:00:00.000Z"},{"geonameid":2636077,"name":"Teversal","asciiname":"Teversal","alternatenames":"Teversal,Teversall","latitude":"53.1500000","longitude":"-1.2833300","fclass":"P","fcode":"PPL","country":"GB","cc2":"GB","admin1":"ENG","admin2":"J9","admin3":"37UB","admin4":"","population":0,"elevation":0,"gtopo30":149,"timezone":"Europe/London","moddate":"2012-01-17T00:00:00.000Z"},{"geonameid":2635993,"name":"Thorney","asciiname":"Thorney","alternatenames":"","latitude":"53.2333300","longitude":"-0.7166700","fclass":"P","fcode":"PPL","country":"GB","cc2":"","admin1":"ENG","admin2":"J9","admin3":"37UG","admin4":"37UG075","population":0,"elevation":0,"gtopo30":7,"timezone":"Europe/London","moddate":"2018-07-03T00:00:00.000Z"},{"geonameid":11776856,"name":"Thorneywood","asciiname":"Thorneywood","alternatenames":"","latitude":"52.9665500","longitude":"-1.1161400","fclass":"P","fcode":"PPL","country":"GB","cc2":"","admin1":"ENG","admin2":"J9","admin3":"37UE","admin4":"","population":0,"elevation":46,"gtopo30":86,"timezone":"Europe/London","moddate":"2017-11-21T00:00:00.000Z"},{"geonameid":2635956,"name":"Thoroton","asciiname":"Thoroton","alternatenames":"","latitude":"52.9728900","longitude":"-0.8657300","fclass":"P","fcode":"PPL","country":"GB","cc2":"","admin1":"ENG","admin2":"J9","admin3":"37UJ","admin4":"37UJ047","population":0,"elevation":0,"gtopo30":25,"timezone":"Europe/London","moddate":"2018-07-03T00:00:00.000Z"},{"geonameid":2635898,"name":"Thurgarton","asciiname":"Thurgarton","alternatenames":"","latitude":"53.0358500","longitude":"-0.9649900","fclass":"P","fcode":"PPL","country":"GB","cc2":"","admin1":"ENG","admin2":"J9","admin3":"37UG","admin4":"37UG077","population":440,"elevation":0,"gtopo30":24,"timezone":"Europe/London","moddate":"2018-07-03T00:00:00.000Z"},{"geonameid":2635768,"name":"Tithby","asciiname":"Tithby","alternatenames":"Tithby,Tythby","latitude":"52.9251900","longitude":"-0.9627900","fclass":"P","fcode":"PPL","country":"GB","cc2":"","admin1":"ENG","admin2":"J9","admin3":"37UJ","admin4":"37UJ050","population":0,"elevation":0,"gtopo30":37,"timezone":"Europe/London","moddate":"2018-07-03T00:00:00.000Z"},{"geonameid":2635722,"name":"Tollerton","asciiname":"Tollerton","alternatenames":"Tollerton","latitude":"52.9166700","longitude":"-1.0833300","fclass":"P","fcode":"PPL","country":"GB","cc2":"","admin1":"ENG","admin2":"J9","admin3":"37UJ","admin4":"37UJ051","population":0,"elevation":0,"gtopo30":38,"timezone":"Europe/London","moddate":"2018-07-03T00:00:00.000Z"},{"geonameid":2635620,"name":"Torworth","asciiname":"Torworth","alternatenames":"Torworth","latitude":"53.3756500","longitude":"-1.0144100","fclass":"P","fcode":"PPL","country":"GB","cc2":"","admin1":"ENG","admin2":"J9","admin3":"37UC","admin4":"37UC057","population":0,"elevation":0,"gtopo30":16,"timezone":"Europe/London","moddate":"2018-07-03T00:00:00.000Z"},{"geonameid":2635609,"name":"Toton","asciiname":"Toton","alternatenames":"","latitude":"52.9077900","longitude":"-1.2584800","fclass":"P","fcode":"PPL","country":"GB","cc2":"","admin1":"ENG","admin2":"J9","admin3":"37UD","admin4":"","population":0,"elevation":0,"gtopo30":34,"timezone":"Europe/London","moddate":"2011-03-03T00:00:00.000Z"},{"geonameid":2635484,"name":"Treswell","asciiname":"Treswell","alternatenames":"","latitude":"53.3041900","longitude":"-0.8251600","fclass":"P","fcode":"PPL","country":"GB","cc2":"","admin1":"ENG","admin2":"J9","admin3":"37UC","admin4":"37UC058","population":211,"elevation":0,"gtopo30":22,"timezone":"Europe/London","moddate":"2018-07-03T00:00:00.000Z"},{"geonameid":2635426,"name":"Trowell","asciiname":"Trowell","alternatenames":"Trowell","latitude":"52.9530900","longitude":"-1.2820100","fclass":"P","fcode":"PPL","country":"GB","cc2":"","admin1":"ENG","admin2":"J9","admin3":"37UD","admin4":"37UD010","population":0,"elevation":0,"gtopo30":54,"timezone":"Europe/London","moddate":"2018-07-03T00:00:00.000Z"},{"geonameid":2635321,"name":"Tuxford","asciiname":"Tuxford","alternatenames":"Tuxford","latitude":"53.2300400","longitude":"-0.8932500","fclass":"P","fcode":"PPL","country":"GB","cc2":"","admin1":"ENG","admin2":"J9","admin3":"37UC","admin4":"37UC059","population":2649,"elevation":0,"gtopo30":55,"timezone":"Europe/London","moddate":"2018-07-03T00:00:00.000Z"},{"geonameid":2635141,"name":"Upper Broughton","asciiname":"Upper Broughton","alternatenames":"Broughton,Broughton Sulney,Upper Broughton","latitude":"52.8286300","longitude":"-0.9877000","fclass":"P","fcode":"PPL","country":"GB","cc2":"","admin1":"ENG","admin2":"J9","admin3":"37UJ","admin4":"37UJ052","population":327,"elevation":0,"gtopo30":89,"timezone":"Europe/London","moddate":"2018-07-03T00:00:00.000Z"},{"geonameid":2635093,"name":"Upton","asciiname":"Upton","alternatenames":"Upton","latitude":"53.0809100","longitude":"-0.9044100","fclass":"P","fcode":"PPL","country":"GB","cc2":"","admin1":"ENG","admin2":"J9","admin3":"37UG","admin4":"37UG078","population":0,"elevation":0,"gtopo30":33,"timezone":"Europe/London","moddate":"2018-07-03T00:00:00.000Z"},{"geonameid":2634893,"name":"Walesby","asciiname":"Walesby","alternatenames":"Walesby","latitude":"53.2289300","longitude":"-0.9793300","fclass":"P","fcode":"PPL","country":"GB","cc2":"","admin1":"ENG","admin2":"J9","admin3":"37UG","admin4":"37UG079","population":0,"elevation":0,"gtopo30":34,"timezone":"Europe/London","moddate":"2018-07-03T00:00:00.000Z"},{"geonameid":2634883,"name":"Walkeringham","asciiname":"Walkeringham","alternatenames":"","latitude":"53.4255100","longitude":"-0.8441000","fclass":"P","fcode":"PPL","country":"GB","cc2":"","admin1":"ENG","admin2":"J9","admin3":"37UC","admin4":"37UC060","population":652,"elevation":0,"gtopo30":11,"timezone":"Europe/London","moddate":"2018-07-03T00:00:00.000Z"},{"geonameid":2634736,"name":"Warsop","asciiname":"Warsop","alternatenames":"","latitude":"53.2140200","longitude":"-1.1509100","fclass":"P","fcode":"PPL","country":"GB","cc2":"","admin1":"ENG","admin2":"J9","admin3":"37UF","admin4":"37UF001","population":9766,"elevation":0,"gtopo30":61,"timezone":"Europe/London","moddate":"2018-07-03T00:00:00.000Z"},{"geonameid":11902831,"name":"Watnall","asciiname":"Watnall","alternatenames":"","latitude":"53.0087800","longitude":"-1.2556500","fclass":"P","fcode":"PPL","country":"GB","cc2":"","admin1":"ENG","admin2":"J9","admin3":"37UD","admin4":"37UD005","population":0,"elevation":0,"gtopo30":109,"timezone":"Europe/London","moddate":"2018-07-10T00:00:00.000Z"},{"geonameid":2634570,"name":"Wellow","asciiname":"Wellow","alternatenames":"Wellow","latitude":"53.1868600","longitude":"-0.9978900","fclass":"P","fcode":"PPL","country":"GB","cc2":"","admin1":"ENG","admin2":"J9","admin3":"37UG","admin4":"37UG080","population":0,"elevation":0,"gtopo30":67,"timezone":"Europe/London","moddate":"2018-07-03T00:00:00.000Z"},{"geonameid":2634493,"name":"West Bridgford","asciiname":"West Bridgford","alternatenames":"Uest Bridzhford,Vest Bridzford,West Bridgeford,West Bridgford,wst bryjfwrd,Вест Бриџфорд,Уест Бриджфорд,وست بریجفورد","latitude":"52.9297900","longitude":"-1.1253700","fclass":"P","fcode":"PPL","country":"GB","cc2":"","admin1":"ENG","admin2":"J9","admin3":"37UJ","admin4":"","population":48314,"elevation":0,"gtopo30":28,"timezone":"Europe/London","moddate":"2011-03-03T00:00:00.000Z"},{"geonameid":2634450,"name":"West Drayton","asciiname":"West Drayton","alternatenames":"","latitude":"53.2666700","longitude":"-0.9333300","fclass":"P","fcode":"PPL","country":"GB","cc2":"","admin1":"ENG","admin2":"J9","admin3":"37UC","admin4":"37UC064","population":0,"elevation":0,"gtopo30":22,"timezone":"Europe/London","moddate":"2018-07-03T00:00:00.000Z"},{"geonameid":2634367,"name":"West Leake","asciiname":"West Leake","alternatenames":"West Leake","latitude":"52.8338800","longitude":"-1.2155300","fclass":"P","fcode":"PPL","country":"GB","cc2":"","admin1":"ENG","admin2":"J9","admin3":"37UJ","admin4":"37UJ053","population":0,"elevation":0,"gtopo30":52,"timezone":"Europe/London","moddate":"2018-07-03T00:00:00.000Z"},{"geonameid":2634265,"name":"West Stockwith","asciiname":"West Stockwith","alternatenames":"Stockwith,West Stockwith","latitude":"53.4430000","longitude":"-0.8136100","fclass":"P","fcode":"PPL","country":"GB","cc2":"","admin1":"ENG","admin2":"J9","admin3":"37UC","admin4":"37UC066","population":641,"elevation":0,"gtopo30":6,"timezone":"Europe/London","moddate":"2018-07-03T00:00:00.000Z"},{"geonameid":2634321,"name":"Weston","asciiname":"Weston","alternatenames":"Weston","latitude":"53.2023200","longitude":"-0.8409400","fclass":"P","fcode":"PPL","country":"GB","cc2":"","admin1":"ENG","admin2":"J9","admin3":"37UG","admin4":"37UG081","population":0,"elevation":0,"gtopo30":23,"timezone":"Europe/London","moddate":"2018-07-03T00:00:00.000Z"},{"geonameid":2634175,"name":"Whatton","asciiname":"Whatton","alternatenames":"","latitude":"52.9460500","longitude":"-0.8917000","fclass":"P","fcode":"PPL","country":"GB","cc2":"","admin1":"ENG","admin2":"J9","admin3":"37UJ","admin4":"37UJ054","population":0,"elevation":0,"gtopo30":31,"timezone":"Europe/London","moddate":"2018-07-03T00:00:00.000Z"},{"geonameid":2633955,"name":"Widmerpool","asciiname":"Widmerpool","alternatenames":"Widmerpool","latitude":"52.8481900","longitude":"-1.0667000","fclass":"P","fcode":"PPL","country":"GB","cc2":"","admin1":"ENG","admin2":"J9","admin3":"37UJ","admin4":"37UJ055","population":339,"elevation":0,"gtopo30":72,"timezone":"Europe/London","moddate":"2018-07-03T00:00:00.000Z"},{"geonameid":2633891,"name":"Willoughby on the Wolds","asciiname":"Willoughby on the Wolds","alternatenames":"Willoughby,Willoughby on the Wolds","latitude":"52.8219900","longitude":"-1.0550200","fclass":"P","fcode":"PPL","country":"GB","cc2":"","admin1":"ENG","admin2":"J9","admin3":"37UJ","admin4":"37UJ056","population":572,"elevation":0,"gtopo30":98,"timezone":"Europe/London","moddate":"2018-07-03T00:00:00.000Z"},{"geonameid":2633781,"name":"Winthorpe","asciiname":"Winthorpe","alternatenames":"Winthorpe","latitude":"53.1000000","longitude":"-0.7833300","fclass":"P","fcode":"PPL","country":"GB","cc2":"","admin1":"ENG","admin2":"J9","admin3":"37UG","admin4":"37UG084","population":650,"elevation":0,"gtopo30":23,"timezone":"Europe/London","moddate":"2018-07-03T00:00:00.000Z"},{"geonameid":2633672,"name":"Woodborough","asciiname":"Woodborough","alternatenames":"","latitude":"53.0231900","longitude":"-1.0602900","fclass":"P","fcode":"PPL","country":"GB","cc2":"","admin1":"ENG","admin2":"J9","admin3":"37UE","admin4":"37UE011","population":0,"elevation":0,"gtopo30":47,"timezone":"Europe/London","moddate":"2018-07-03T00:00:00.000Z"},{"geonameid":7910261,"name":"Woodthorpe","asciiname":"Woodthorpe","alternatenames":"","latitude":"52.9889900","longitude":"-1.1286700","fclass":"P","fcode":"PPL","country":"GB","cc2":"","admin1":"ENG","admin2":"J9","admin3":"37UE","admin4":"","population":0,"elevation":0,"gtopo30":85,"timezone":"Europe/London","moddate":"2011-07-21T00:00:00.000Z"},{"geonameid":2633551,"name":"Worksop","asciiname":"Worksop","alternatenames":"Uehrksop,Uurksop,Worksop,wwrksap,Уърксоп,Уэрксоп,وورکساپ","latitude":"53.3018200","longitude":"-1.1240400","fclass":"P","fcode":"PPL","country":"GB","cc2":"","admin1":"ENG","admin2":"J9","admin3":"37UC","admin4":"","population":43252,"elevation":0,"gtopo30":46,"timezone":"Europe/London","moddate":"2017-06-12T00:00:00.000Z"},{"geonameid":2633435,"name":"Wysall","asciiname":"Wysall","alternatenames":"","latitude":"52.8401100","longitude":"-1.1036100","fclass":"P","fcode":"PPL","country":"GB","cc2":"","admin1":"ENG","admin2":"J9","admin3":"37UJ","admin4":"37UJ058","population":431,"elevation":0,"gtopo30":77,"timezone":"Europe/London","moddate":"2018-07-03T00:00:00.000Z"}],"admin3":[{"geonameid":7290613,"name":"Ashfield District","admin3":"37UB"},{"geonameid":7290614,"name":"Bassetlaw District","admin3":"37UC"},{"geonameid":7290615,"name":"Broxtowe District","admin3":"37UD"},{"geonameid":7290616,"name":"Gedling District","admin3":"37UE"},{"geonameid":7290617,"name":"Mansfield District","admin3":"37UF"},{"geonameid":7290618,"name":"Newark and Sherwood District","admin3":"37UG"},{"geonameid":7290619,"name":"Rushcliffe District","admin3":"37UJ"}],"alternateNames":[{"alternatenameId":1626647,"geonameid":6269131,"isoLanguage":"en","alternateName":"England","isPreferredName":true,"isShortName":true,"isColloquial":false,"isHistoric":false}]},"__N_SSG":true}