{"pageProps":{"locale":"ro","admin2":{"geonameid":679698,"name":"Comuna Davideşti","country":"RO","admin1":"03","admin2":"16285","admin3":"","latitude":"45.0069400","longitude":"25.0359900"},"admin1":{"geonameid":686192,"name":"Argeş","admin1":"03"},"locations":[{"geonameid":681916,"name":"Câlceasca","asciiname":"Calceasca","alternatenames":"Calceasca,Cilceasca,Câlceasca,Cîlceasca,Gilceasca,Gîlceasca","latitude":"45.0333300","longitude":"25.0666700","fclass":"P","fcode":"PPLX","country":"RO","cc2":"RO","admin1":"03","admin2":"16285","admin3":"","admin4":"","population":0,"elevation":0,"gtopo30":391,"timezone":"Europe/Bucharest","moddate":"2020-03-08T00:00:00.000Z"},{"geonameid":680953,"name":"Conțești","asciiname":"Contesti","alternatenames":"","latitude":"44.9849400","longitude":"25.0103200","fclass":"P","fcode":"PPL","country":"RO","cc2":"","admin1":"03","admin2":"16285","admin3":"","admin4":"","population":1464,"elevation":0,"gtopo30":354,"timezone":"Europe/Bucharest","moddate":"2013-04-21T00:00:00.000Z"},{"geonameid":680946,"name":"Conţeştii de Jos","asciiname":"Contestii de Jos","alternatenames":"Contesti de Jos,Contestii de Jos,Conţeşti de Jos,Conţeştii de Jos","latitude":"44.9833300","longitude":"25.0000000","fclass":"P","fcode":"PPLX","country":"RO","cc2":"","admin1":"03","admin2":"16285","admin3":"","admin4":"","population":0,"elevation":0,"gtopo30":339,"timezone":"Europe/Bucharest","moddate":"2016-02-07T00:00:00.000Z"},{"geonameid":680944,"name":"Conţeştii de Sus","asciiname":"Contestii de Sus","alternatenames":"","latitude":"44.9833300","longitude":"25.0166700","fclass":"P","fcode":"PPLX","country":"RO","cc2":"","admin1":"03","admin2":"16285","admin3":"","admin4":"","population":0,"elevation":0,"gtopo30":412,"timezone":"Europe/Bucharest","moddate":"2016-02-07T00:00:00.000Z"},{"geonameid":679701,"name":"Davideşti","asciiname":"Davidesti","alternatenames":"Davidesa,Davidesti,Davidestii,Davideşti","latitude":"45.0166700","longitude":"25.0333300","fclass":"P","fcode":"PPLA2","country":"RO","cc2":"","admin1":"03","admin2":"16285","admin3":"","admin4":"","population":2816,"elevation":0,"gtopo30":452,"timezone":"Europe/Bucharest","moddate":"2012-06-12T00:00:00.000Z"},{"geonameid":676528,"name":"Gura Hulubei","asciiname":"Gura Hulubei","alternatenames":"Gura Hulubei,Gura Ulubi","latitude":"45.0166700","longitude":"25.0500000","fclass":"P","fcode":"PPLX","country":"RO","cc2":"","admin1":"03","admin2":"16285","admin3":"","admin4":"","population":0,"elevation":0,"gtopo30":374,"timezone":"Europe/Bucharest","moddate":"2016-02-07T00:00:00.000Z"},{"geonameid":662459,"name":"Voroveni","asciiname":"Voroveni","alternatenames":"","latitude":"45.0262500","longitude":"25.0645200","fclass":"P","fcode":"PPL","country":"RO","cc2":"","admin1":"03","admin2":"16285","admin3":"","admin4":"","population":549,"elevation":0,"gtopo30":409,"timezone":"Europe/Bucharest","moddate":"2013-04-20T00:00:00.000Z"}],"admin3":[],"alternateNames":[]},"__N_SSG":true}