{"pageProps":{"locale":"ro","admin2":{"geonameid":672153,"name":"Novaci","country":"RO","admin1":"19","admin2":"78258","admin3":"","latitude":"45.1646200","longitude":"23.6683900"},"admin1":{"geonameid":676898,"name":"Gorj","admin1":"19"},"locations":[{"geonameid":685682,"name":"Bălani","asciiname":"Balani","alternatenames":"","latitude":"45.1500000","longitude":"23.6666700","fclass":"P","fcode":"PPL","country":"RO","cc2":"","admin1":"19","admin2":"78258","admin3":"","admin4":"","population":0,"elevation":0,"gtopo30":442,"timezone":"Europe/Bucharest","moddate":"2016-02-07T00:00:00.000Z"},{"geonameid":685072,"name":"Bercești","asciiname":"Bercesti","alternatenames":"","latitude":"45.1746700","longitude":"23.7050800","fclass":"P","fcode":"PPL","country":"RO","cc2":"","admin1":"19","admin2":"78258","admin3":"","admin4":"","population":454,"elevation":0,"gtopo30":502,"timezone":"Europe/Bucharest","moddate":"2013-04-21T00:00:00.000Z"},{"geonameid":677491,"name":"Ghebani","asciiname":"Ghebani","alternatenames":"Ghebani,Gherbani","latitude":"45.1666700","longitude":"23.6333300","fclass":"P","fcode":"PPL","country":"RO","cc2":"","admin1":"19","admin2":"78258","admin3":"","admin4":"","population":0,"elevation":0,"gtopo30":440,"timezone":"Europe/Bucharest","moddate":"2016-02-07T00:00:00.000Z"},{"geonameid":676181,"name":"Hirișești","asciiname":"Hirisesti","alternatenames":"","latitude":"45.1759100","longitude":"23.6443000","fclass":"P","fcode":"PPL","country":"RO","cc2":"","admin1":"19","admin2":"78258","admin3":"","admin4":"","population":607,"elevation":0,"gtopo30":481,"timezone":"Europe/Bucharest","moddate":"2013-04-21T00:00:00.000Z"},{"geonameid":675930,"name":"Huluba","asciiname":"Huluba","alternatenames":"","latitude":"45.1500000","longitude":"23.6166700","fclass":"P","fcode":"PPL","country":"RO","cc2":"","admin1":"19","admin2":"78258","admin3":"","admin4":"","population":0,"elevation":0,"gtopo30":398,"timezone":"Europe/Bucharest","moddate":"2016-02-07T00:00:00.000Z"},{"geonameid":672151,"name":"Novaci","asciiname":"Novaci","alternatenames":"","latitude":"45.1833300","longitude":"23.6666700","fclass":"P","fcode":"PPLA2","country":"RO","cc2":"","admin1":"19","admin2":"78258","admin3":"","admin4":"","population":2697,"elevation":0,"gtopo30":491,"timezone":"Europe/Bucharest","moddate":"2015-11-27T00:00:00.000Z"},{"geonameid":672152,"name":"Novaci-Români","asciiname":"Novaci-Romani","alternatenames":"Novaci-Romani,Novaci-Romini,Novaci-Români,Novaci-Romîni,Novacii-Romani,Novacii-Români","latitude":"45.1666700","longitude":"23.6666700","fclass":"P","fcode":"PPL","country":"RO","cc2":"RO","admin1":"19","admin2":"78258","admin3":"","admin4":"","population":0,"elevation":0,"gtopo30":460,"timezone":"Europe/Bucharest","moddate":"2020-03-08T00:00:00.000Z"},{"geonameid":670366,"name":"Pociovaliștea","asciiname":"Pociovalistea","alternatenames":"","latitude":"45.1531500","longitude":"23.6439200","fclass":"P","fcode":"PPL","country":"RO","cc2":"","admin1":"19","admin2":"78258","admin3":"","admin4":"","population":1494,"elevation":0,"gtopo30":414,"timezone":"Europe/Bucharest","moddate":"2013-04-21T00:00:00.000Z"},{"geonameid":666786,"name":"Sitești","asciiname":"Sitesti","alternatenames":"","latitude":"45.1419400","longitude":"23.6782300","fclass":"P","fcode":"PPL","country":"RO","cc2":"","admin1":"19","admin2":"78258","admin3":"","admin4":"","population":420,"elevation":0,"gtopo30":450,"timezone":"Europe/Bucharest","moddate":"2013-04-21T00:00:00.000Z"},{"geonameid":662587,"name":"Vlădoi","asciiname":"Vladoi","alternatenames":"","latitude":"45.1833300","longitude":"23.7000000","fclass":"P","fcode":"PPL","country":"RO","cc2":"","admin1":"19","admin2":"78258","admin3":"","admin4":"","population":0,"elevation":0,"gtopo30":566,"timezone":"Europe/Bucharest","moddate":"2016-02-07T00:00:00.000Z"}],"admin3":[],"alternateNames":[]},"__N_SSG":true}