{"pageProps":{"locale":"ro","admin2":{"geonameid":686550,"name":"Comuna Albeștii de Argeș","country":"RO","admin1":"03","admin2":"13819","admin3":"","latitude":"45.2166700","longitude":"24.6666700"},"admin1":{"geonameid":686192,"name":"Argeş","admin1":"03"},"locations":[{"geonameid":7871362,"name":"Albeştii de Argeş","asciiname":"Albestii de Arges","alternatenames":"","latitude":"45.2166700","longitude":"24.6666700","fclass":"P","fcode":"PPLA2","country":"RO","cc2":"","admin1":"03","admin2":"13819","admin3":"","admin4":"","population":0,"elevation":0,"gtopo30":489,"timezone":"Europe/Bucharest","moddate":"2012-06-12T00:00:00.000Z"},{"geonameid":686544,"name":"Albeştii Pământeni","asciiname":"Albestii Pamanteni","alternatenames":"Albesti,Albesti-Pamanteni,Albesti-Paminteni,Albestii Pamanteni,Albestii Paminteni,Albestii-Pamanteni,Albeşti,Albeşti-Pământeni,Albeşti-Pămînteni,Albeştii Pământeni,Albeştii Pămînteni,Albeştii-Pământeni,Pamanteni,Paminteni,Pământeni,Pămînteni","latitude":"45.2166700","longitude":"24.6666700","fclass":"P","fcode":"PPL","country":"RO","cc2":"","admin1":"03","admin2":"13819","admin3":"","admin4":"","population":5815,"elevation":0,"gtopo30":489,"timezone":"Europe/Bucharest","moddate":"2020-03-08T00:00:00.000Z"},{"geonameid":686539,"name":"Albeștii Ungureni","asciiname":"Albestii Ungureni","alternatenames":"Albesti-Ungureni,Albestii-Ungureni,Albeşti-Ungureni,Albeştii-Ungureni,Ungureni","latitude":"45.2252900","longitude":"24.6725400","fclass":"P","fcode":"PPL","country":"RO","cc2":"RO","admin1":"03","admin2":"13819","admin3":"","admin4":"","population":2251,"elevation":0,"gtopo30":514,"timezone":"Europe/Bucharest","moddate":"2013-04-21T00:00:00.000Z"},{"geonameid":683819,"name":"Brătești","asciiname":"Bratesti","alternatenames":"","latitude":"45.2253100","longitude":"24.7093300","fclass":"P","fcode":"PPL","country":"RO","cc2":"","admin1":"03","admin2":"13819","admin3":"","admin4":"","population":537,"elevation":0,"gtopo30":555,"timezone":"Europe/Bucharest","moddate":"2013-04-21T00:00:00.000Z"},{"geonameid":679275,"name":"Doblea","asciiname":"Doblea","alternatenames":"Doblea,Doblea-Cerbureni","latitude":"45.2141300","longitude":"24.7061200","fclass":"P","fcode":"PPL","country":"RO","cc2":"RO","admin1":"03","admin2":"13819","admin3":"","admin4":"","population":263,"elevation":0,"gtopo30":543,"timezone":"Europe/Bucharest","moddate":"2013-04-21T00:00:00.000Z"},{"geonameid":679198,"name":"Dobrotu","asciiname":"Dobrotu","alternatenames":"Dobrot,Dobrotu","latitude":"45.2063300","longitude":"24.6585900","fclass":"P","fcode":"PPL","country":"RO","cc2":"RO","admin1":"03","admin2":"13819","admin3":"","admin4":"","population":1021,"elevation":0,"gtopo30":468,"timezone":"Europe/Bucharest","moddate":"2013-04-21T00:00:00.000Z"},{"geonameid":678654,"name":"Dumirești","asciiname":"Dumiresti","alternatenames":"","latitude":"45.2481700","longitude":"24.6976800","fclass":"P","fcode":"PPL","country":"RO","cc2":"","admin1":"03","admin2":"13819","admin3":"","admin4":"","population":91,"elevation":0,"gtopo30":616,"timezone":"Europe/Bucharest","moddate":"2013-04-21T00:00:00.000Z"},{"geonameid":678028,"name":"Florieni","asciiname":"Florieni","alternatenames":"Florieni,Florieni Schitu","latitude":"45.2398800","longitude":"24.7230500","fclass":"P","fcode":"PPL","country":"RO","cc2":"RO","admin1":"03","admin2":"13819","admin3":"","admin4":"","population":65,"elevation":0,"gtopo30":708,"timezone":"Europe/Bucharest","moddate":"2013-04-21T00:00:00.000Z"}],"admin3":[],"alternateNames":[]},"__N_SSG":true}