{"pageProps":{"locale":"ro","admin2":{"geonameid":678953,"name":"Comuna Dragodana","country":"RO","admin1":"16","admin2":"67327","admin3":"","latitude":"44.7589200","longitude":"25.3843300"},"admin1":{"geonameid":679385,"name":"Dâmboviţa","admin1":"16"},"locations":[{"geonameid":684525,"name":"Boboci","asciiname":"Boboci","alternatenames":"","latitude":"44.7985200","longitude":"25.3958300","fclass":"P","fcode":"PPL","country":"RO","cc2":"","admin1":"16","admin2":"67327","admin3":"","admin4":"","population":970,"elevation":0,"gtopo30":249,"timezone":"Europe/Bucharest","moddate":"2013-04-21T00:00:00.000Z"},{"geonameid":683239,"name":"Burduca","asciiname":"Burduca","alternatenames":"","latitude":"44.7425800","longitude":"25.4054700","fclass":"P","fcode":"PPL","country":"RO","cc2":"","admin1":"16","admin2":"67327","admin3":"","admin4":"","population":934,"elevation":0,"gtopo30":195,"timezone":"Europe/Bucharest","moddate":"2013-04-21T00:00:00.000Z"},{"geonameid":679953,"name":"Cuparu","asciiname":"Cuparu","alternatenames":"Cuparu,Cuparul","latitude":"44.7229800","longitude":"25.4007500","fclass":"P","fcode":"PPL","country":"RO","cc2":"RO","admin1":"16","admin2":"67327","admin3":"","admin4":"","population":588,"elevation":0,"gtopo30":179,"timezone":"Europe/Bucharest","moddate":"2013-04-21T00:00:00.000Z"},{"geonameid":678954,"name":"Dragodana","asciiname":"Dragodana","alternatenames":"Dragodana","latitude":"44.7333300","longitude":"25.3500000","fclass":"P","fcode":"PPLA2","country":"RO","cc2":"","admin1":"16","admin2":"67327","admin3":"","admin4":"","population":6918,"elevation":0,"gtopo30":184,"timezone":"Europe/Bucharest","moddate":"2012-06-12T00:00:00.000Z"},{"geonameid":671538,"name":"Pădureni","asciiname":"Padureni","alternatenames":"","latitude":"44.8021900","longitude":"25.3817500","fclass":"P","fcode":"PPL","country":"RO","cc2":"","admin1":"16","admin2":"67327","admin3":"","admin4":"","population":140,"elevation":0,"gtopo30":259,"timezone":"Europe/Bucharest","moddate":"2013-04-21T00:00:00.000Z"},{"geonameid":670881,"name":"Picior de Munte","asciiname":"Picior de Munte","alternatenames":"","latitude":"44.7824700","longitude":"25.3904700","fclass":"P","fcode":"PPL","country":"RO","cc2":"","admin1":"16","admin2":"67327","admin3":"","admin4":"","population":2979,"elevation":0,"gtopo30":235,"timezone":"Europe/Bucharest","moddate":"2013-04-21T00:00:00.000Z"},{"geonameid":666004,"name":"Străoști","asciiname":"Straosti","alternatenames":"","latitude":"44.7312000","longitude":"25.3508100","fclass":"P","fcode":"PPL","country":"RO","cc2":"","admin1":"16","admin2":"67327","admin3":"","admin4":"","population":361,"elevation":0,"gtopo30":185,"timezone":"Europe/Bucharest","moddate":"2013-04-21T00:00:00.000Z"}],"admin3":[],"alternateNames":[]},"__N_SSG":true}