{"pageProps":{"locale":"ro","admin2":{"geonameid":665989,"name":"Comuna Strejeşti","country":"RO","admin1":"29","admin2":"129139","admin3":"","latitude":"44.5273300","longitude":"24.2703600"},"admin1":{"geonameid":671857,"name":"Olt","admin1":"29"},"locations":[{"geonameid":681111,"name":"Colibași","asciiname":"Colibasi","alternatenames":"Colibasi,Colibasu,Colibasul,Colibaşi,Colibaşu,Colibaşul","latitude":"44.5061300","longitude":"24.2751700","fclass":"P","fcode":"PPL","country":"RO","cc2":"RO","admin1":"29","admin2":"129139","admin3":"","admin4":"","population":605,"elevation":0,"gtopo30":123,"timezone":"Europe/Bucharest","moddate":"2013-04-21T00:00:00.000Z"},{"geonameid":673952,"name":"Mamura","asciiname":"Mamura","alternatenames":"","latitude":"44.5340900","longitude":"24.3084800","fclass":"P","fcode":"PPL","country":"RO","cc2":"","admin1":"29","admin2":"129139","admin3":"","admin4":"","population":189,"elevation":0,"gtopo30":124,"timezone":"Europe/Bucharest","moddate":"2013-04-21T00:00:00.000Z"},{"geonameid":665990,"name":"Strejeşti","asciiname":"Strejesti","alternatenames":"Strajestii-de-Jos,Strejesti,Strejestii de Jos,Strejeşti,Strejeştii de Jos,Străjeştii-de-Jos","latitude":"44.5333300","longitude":"24.2666700","fclass":"P","fcode":"PPLA2","country":"RO","cc2":"","admin1":"29","admin2":"129139","admin3":"","admin4":"","population":3404,"elevation":0,"gtopo30":139,"timezone":"Europe/Bucharest","moddate":"2012-06-12T00:00:00.000Z"},{"geonameid":665987,"name":"Strejeștii de Sus","asciiname":"Strejestii de Sus","alternatenames":"Strajestii-de-Sus,Strejestii de Sus,Strejeştii de Sus,Străjeştii-de-Sus","latitude":"44.5438900","longitude":"24.2277200","fclass":"P","fcode":"PPL","country":"RO","cc2":"RO","admin1":"29","admin2":"129139","admin3":"","admin4":"","population":1901,"elevation":0,"gtopo30":153,"timezone":"Europe/Bucharest","moddate":"2013-04-21T00:00:00.000Z"}],"admin3":[],"alternateNames":[]},"__N_SSG":true}