{"pageProps":{"locale":"ro","admin2":{"geonameid":667174,"name":"Comuna Siliştea","country":"RO","admin1":"08","admin2":"43992","admin3":"","latitude":"45.3526300","longitude":"27.8259200"},"admin1":{"geonameid":683901,"name":"Brăila","admin1":"08"},"locations":[{"geonameid":680450,"name":"Cotu Lung","asciiname":"Cotu Lung","alternatenames":"Cotu Lung,Cotul Lung","latitude":"45.3892100","longitude":"27.8227300","fclass":"P","fcode":"PPL","country":"RO","cc2":"RO","admin1":"08","admin2":"43992","admin3":"","admin4":"","population":243,"elevation":0,"gtopo30":6,"timezone":"Europe/Bucharest","moddate":"2013-04-21T00:00:00.000Z"},{"geonameid":680445,"name":"Cotu Mihalea","asciiname":"Cotu Mihalea","alternatenames":"Cotu Mihalea,Cotul-Mihalea","latitude":"45.3970700","longitude":"27.8399900","fclass":"P","fcode":"PPL","country":"RO","cc2":"RO","admin1":"08","admin2":"43992","admin3":"","admin4":"","population":98,"elevation":0,"gtopo30":7,"timezone":"Europe/Bucharest","moddate":"2013-04-21T00:00:00.000Z"},{"geonameid":673746,"name":"Mărtăcești","asciiname":"Martacesti","alternatenames":"","latitude":"45.2815300","longitude":"27.8333700","fclass":"P","fcode":"PPL","country":"RO","cc2":"","admin1":"08","admin2":"43992","admin3":"","admin4":"","population":163,"elevation":0,"gtopo30":13,"timezone":"Europe/Bucharest","moddate":"2013-04-21T00:00:00.000Z"},{"geonameid":672706,"name":"Muchea","asciiname":"Muchea","alternatenames":"","latitude":"45.3354700","longitude":"27.8233300","fclass":"P","fcode":"PPL","country":"RO","cc2":"","admin1":"08","admin2":"43992","admin3":"","admin4":"","population":350,"elevation":0,"gtopo30":6,"timezone":"Europe/Bucharest","moddate":"2013-04-21T00:00:00.000Z"},{"geonameid":672481,"name":"Nazâru Nou","asciiname":"Nazaru Nou","alternatenames":"Nazaru Nou,Naziru Nou,Nazâru Nou,Nazîru Nou","latitude":"45.3000000","longitude":"27.8166700","fclass":"P","fcode":"PPLX","country":"RO","cc2":"","admin1":"08","admin2":"43992","admin3":"","admin4":"","population":0,"elevation":0,"gtopo30":13,"timezone":"Europe/Bucharest","moddate":"2020-03-08T00:00:00.000Z"},{"geonameid":667188,"name":"Siliştea","asciiname":"Silistea","alternatenames":"Nazaru,Nazarul,Naziru,Nazâru,Nazârul,Nazîru,Silistea,Siliştea","latitude":"45.3000000","longitude":"27.8500000","fclass":"P","fcode":"PPLA2","country":"RO","cc2":"","admin1":"08","admin2":"43992","admin3":"","admin4":"","population":1855,"elevation":0,"gtopo30":10,"timezone":"Europe/Bucharest","moddate":"2012-06-12T00:00:00.000Z"},{"geonameid":663212,"name":"Vameșu","asciiname":"Vamesu","alternatenames":"","latitude":"45.4012600","longitude":"27.8013800","fclass":"P","fcode":"PPL","country":"RO","cc2":"","admin1":"08","admin2":"43992","admin3":"","admin4":"","population":32,"elevation":0,"gtopo30":8,"timezone":"Europe/Bucharest","moddate":"2013-04-20T00:00:00.000Z"}],"admin3":[],"alternateNames":[]},"__N_SSG":true}