{"pageProps":{"locale":"ro","admin2":{"geonameid":668651,"name":"Comuna Roşia","country":"RO","admin1":"33","admin2":"145408","admin3":"","latitude":"45.8038500","longitude":"24.3178600"},"admin1":{"geonameid":667267,"name":"Sibiu","admin1":"33"},"locations":[{"geonameid":682594,"name":"Cașolț","asciiname":"Casolt","alternatenames":"Casolt,Caşolţ,Kastenholz","latitude":"45.7793700","longitude":"24.2830400","fclass":"P","fcode":"PPL","country":"RO","cc2":"RO","admin1":"33","admin2":"145408","admin3":"","admin4":"","population":667,"elevation":0,"gtopo30":394,"timezone":"Europe/Bucharest","moddate":"2013-04-21T00:00:00.000Z"},{"geonameid":680799,"name":"Cornățel","asciiname":"Cornatel","alternatenames":"","latitude":"45.8002000","longitude":"24.3561600","fclass":"P","fcode":"PPL","country":"RO","cc2":"","admin1":"33","admin2":"145408","admin3":"","admin4":"","population":482,"elevation":0,"gtopo30":407,"timezone":"Europe/Bucharest","moddate":"2013-04-21T00:00:00.000Z"},{"geonameid":679820,"name":"Daia","asciiname":"Daia","alternatenames":"Daia,Sasadaia","latitude":"45.8012900","longitude":"24.2851800","fclass":"P","fcode":"PPL","country":"RO","cc2":"RO","admin1":"33","admin2":"145408","admin3":"","admin4":"","population":753,"elevation":0,"gtopo30":426,"timezone":"Europe/Bucharest","moddate":"2013-04-21T00:00:00.000Z"},{"geonameid":675595,"name":"În Pădure","asciiname":"In Padure","alternatenames":"","latitude":"45.8000000","longitude":"24.3500000","fclass":"P","fcode":"PPL","country":"RO","cc2":"","admin1":"33","admin2":"145408","admin3":"","admin4":"","population":0,"elevation":0,"gtopo30":398,"timezone":"Europe/Bucharest","moddate":"2016-02-07T00:00:00.000Z"},{"geonameid":672163,"name":"Nou","asciiname":"Nou","alternatenames":"Szaszujfalu,Szászújfalu","latitude":"45.8333300","longitude":"24.2833300","fclass":"P","fcode":"PPL","country":"RO","cc2":"","admin1":"33","admin2":"145408","admin3":"","admin4":"","population":1606,"elevation":0,"gtopo30":432,"timezone":"Europe/Bucharest","moddate":"2015-12-29T00:00:00.000Z"},{"geonameid":672143,"name":"Nucet","asciiname":"Nucet","alternatenames":"","latitude":"45.8000000","longitude":"24.3833300","fclass":"P","fcode":"PPL","country":"RO","cc2":"","admin1":"33","admin2":"145408","admin3":"","admin4":"","population":47,"elevation":0,"gtopo30":478,"timezone":"Europe/Bucharest","moddate":"2015-11-05T00:00:00.000Z"},{"geonameid":669189,"name":"Rămurenii","asciiname":"Ramurenii","alternatenames":"Colibi,Ramureni,Ramurenii,Rămureni,Rămurenii","latitude":"45.8000000","longitude":"24.3500000","fclass":"P","fcode":"PPLX","country":"RO","cc2":"","admin1":"33","admin2":"145408","admin3":"","admin4":"","population":0,"elevation":0,"gtopo30":398,"timezone":"Europe/Bucharest","moddate":"2020-06-10T00:00:00.000Z"},{"geonameid":668656,"name":"Roşia","asciiname":"Rosia","alternatenames":"Rosia,Rosia Saseasca,Roşia,Roşia Săsească","latitude":"45.8166700","longitude":"24.3166700","fclass":"P","fcode":"PPLA2","country":"RO","cc2":"","admin1":"33","admin2":"145408","admin3":"","admin4":"","population":4733,"elevation":0,"gtopo30":426,"timezone":"Europe/Bucharest","moddate":"2012-06-12T00:00:00.000Z"},{"geonameid":666881,"name":"Şipot","asciiname":"Sipot","alternatenames":"","latitude":"45.8000000","longitude":"24.3500000","fclass":"P","fcode":"PPL","country":"RO","cc2":"","admin1":"33","admin2":"145408","admin3":"","admin4":"","population":0,"elevation":0,"gtopo30":398,"timezone":"Europe/Bucharest","moddate":"2016-02-07T00:00:00.000Z"}],"admin3":[],"alternateNames":[]},"__N_SSG":true}