{"pageProps":{"locale":"ro","admin2":{"geonameid":8334770,"name":"Comuna Supur","country":"RO","admin1":"32","admin2":"138921","admin3":"","latitude":"47.4582600","longitude":"22.8076700"},"admin1":{"geonameid":667869,"name":"Satu Mare","admin1":"32"},"locations":[{"geonameid":679265,"name":"Dobra","asciiname":"Dobra","alternatenames":"","latitude":"47.4947700","longitude":"22.8276200","fclass":"P","fcode":"PPL","country":"RO","cc2":"","admin1":"32","admin2":"138921","admin3":"","admin4":"","population":1330,"elevation":0,"gtopo30":142,"timezone":"Europe/Bucharest","moddate":"2013-04-21T00:00:00.000Z"},{"geonameid":677248,"name":"Giorocuta","asciiname":"Giorocuta","alternatenames":"","latitude":"47.4322600","longitude":"22.7976900","fclass":"P","fcode":"PPL","country":"RO","cc2":"","admin1":"32","admin2":"138921","admin3":"","admin4":"","population":845,"elevation":0,"gtopo30":155,"timezone":"Europe/Bucharest","moddate":"2013-04-21T00:00:00.000Z"},{"geonameid":675906,"name":"Hurezu Mare","asciiname":"Hurezu Mare","alternatenames":"Hurez,Hurezu Mare,Hurezul-Mare","latitude":"47.4652300","longitude":"22.8383800","fclass":"P","fcode":"PPL","country":"RO","cc2":"RO","admin1":"32","admin2":"138921","admin3":"","admin4":"","population":603,"elevation":0,"gtopo30":151,"timezone":"Europe/Bucharest","moddate":"2013-04-21T00:00:00.000Z"},{"geonameid":669337,"name":"Racova","asciiname":"Racova","alternatenames":"","latitude":"47.4623100","longitude":"22.8870800","fclass":"P","fcode":"PPL","country":"RO","cc2":"","admin1":"32","admin2":"138921","admin3":"","admin4":"","population":351,"elevation":0,"gtopo30":163,"timezone":"Europe/Bucharest","moddate":"2013-04-21T00:00:00.000Z"},{"geonameid":667490,"name":"Sechere»ôa","asciiname":"Secheresa","alternatenames":"","latitude":"47.4525800","longitude":"22.7423200","fclass":"P","fcode":"PPL","country":"RO","cc2":"","admin1":"32","admin2":"138921","admin3":"","admin4":"","population":102,"elevation":0,"gtopo30":230,"timezone":"Europe/Bucharest","moddate":"2013-04-21T00:00:00.000Z"},{"geonameid":665758,"name":"Supuru de Jos","asciiname":"Supuru de Jos","alternatenames":"Supuru de Jos,Supurul-de-Jos","latitude":"47.4666700","longitude":"22.8000000","fclass":"P","fcode":"PPL","country":"RO","cc2":"","admin1":"32","admin2":"138921","admin3":"","admin4":"","population":4598,"elevation":0,"gtopo30":145,"timezone":"Europe/Bucharest","moddate":"2016-02-07T00:00:00.000Z"},{"geonameid":665756,"name":"Supuru de Sus","asciiname":"Supuru de Sus","alternatenames":"Supuru de Sus,Supurul-de-Sus","latitude":"47.4334900","longitude":"22.7658500","fclass":"P","fcode":"PPL","country":"RO","cc2":"RO","admin1":"32","admin2":"138921","admin3":"","admin4":"","population":489,"elevation":0,"gtopo30":156,"timezone":"Europe/Bucharest","moddate":"2013-04-21T00:00:00.000Z"}],"admin3":[],"alternateNames":[]},"__N_SSG":true}