{"pageProps":{"locale":"ro","admin2":{"geonameid":685743,"name":"Comuna Bala","country":"RO","admin1":"26","admin2":"110296","admin3":"","latitude":"44.8947900","longitude":"22.8323500"},"admin1":{"geonameid":673612,"name":"Mehedinţi","admin1":"26"},"locations":[{"geonameid":685745,"name":"Bala","asciiname":"Bala","alternatenames":"Bala,Bala de Jos","latitude":"44.8838900","longitude":"22.8333300","fclass":"P","fcode":"PPLA2","country":"RO","cc2":"","admin1":"26","admin2":"110296","admin3":"","admin4":"","population":4580,"elevation":0,"gtopo30":232,"timezone":"Europe/Bucharest","moddate":"2012-06-12T00:00:00.000Z"},{"geonameid":685712,"name":"Bala de Sus","asciiname":"Bala de Sus","alternatenames":"","latitude":"44.8983400","longitude":"22.8134600","fclass":"P","fcode":"PPL","country":"RO","cc2":"","admin1":"26","admin2":"110296","admin3":"","admin4":"","population":660,"elevation":0,"gtopo30":283,"timezone":"Europe/Bucharest","moddate":"2013-04-21T00:00:00.000Z"},{"geonameid":683812,"name":"Brateșul","asciiname":"Bratesul","alternatenames":"Bratesul,Brateşul,Laturoasa,Lăturoasa","latitude":"44.9102600","longitude":"22.8280500","fclass":"P","fcode":"PPL","country":"RO","cc2":"RO","admin1":"26","admin2":"110296","admin3":"","admin4":"","population":162,"elevation":0,"gtopo30":291,"timezone":"Europe/Bucharest","moddate":"2013-04-21T00:00:00.000Z"},{"geonameid":683794,"name":"Brativoești","asciiname":"Brativoesti","alternatenames":"","latitude":"44.9244700","longitude":"22.8480400","fclass":"P","fcode":"PPL","country":"RO","cc2":"","admin1":"26","admin2":"110296","admin3":"","admin4":"","population":209,"elevation":0,"gtopo30":276,"timezone":"Europe/Bucharest","moddate":"2013-04-21T00:00:00.000Z"},{"geonameid":681843,"name":"Câmpu Mare","asciiname":"Campu Mare","alternatenames":"Campu Mare,Campul Mare,Cimpu Mare,Câmpu Mare,Câmpul Mare,Cîmpu Mare","latitude":"44.8580200","longitude":"22.8888900","fclass":"P","fcode":"PPL","country":"RO","cc2":"RO","admin1":"26","admin2":"110296","admin3":"","admin4":"","population":118,"elevation":0,"gtopo30":205,"timezone":"Europe/Bucharest","moddate":"2013-04-21T00:00:00.000Z"},{"geonameid":681525,"name":"Cârşu","asciiname":"Carsu","alternatenames":"Carciu,Carsisu,Carsu,Cirsu,Cârciu,Cârsisu,Cârşu,Cîrşu","latitude":"44.9000000","longitude":"22.8333300","fclass":"P","fcode":"PPL","country":"RO","cc2":"RO","admin1":"26","admin2":"110296","admin3":"","admin4":"","population":0,"elevation":0,"gtopo30":352,"timezone":"Europe/Bucharest","moddate":"2020-03-08T00:00:00.000Z"},{"geonameid":681988,"name":"Chiţimi","asciiname":"Chitimi","alternatenames":"Chitimi,Chitimii,Chiţimi,Chiţimii","latitude":"44.8666700","longitude":"22.8666700","fclass":"P","fcode":"PPL","country":"RO","cc2":"","admin1":"26","admin2":"110296","admin3":"","admin4":"","population":0,"elevation":0,"gtopo30":210,"timezone":"Europe/Bucharest","moddate":"2016-02-07T00:00:00.000Z"},{"geonameid":681021,"name":"Comănești","asciiname":"Comanesti","alternatenames":"","latitude":"44.9361000","longitude":"22.8671300","fclass":"P","fcode":"PPL","country":"RO","cc2":"","admin1":"26","admin2":"110296","admin3":"","admin4":"","population":196,"elevation":0,"gtopo30":269,"timezone":"Europe/Bucharest","moddate":"2013-04-21T00:00:00.000Z"},{"geonameid":680337,"name":"Crainici","asciiname":"Crainici","alternatenames":"","latitude":"44.9031500","longitude":"22.8725100","fclass":"P","fcode":"PPL","country":"RO","cc2":"","admin1":"26","admin2":"110296","admin3":"","admin4":"","population":450,"elevation":0,"gtopo30":229,"timezone":"Europe/Bucharest","moddate":"2013-04-21T00:00:00.000Z"},{"geonameid":679400,"name":"Dâlma","asciiname":"Dalma","alternatenames":"Dalma,Dilma,Dâlma,Dîlma","latitude":"44.8999900","longitude":"22.7494600","fclass":"P","fcode":"PPL","country":"RO","cc2":"RO","admin1":"26","admin2":"110296","admin3":"","admin4":"","population":431,"elevation":0,"gtopo30":508,"timezone":"Europe/Bucharest","moddate":"2013-04-21T00:00:00.000Z"},{"geonameid":677123,"name":"Giureşti","asciiname":"Giuresti","alternatenames":"","latitude":"44.8722200","longitude":"22.8466700","fclass":"P","fcode":"PPL","country":"RO","cc2":"","admin1":"26","admin2":"110296","admin3":"","admin4":"","population":0,"elevation":0,"gtopo30":228,"timezone":"Europe/Bucharest","moddate":"2016-02-07T00:00:00.000Z"},{"geonameid":675443,"name":"Iupca","asciiname":"Iupca","alternatenames":"","latitude":"44.8677300","longitude":"22.8661700","fclass":"P","fcode":"PPL","country":"RO","cc2":"","admin1":"26","admin2":"110296","admin3":"","admin4":"","population":151,"elevation":0,"gtopo30":211,"timezone":"Europe/Bucharest","moddate":"2013-04-21T00:00:00.000Z"},{"geonameid":672917,"name":"Molani","asciiname":"Molani","alternatenames":"","latitude":"44.9308100","longitude":"22.8520700","fclass":"P","fcode":"PPL","country":"RO","cc2":"","admin1":"26","admin2":"110296","admin3":"","admin4":"","population":106,"elevation":0,"gtopo30":292,"timezone":"Europe/Bucharest","moddate":"2013-04-21T00:00:00.000Z"},{"geonameid":668519,"name":"Rudina","asciiname":"Rudina","alternatenames":"","latitude":"44.8797000","longitude":"22.7955500","fclass":"P","fcode":"PPL","country":"RO","cc2":"","admin1":"26","admin2":"110296","admin3":"","admin4":"","population":605,"elevation":0,"gtopo30":274,"timezone":"Europe/Bucharest","moddate":"2013-04-21T00:00:00.000Z"},{"geonameid":668471,"name":"Runcușoru","asciiname":"Runcusoru","alternatenames":"Runcsoru,Runcsorul,Runcu,Runcusoru,Runcuşoru,Runcşoru,Runcşorul","latitude":"44.8916500","longitude":"22.7286300","fclass":"P","fcode":"PPL","country":"RO","cc2":"RO","admin1":"26","admin2":"110296","admin3":"","admin4":"","population":248,"elevation":0,"gtopo30":512,"timezone":"Europe/Bucharest","moddate":"2013-04-21T00:00:00.000Z"},{"geonameid":668001,"name":"Sărdănești","asciiname":"Sardanesti","alternatenames":"","latitude":"44.8787200","longitude":"22.8881600","fclass":"P","fcode":"PPL","country":"RO","cc2":"","admin1":"26","admin2":"110296","admin3":"","admin4":"","population":145,"elevation":0,"gtopo30":237,"timezone":"Europe/Bucharest","moddate":"2013-04-21T00:00:00.000Z"},{"geonameid":668000,"name":"Sărdăneştii de Jos","asciiname":"Sardanestii de Jos","alternatenames":"","latitude":"44.8833300","longitude":"22.8833300","fclass":"P","fcode":"PPLX","country":"RO","cc2":"","admin1":"26","admin2":"110296","admin3":"","admin4":"","population":0,"elevation":0,"gtopo30":213,"timezone":"Europe/Bucharest","moddate":"2016-02-07T00:00:00.000Z"},{"geonameid":667998,"name":"Sărdăneştii de Sus","asciiname":"Sardanestii de Sus","alternatenames":"","latitude":"44.9000000","longitude":"22.8833300","fclass":"P","fcode":"PPLX","country":"RO","cc2":"","admin1":"26","admin2":"110296","admin3":"","admin4":"","population":0,"elevation":0,"gtopo30":234,"timezone":"Europe/Bucharest","moddate":"2016-02-07T00:00:00.000Z"},{"geonameid":662974,"name":"Vidimirești","asciiname":"Vidimiresti","alternatenames":"","latitude":"44.8596700","longitude":"22.8253800","fclass":"P","fcode":"PPL","country":"RO","cc2":"","admin1":"26","admin2":"110296","admin3":"","admin4":"","population":223,"elevation":0,"gtopo30":237,"timezone":"Europe/Bucharest","moddate":"2013-04-20T00:00:00.000Z"}],"admin3":[],"alternateNames":[]},"__N_SSG":true}