{"pageProps":{"locale":"ro","admin2":{"geonameid":8334917,"name":"Municipiul Reşiţa","country":"RO","admin1":"12","admin2":"50790","admin3":"","latitude":"45.2983800","longitude":"21.9119200"},"admin1":{"geonameid":682714,"name":"Caraş-Severin","admin1":"12"},"locations":[{"geonameid":681903,"name":"Câlnic","asciiname":"Calnic","alternatenames":"Calnic,Cilnic,Câlnic,Cîlnic,Kelnik,Kolnik,Kolnok,Kölnik,Kölnök","latitude":"45.3384400","longitude":"21.8575400","fclass":"P","fcode":"PPL","country":"RO","cc2":"RO","admin1":"12","admin2":"50790","admin3":"","admin4":"","population":1687,"elevation":0,"gtopo30":208,"timezone":"Europe/Bucharest","moddate":"2013-04-21T00:00:00.000Z"},{"geonameid":679948,"name":"Cuptoare","asciiname":"Cuptoare","alternatenames":"","latitude":"45.2615900","longitude":"21.9688000","fclass":"P","fcode":"PPL","country":"RO","cc2":"","admin1":"12","admin2":"50790","admin3":"","admin4":"","population":427,"elevation":0,"gtopo30":496,"timezone":"Europe/Bucharest","moddate":"2013-04-21T00:00:00.000Z"},{"geonameid":679128,"name":"Doman","asciiname":"Doman","alternatenames":"","latitude":"45.2653300","longitude":"21.9162100","fclass":"P","fcode":"PPL","country":"RO","cc2":"","admin1":"12","admin2":"50790","admin3":"","admin4":"","population":813,"elevation":0,"gtopo30":356,"timezone":"Europe/Bucharest","moddate":"2013-04-21T00:00:00.000Z"},{"geonameid":672884,"name":"Moniom","asciiname":"Moniom","alternatenames":"Maniom,Moniom,Monyo,Monyó,Mâniom","latitude":"45.3499500","longitude":"21.8344500","fclass":"P","fcode":"PPL","country":"RO","cc2":"RO","admin1":"12","admin2":"50790","admin3":"","admin4":"","population":388,"elevation":0,"gtopo30":195,"timezone":"Europe/Bucharest","moddate":"2013-04-21T00:00:00.000Z"},{"geonameid":668954,"name":"Reşiţa","asciiname":"Resita","alternatenames":"QRS,Recita,Reciţa,Reschitz,Reschitza,Resicabanya,Resicabánya,Resicza,Resiczabanya,Resiczabánya,Resita,Reşiţa,Reșița","latitude":"45.3008300","longitude":"21.8891700","fclass":"P","fcode":"PPLA","country":"RO","cc2":"","admin1":"12","admin2":"50790","admin3":"","admin4":"","population":81228,"elevation":0,"gtopo30":301,"timezone":"Europe/Bucharest","moddate":"2020-06-10T00:00:00.000Z"},{"geonameid":668952,"name":"Reşiţa Montana","asciiname":"Resita Montana","alternatenames":"","latitude":"45.3000000","longitude":"21.9000000","fclass":"P","fcode":"PPLX","country":"RO","cc2":"","admin1":"12","admin2":"50790","admin3":"","admin4":"","population":0,"elevation":0,"gtopo30":289,"timezone":"Europe/Bucharest","moddate":"2016-02-07T00:00:00.000Z"},{"geonameid":668951,"name":"Reşiţa Română","asciiname":"Resita Romana","alternatenames":"Resita Romana,Resita Romina,Reşiţa Română,Reşiţa Romînă","latitude":"45.3000000","longitude":"21.9000000","fclass":"P","fcode":"PPLX","country":"RO","cc2":"","admin1":"12","admin2":"50790","admin3":"","admin4":"","population":0,"elevation":0,"gtopo30":289,"timezone":"Europe/Bucharest","moddate":"2020-03-08T00:00:00.000Z"},{"geonameid":667480,"name":"Secu","asciiname":"Secu","alternatenames":"Cuptoare Secu,Cuptoare-Secul,Secu","latitude":"45.2699800","longitude":"21.9794300","fclass":"P","fcode":"PPL","country":"RO","cc2":"RO","admin1":"12","admin2":"50790","admin3":"","admin4":"","population":514,"elevation":0,"gtopo30":444,"timezone":"Europe/Bucharest","moddate":"2013-04-21T00:00:00.000Z"},{"geonameid":665226,"name":"Țerova","asciiname":"Terova","alternatenames":"","latitude":"45.3085000","longitude":"21.9241600","fclass":"P","fcode":"PPLX","country":"RO","cc2":"","admin1":"12","admin2":"50790","admin3":"","admin4":"","population":573,"elevation":0,"gtopo30":236,"timezone":"Europe/Bucharest","moddate":"2013-04-21T00:00:00.000Z"}],"admin3":[],"alternateNames":[]},"__N_SSG":true}