{"pageProps":{"locale":"ro","admin2":{"geonameid":8334759,"name":"Oraş Corabia","country":"RO","admin1":"29","admin2":"125542","admin3":"","latitude":"43.8024800","longitude":"24.4702800"},"admin1":{"geonameid":671857,"name":"Olt","admin1":"29"},"locations":[{"geonameid":682433,"name":"Celeiu","asciiname":"Celeiu","alternatenames":"Celeiu,Celeiul","latitude":"43.7666700","longitude":"24.4500000","fclass":"P","fcode":"PPL","country":"RO","cc2":"","admin1":"29","admin2":"125542","admin3":"","admin4":"","population":0,"elevation":0,"gtopo30":40,"timezone":"Europe/Bucharest","moddate":"2016-02-07T00:00:00.000Z"},{"geonameid":680897,"name":"Corabia","asciiname":"Corabia","alternatenames":"Corabia,Korabija,Opstina Corabia,Opština Corabia,ke la bi ya,korabia,kwrbya,Корабия,Корабија,Корабія,کوربیا,コラビア,科拉比亞","latitude":"43.7751300","longitude":"24.5014600","fclass":"P","fcode":"PPLA2","country":"RO","cc2":"","admin1":"29","admin2":"125542","admin3":"","admin4":"","population":20047,"elevation":0,"gtopo30":54,"timezone":"Europe/Bucharest","moddate":"2019-02-28T00:00:00.000Z"},{"geonameid":12032091,"name":"Daşova","asciiname":"Dasova","alternatenames":"","latitude":"43.7762200","longitude":"24.5277600","fclass":"P","fcode":"PPLX","country":"RO","cc2":"","admin1":"29","admin2":"125542","admin3":"","admin4":"","population":0,"elevation":0,"gtopo30":33,"timezone":"Europe/Bucharest","moddate":"2019-03-01T00:00:00.000Z"},{"geonameid":678032,"name":"Florica","asciiname":"Florica","alternatenames":"","latitude":"43.8000000","longitude":"24.4666700","fclass":"P","fcode":"PPLX","country":"RO","cc2":"","admin1":"29","admin2":"125542","admin3":"","admin4":"","population":0,"elevation":0,"gtopo30":42,"timezone":"Europe/Bucharest","moddate":"2016-02-07T00:00:00.000Z"},{"geonameid":667161,"name":"Siliştioara","asciiname":"Silistioara","alternatenames":"Silistioara,Silistoara,Siliştioara,Siliştoara","latitude":"43.7744000","longitude":"24.5495600","fclass":"P","fcode":"PPLX","country":"RO","cc2":"","admin1":"29","admin2":"125542","admin3":"","admin4":"","population":0,"elevation":0,"gtopo30":15,"timezone":"Europe/Bucharest","moddate":"2019-03-01T00:00:00.000Z"},{"geonameid":664571,"name":"Tudor Vladimirescu","asciiname":"Tudor Vladimirescu","alternatenames":"","latitude":"43.8245600","longitude":"24.4957100","fclass":"P","fcode":"PPL","country":"RO","cc2":"","admin1":"29","admin2":"125542","admin3":"","admin4":"","population":753,"elevation":0,"gtopo30":51,"timezone":"Europe/Bucharest","moddate":"2013-04-21T00:00:00.000Z"},{"geonameid":662728,"name":"Vârtopu","asciiname":"Vartopu","alternatenames":"Virtopu,Vîrtopu","latitude":"43.8166700","longitude":"24.4000000","fclass":"P","fcode":"PPL","country":"RO","cc2":"","admin1":"29","admin2":"125542","admin3":"","admin4":"","population":425,"elevation":0,"gtopo30":45,"timezone":"Europe/Bucharest","moddate":"2015-12-19T00:00:00.000Z"}],"admin3":[],"alternateNames":[]},"__N_SSG":true}