{"pageProps":{"locale":"ro","admin2":{"geonameid":663833,"name":"Comuna Valea Ciorii","country":"RO","admin1":"22","admin2":"94688","admin3":"","latitude":"44.7145600","longitude":"27.5397900"},"admin1":{"geonameid":675848,"name":"Ialomiţa","admin1":"22"},"locations":[{"geonameid":683533,"name":"Bucșa","asciiname":"Bucsa","alternatenames":"","latitude":"44.7174000","longitude":"27.5225500","fclass":"P","fcode":"PPL","country":"RO","cc2":"","admin1":"22","admin2":"94688","admin3":"","admin4":"","population":179,"elevation":0,"gtopo30":23,"timezone":"Europe/Bucharest","moddate":"2013-04-21T00:00:00.000Z"},{"geonameid":678655,"name":"Dumitrești","asciiname":"Dumitresti","alternatenames":"","latitude":"44.7158000","longitude":"27.5059300","fclass":"P","fcode":"PPL","country":"RO","cc2":"","admin1":"22","admin2":"94688","admin3":"","admin4":"","population":127,"elevation":0,"gtopo30":24,"timezone":"Europe/Bucharest","moddate":"2013-04-21T00:00:00.000Z"},{"geonameid":672617,"name":"Murgeanca","asciiname":"Murgeanca","alternatenames":"","latitude":"44.7073700","longitude":"27.5757700","fclass":"P","fcode":"PPL","country":"RO","cc2":"","admin1":"22","admin2":"94688","admin3":"","admin4":"","population":463,"elevation":0,"gtopo30":21,"timezone":"Europe/Bucharest","moddate":"2013-04-21T00:00:00.000Z"},{"geonameid":663834,"name":"Valea Ciorii","asciiname":"Valea Ciorii","alternatenames":"Ciorusca,Cioruşca,Valea Ciorii","latitude":"44.7166700","longitude":"27.5666700","fclass":"P","fcode":"PPLA2","country":"RO","cc2":"","admin1":"22","admin2":"94688","admin3":"","admin4":"","population":1996,"elevation":0,"gtopo30":20,"timezone":"Europe/Bucharest","moddate":"2012-06-12T00:00:00.000Z"}],"admin3":[],"alternateNames":[]},"__N_SSG":true}