{"pageProps":{"locale":"ro","admin2":{"geonameid":677675,"name":"Comuna Galbenu","country":"RO","admin1":"08","admin2":"43180","admin3":"","latitude":"45.1925200","longitude":"27.1666900"},"admin1":{"geonameid":683901,"name":"Brăila","admin1":"08"},"locations":[{"geonameid":678814,"name":"Drogu","asciiname":"Drogu","alternatenames":"Drogu,Drogul","latitude":"45.1826400","longitude":"27.2317400","fclass":"P","fcode":"PPL","country":"RO","cc2":"RO","admin1":"08","admin2":"43180","admin3":"","admin4":"","population":972,"elevation":0,"gtopo30":48,"timezone":"Europe/Bucharest","moddate":"2013-04-21T00:00:00.000Z"},{"geonameid":677676,"name":"Galbenu","asciiname":"Galbenu","alternatenames":"Galbenu,Galbenul","latitude":"45.2166700","longitude":"27.1666700","fclass":"P","fcode":"PPLA2","country":"RO","cc2":"","admin1":"08","admin2":"43180","admin3":"","admin4":"","population":3572,"elevation":0,"gtopo30":48,"timezone":"Europe/Bucharest","moddate":"2012-06-12T00:00:00.000Z"},{"geonameid":670786,"name":"Pântecani","asciiname":"Pantecani","alternatenames":"Pantecani,Pintecani,Pântecani,Pîntecani","latitude":"45.1923700","longitude":"27.1743300","fclass":"P","fcode":"PPL","country":"RO","cc2":"RO","admin1":"08","admin2":"43180","admin3":"","admin4":"","population":176,"elevation":0,"gtopo30":47,"timezone":"Europe/Bucharest","moddate":"2013-04-21T00:00:00.000Z"},{"geonameid":667889,"name":"Sătuc","asciiname":"Satuc","alternatenames":"Satuc,Satucu,Slobozia Galbenul,Sătuc,Sătucu","latitude":"45.1856100","longitude":"27.1563400","fclass":"P","fcode":"PPL","country":"RO","cc2":"RO","admin1":"08","admin2":"43180","admin3":"","admin4":"","population":802,"elevation":0,"gtopo30":55,"timezone":"Europe/Bucharest","moddate":"2013-04-21T00:00:00.000Z"},{"geonameid":662319,"name":"Zamfireşti","asciiname":"Zamfiresti","alternatenames":"","latitude":"45.1833300","longitude":"27.2166700","fclass":"P","fcode":"PPLX","country":"RO","cc2":"","admin1":"08","admin2":"43180","admin3":"","admin4":"","population":0,"elevation":0,"gtopo30":38,"timezone":"Europe/Bucharest","moddate":"2016-02-07T00:00:00.000Z"},{"geonameid":662320,"name":"Zamfirești","asciiname":"Zamfiresti","alternatenames":"Andreesti,Andreesti-Zamfiresti,Andreeşti,Andreeşti-Zamfireşti,Udresti,Udresti-Zamfiresti,Udreşti,Udreşti-Zamfireşti,Zamfiresti,Zamfireşti","latitude":"45.1933600","longitude":"27.2109500","fclass":"P","fcode":"PPL","country":"RO","cc2":"RO","admin1":"08","admin2":"43180","admin3":"","admin4":"","population":421,"elevation":0,"gtopo30":50,"timezone":"Europe/Bucharest","moddate":"2013-04-20T00:00:00.000Z"}],"admin3":[],"alternateNames":[]},"__N_SSG":true}