{"pageProps":{"locale":"ro","admin2":{"geonameid":685030,"name":"Comuna Bereşti-Bistriţa","country":"RO","admin1":"04","admin2":"21249","admin3":"","latitude":"46.7087000","longitude":"26.8564800"},"admin1":{"geonameid":685947,"name":"Bacău","admin1":"04"},"locations":[{"geonameid":685031,"name":"Bereşti-Bistriţa","asciiname":"Beresti-Bistrita","alternatenames":"Beresti,Beresti-Bistrita,Berestii-Bistrita,Bereşti,Bereşti-Bistriţa,Bereştii-Bistriţa","latitude":"46.7166700","longitude":"26.8333300","fclass":"P","fcode":"PPLA2","country":"RO","cc2":"","admin1":"04","admin2":"21249","admin3":"","admin4":"","population":3377,"elevation":0,"gtopo30":254,"timezone":"Europe/Bucharest","moddate":"2012-06-12T00:00:00.000Z"},{"geonameid":683972,"name":"Brad","asciiname":"Brad","alternatenames":"Brad,Bradul,Satu de Jos,Брад","latitude":"46.6874800","longitude":"26.8784800","fclass":"P","fcode":"PPL","country":"RO","cc2":"RO","admin1":"04","admin2":"21249","admin3":"","admin4":"","population":201,"elevation":0,"gtopo30":214,"timezone":"Europe/Bucharest","moddate":"2013-04-21T00:00:00.000Z"},{"geonameid":681331,"name":"Climești","asciiname":"Climesti","alternatenames":"","latitude":"46.7237300","longitude":"26.8489200","fclass":"P","fcode":"PPL","country":"RO","cc2":"","admin1":"04","admin2":"21249","admin3":"","admin4":"","population":298,"elevation":0,"gtopo30":241,"timezone":"Europe/Bucharest","moddate":"2013-04-21T00:00:00.000Z"},{"geonameid":671524,"name":"Pădureni","asciiname":"Padureni","alternatenames":"","latitude":"46.7142100","longitude":"26.8404700","fclass":"P","fcode":"PPL","country":"RO","cc2":"","admin1":"04","admin2":"21249","admin3":"","admin4":"","population":409,"elevation":0,"gtopo30":252,"timezone":"Europe/Bucharest","moddate":"2013-04-21T00:00:00.000Z"}],"admin3":[],"alternateNames":[]},"__N_SSG":true}