{"pageProps":{"locale":"ro","admin2":{"geonameid":667097,"name":"Comuna Şimnicu de Sus","country":"RO","admin1":"17","admin2":"70174","admin3":"","latitude":"44.4128300","longitude":"23.7886300"},"admin1":{"geonameid":679134,"name":"jud. Dolj","admin1":"17"},"locations":[{"geonameid":686566,"name":"Albești","asciiname":"Albesti","alternatenames":"Albesli,Albesti,Albeşti","latitude":"44.3745600","longitude":"23.7670400","fclass":"P","fcode":"PPL","country":"RO","cc2":"RO","admin1":"17","admin2":"70174","admin3":"","admin4":"","population":670,"elevation":0,"gtopo30":112,"timezone":"Europe/Bucharest","moddate":"2013-04-21T00:00:00.000Z"},{"geonameid":680753,"name":"Cornetu","asciiname":"Cornetu","alternatenames":"Cornetu,Cornetul","latitude":"44.4405300","longitude":"23.7924000","fclass":"P","fcode":"PPL","country":"RO","cc2":"RO","admin1":"17","admin2":"70174","admin3":"","admin4":"","population":581,"elevation":0,"gtopo30":140,"timezone":"Europe/Bucharest","moddate":"2013-04-21T00:00:00.000Z"},{"geonameid":679537,"name":"Deleni","asciiname":"Deleni","alternatenames":"Cioroiu,Cioroiul,Deleni","latitude":"44.4314000","longitude":"23.7971100","fclass":"P","fcode":"PPL","country":"RO","cc2":"RO","admin1":"17","admin2":"70174","admin3":"","admin4":"","population":142,"elevation":0,"gtopo30":152,"timezone":"Europe/Bucharest","moddate":"2013-04-21T00:00:00.000Z"},{"geonameid":678780,"name":"Dudovicești","asciiname":"Dudovicesti","alternatenames":"","latitude":"44.3851100","longitude":"23.7812200","fclass":"P","fcode":"PPL","country":"RO","cc2":"","admin1":"17","admin2":"70174","admin3":"","admin4":"","population":385,"elevation":0,"gtopo30":113,"timezone":"Europe/Bucharest","moddate":"2013-04-21T00:00:00.000Z"},{"geonameid":678597,"name":"Duțulești","asciiname":"Dutulesti","alternatenames":"","latitude":"44.4603400","longitude":"23.7790500","fclass":"P","fcode":"PPL","country":"RO","cc2":"","admin1":"17","admin2":"70174","admin3":"","admin4":"","population":259,"elevation":0,"gtopo30":140,"timezone":"Europe/Bucharest","moddate":"2013-04-21T00:00:00.000Z"},{"geonameid":678067,"name":"Florești","asciiname":"Floresti","alternatenames":"","latitude":"44.3961200","longitude":"23.7956400","fclass":"P","fcode":"PPL","country":"RO","cc2":"","admin1":"17","admin2":"70174","admin3":"","admin4":"","population":410,"elevation":0,"gtopo30":140,"timezone":"Europe/Bucharest","moddate":"2013-04-21T00:00:00.000Z"},{"geonameid":676375,"name":"Halalăi","asciiname":"Halalai","alternatenames":"","latitude":"44.4500000","longitude":"23.8000000","fclass":"P","fcode":"PPLX","country":"RO","cc2":"","admin1":"17","admin2":"70174","admin3":"","admin4":"","population":0,"elevation":0,"gtopo30":219,"timezone":"Europe/Bucharest","moddate":"2016-02-07T00:00:00.000Z"},{"geonameid":675354,"name":"Izvor","asciiname":"Izvor","alternatenames":"Isvorul,Izvoru,Izvorul","latitude":"44.4234500","longitude":"23.7993500","fclass":"P","fcode":"PPL","country":"RO","cc2":"RO","admin1":"17","admin2":"70174","admin3":"","admin4":"","population":452,"elevation":0,"gtopo30":157,"timezone":"Europe/Bucharest","moddate":"2013-04-21T00:00:00.000Z"},{"geonameid":675248,"name":"Jieni","asciiname":"Jieni","alternatenames":"","latitude":"44.3780400","longitude":"23.7996000","fclass":"P","fcode":"PPL","country":"RO","cc2":"","admin1":"17","admin2":"70174","admin3":"","admin4":"","population":51,"elevation":0,"gtopo30":136,"timezone":"Europe/Bucharest","moddate":"2013-04-21T00:00:00.000Z"},{"geonameid":674858,"name":"Leșile","asciiname":"Lesile","alternatenames":"","latitude":"44.4272800","longitude":"23.7839900","fclass":"P","fcode":"PPL","country":"RO","cc2":"","admin1":"17","admin2":"70174","admin3":"","admin4":"","population":372,"elevation":0,"gtopo30":109,"timezone":"Europe/Bucharest","moddate":"2013-04-21T00:00:00.000Z"},{"geonameid":673312,"name":"Milești","asciiname":"Milesti","alternatenames":"","latitude":"44.4501800","longitude":"23.7863300","fclass":"P","fcode":"PPL","country":"RO","cc2":"","admin1":"17","admin2":"70174","admin3":"","admin4":"","population":651,"elevation":0,"gtopo30":159,"timezone":"Europe/Bucharest","moddate":"2013-04-21T00:00:00.000Z"},{"geonameid":669873,"name":"Popeşti Cardina","asciiname":"Popesti Cardina","alternatenames":"Cordina,Popesti Cardina,Popeşti Cardina","latitude":"44.4333300","longitude":"23.8000000","fclass":"P","fcode":"PPLX","country":"RO","cc2":"","admin1":"17","admin2":"70174","admin3":"","admin4":"","population":0,"elevation":0,"gtopo30":167,"timezone":"Europe/Bucharest","moddate":"2020-06-10T00:00:00.000Z"},{"geonameid":668716,"name":"Românești","asciiname":"Romanesti","alternatenames":"Rominesti,Romîneşti,Rumanesti,Rumăneşti","latitude":"44.4000000","longitude":"23.7833300","fclass":"P","fcode":"PPL","country":"RO","cc2":"","admin1":"17","admin2":"70174","admin3":"","admin4":"","population":239,"elevation":0,"gtopo30":100,"timezone":"Europe/Bucharest","moddate":"2015-11-12T00:00:00.000Z"},{"geonameid":667098,"name":"Şimnicu de Sus","asciiname":"Simnicu de Sus","alternatenames":"Simnicu de Sus,Simnicul de Sus,Şimnicu de Sus","latitude":"44.3833300","longitude":"23.8000000","fclass":"P","fcode":"PPLA2","country":"RO","cc2":"","admin1":"17","admin2":"70174","admin3":"","admin4":"","population":4380,"elevation":0,"gtopo30":154,"timezone":"Europe/Bucharest","moddate":"2012-06-12T00:00:00.000Z"},{"geonameid":663346,"name":"Valea Ungei","asciiname":"Valea Ungei","alternatenames":"Valea Ungei,Valea Ungiuiului","latitude":"44.4333300","longitude":"23.8000000","fclass":"P","fcode":"PPLX","country":"RO","cc2":"","admin1":"17","admin2":"70174","admin3":"","admin4":"","population":0,"elevation":0,"gtopo30":167,"timezone":"Europe/Bucharest","moddate":"2016-02-07T00:00:00.000Z"}],"admin3":[],"alternateNames":[]},"__N_SSG":true}