{"pageProps":{"locale":"ro","admin2":{"geonameid":679563,"name":"Comuna Deda","country":"RO","admin1":"27","admin2":"116545","admin3":"","latitude":"46.9464100","longitude":"24.8774400"},"admin1":{"geonameid":672628,"name":"Mureş","admin1":"27"},"locations":[{"geonameid":684669,"name":"Bistra Mureșului","asciiname":"Bistra Muresului","alternatenames":"Bistra Muresului,Bistra Mureşului,Dedabisztra,Dèdabisztra","latitude":"46.9609300","longitude":"24.9060800","fclass":"P","fcode":"PPL","country":"RO","cc2":"RO","admin1":"27","admin2":"116545","admin3":"","admin4":"","population":1079,"elevation":0,"gtopo30":484,"timezone":"Europe/Bucharest","moddate":"2013-04-21T00:00:00.000Z"},{"geonameid":679564,"name":"Deda","asciiname":"Deda","alternatenames":"Dade,Deda,Deda Bistra,Déda","latitude":"46.9333300","longitude":"24.9000000","fclass":"P","fcode":"PPLA2","country":"RO","cc2":"","admin1":"27","admin2":"116545","admin3":"","admin4":"","population":4263,"elevation":0,"gtopo30":561,"timezone":"Europe/Bucharest","moddate":"2012-06-12T00:00:00.000Z"},{"geonameid":678271,"name":"Filea","asciiname":"Filea","alternatenames":"Filea,Fulehaza,Füleháza","latitude":"46.9421000","longitude":"24.8854700","fclass":"P","fcode":"PPL","country":"RO","cc2":"RO","admin1":"27","admin2":"116545","admin3":"","admin4":"","population":840,"elevation":0,"gtopo30":456,"timezone":"Europe/Bucharest","moddate":"2013-04-21T00:00:00.000Z"},{"geonameid":677707,"name":"Gălăoaia","asciiname":"Galaoaia","alternatenames":"Galoaia,Galonya,Găloaia","latitude":"46.9613900","longitude":"24.9053200","fclass":"P","fcode":"PPL","country":"RO","cc2":"RO","admin1":"27","admin2":"116545","admin3":"","admin4":"","population":0,"elevation":0,"gtopo30":487,"timezone":"Europe/Bucharest","moddate":"2016-02-07T00:00:00.000Z"},{"geonameid":670958,"name":"Pietriș","asciiname":"Pietris","alternatenames":"Maroskoevesd,Maroskövesd","latitude":"46.9500000","longitude":"24.8500000","fclass":"P","fcode":"PPL","country":"RO","cc2":"","admin1":"27","admin2":"116545","admin3":"","admin4":"","population":420,"elevation":0,"gtopo30":524,"timezone":"Europe/Bucharest","moddate":"2015-12-15T00:00:00.000Z"}],"admin3":[],"alternateNames":[]},"__N_SSG":true}