{"pageProps":{"locale":"ro","admin2":{"geonameid":677980,"name":"Comuna Forăşti","country":"RO","admin1":"34","admin2":"148514","admin3":"","latitude":"47.3638600","longitude":"26.4617400"},"admin1":{"geonameid":665849,"name":"Suceava","admin1":"34"},"locations":[{"geonameid":686300,"name":"Antoceni","asciiname":"Antoceni","alternatenames":"Antoceni,Antocenii","latitude":"47.3327200","longitude":"26.4764200","fclass":"P","fcode":"PPL","country":"RO","cc2":"RO","admin1":"34","admin2":"148514","admin3":"","admin4":"","population":359,"elevation":0,"gtopo30":362,"timezone":"Europe/Bucharest","moddate":"2013-04-21T00:00:00.000Z"},{"geonameid":684018,"name":"Boura","asciiname":"Boura","alternatenames":"","latitude":"47.4061300","longitude":"26.4800800","fclass":"P","fcode":"PPL","country":"RO","cc2":"","admin1":"34","admin2":"148514","admin3":"","admin4":"","population":625,"elevation":0,"gtopo30":281,"timezone":"Europe/Bucharest","moddate":"2013-04-21T00:00:00.000Z"},{"geonameid":677982,"name":"Forăşti","asciiname":"Forasti","alternatenames":"Forasti,Forăşti","latitude":"47.3500000","longitude":"26.4666700","fclass":"P","fcode":"PPLA2","country":"RO","cc2":"","admin1":"34","admin2":"148514","admin3":"","admin4":"","population":4912,"elevation":0,"gtopo30":379,"timezone":"Europe/Bucharest","moddate":"2012-06-12T00:00:00.000Z"},{"geonameid":673909,"name":"Manolea","asciiname":"Manolea","alternatenames":"","latitude":"47.4012900","longitude":"26.4645300","fclass":"P","fcode":"PPL","country":"RO","cc2":"","admin1":"34","admin2":"148514","admin3":"","admin4":"","population":970,"elevation":0,"gtopo30":304,"timezone":"Europe/Bucharest","moddate":"2013-04-21T00:00:00.000Z"},{"geonameid":671799,"name":"Oniceni","asciiname":"Oniceni","alternatenames":"","latitude":"47.3244100","longitude":"26.4621700","fclass":"P","fcode":"PPL","country":"RO","cc2":"","admin1":"34","admin2":"148514","admin3":"","admin4":"","population":1021,"elevation":0,"gtopo30":322,"timezone":"Europe/Bucharest","moddate":"2013-04-21T00:00:00.000Z"},{"geonameid":671470,"name":"Palanca","asciiname":"Palanca","alternatenames":"","latitude":"47.3833300","longitude":"26.4666700","fclass":"P","fcode":"PPL","country":"RO","cc2":"","admin1":"34","admin2":"148514","admin3":"","admin4":"","population":0,"elevation":0,"gtopo30":365,"timezone":"Europe/Bucharest","moddate":"2016-02-07T00:00:00.000Z"},{"geonameid":668615,"name":"Roșiori","asciiname":"Rosiori","alternatenames":"","latitude":"47.3511400","longitude":"26.4145000","fclass":"P","fcode":"PPL","country":"RO","cc2":"","admin1":"34","admin2":"148514","admin3":"","admin4":"","population":332,"elevation":0,"gtopo30":317,"timezone":"Europe/Bucharest","moddate":"2013-04-21T00:00:00.000Z"},{"geonameid":668388,"name":"Ruși","asciiname":"Rusi","alternatenames":"Rusi,Rusii,Ruşi,Ruşii","latitude":"47.3528400","longitude":"26.4360400","fclass":"P","fcode":"PPL","country":"RO","cc2":"RO","admin1":"34","admin2":"148514","admin3":"","admin4":"","population":458,"elevation":0,"gtopo30":338,"timezone":"Europe/Bucharest","moddate":"2013-04-21T00:00:00.000Z"},{"geonameid":665141,"name":"Ţigănea","asciiname":"Tiganea","alternatenames":"","latitude":"47.4000000","longitude":"26.4666700","fclass":"P","fcode":"PPLX","country":"RO","cc2":"","admin1":"34","admin2":"148514","admin3":"","admin4":"","population":0,"elevation":0,"gtopo30":298,"timezone":"Europe/Bucharest","moddate":"2016-02-07T00:00:00.000Z"},{"geonameid":664830,"name":"Țolești","asciiname":"Tolesti","alternatenames":"","latitude":"47.3783300","longitude":"26.4863100","fclass":"P","fcode":"PPL","country":"RO","cc2":"","admin1":"34","admin2":"148514","admin3":"","admin4":"","population":461,"elevation":0,"gtopo30":345,"timezone":"Europe/Bucharest","moddate":"2013-04-21T00:00:00.000Z"},{"geonameid":664357,"name":"Uidești","asciiname":"Uidesti","alternatenames":"","latitude":"47.3785100","longitude":"26.4686000","fclass":"P","fcode":"PPL","country":"RO","cc2":"","admin1":"34","admin2":"148514","admin3":"","admin4":"","population":165,"elevation":0,"gtopo30":380,"timezone":"Europe/Bucharest","moddate":"2013-04-21T00:00:00.000Z"},{"geonameid":662916,"name":"Viişoara","asciiname":"Viisoara","alternatenames":"","latitude":"47.3833300","longitude":"26.4666700","fclass":"P","fcode":"PPL","country":"RO","cc2":"","admin1":"34","admin2":"148514","admin3":"","admin4":"","population":0,"elevation":0,"gtopo30":365,"timezone":"Europe/Bucharest","moddate":"2016-02-07T00:00:00.000Z"}],"admin3":[],"alternateNames":[{"alternatenameId":393492,"geonameid":665849,"isoLanguage":"en","alternateName":"Suceava","isPreferredName":true,"isShortName":true,"isColloquial":false,"isHistoric":false}]},"__N_SSG":true}