{"pageProps":{"locale":"ro","admin2":{"geonameid":685951,"name":"Comuna Băcani","country":"RO","admin1":"38","admin2":"162327","admin3":"","latitude":"46.3376800","longitude":"27.6790500"},"admin1":{"geonameid":663116,"name":"Vaslui","admin1":"38"},"locations":[{"geonameid":686706,"name":"Academia","asciiname":"Academia","alternatenames":"","latitude":"46.3500000","longitude":"27.6500000","fclass":"P","fcode":"PPLX","country":"RO","cc2":"","admin1":"38","admin2":"162327","admin3":"","admin4":"","population":0,"elevation":0,"gtopo30":190,"timezone":"Europe/Bucharest","moddate":"2016-02-07T00:00:00.000Z"},{"geonameid":685952,"name":"Băcani","asciiname":"Bacani","alternatenames":"Bacani,Băcani","latitude":"46.3333300","longitude":"27.6666700","fclass":"P","fcode":"PPLA2","country":"RO","cc2":"","admin1":"38","admin2":"162327","admin3":"","admin4":"","population":2748,"elevation":0,"gtopo30":159,"timezone":"Europe/Bucharest","moddate":"2012-06-12T00:00:00.000Z"},{"geonameid":685552,"name":"Băltățeni","asciiname":"Baltateni","alternatenames":"Balateni,Baltateni,Băltăţeni,Bălăţeni,Toader Enache","latitude":"46.3371100","longitude":"27.6964500","fclass":"P","fcode":"PPL","country":"RO","cc2":"RO","admin1":"38","admin2":"162327","admin3":"","admin4":"","population":240,"elevation":0,"gtopo30":118,"timezone":"Europe/Bucharest","moddate":"2013-04-21T00:00:00.000Z"},{"geonameid":678805,"name":"Drujești","asciiname":"Drujesti","alternatenames":"Drugesti,Drugeşti,Drujesti,Drujeşti","latitude":"46.3060900","longitude":"27.6778000","fclass":"P","fcode":"PPL","country":"RO","cc2":"RO","admin1":"38","admin2":"162327","admin3":"","admin4":"","population":445,"elevation":0,"gtopo30":85,"timezone":"Europe/Bucharest","moddate":"2013-04-21T00:00:00.000Z"},{"geonameid":678804,"name":"Drujeştii Noi","asciiname":"Drujestii Noi","alternatenames":"","latitude":"46.3166700","longitude":"27.6666700","fclass":"P","fcode":"PPL","country":"RO","cc2":"","admin1":"38","admin2":"162327","admin3":"","admin4":"","population":0,"elevation":0,"gtopo30":184,"timezone":"Europe/Bucharest","moddate":"2016-02-07T00:00:00.000Z"},{"geonameid":669042,"name":"Recea","asciiname":"Recea","alternatenames":"","latitude":"46.3166700","longitude":"27.6833300","fclass":"P","fcode":"PPLX","country":"RO","cc2":"","admin1":"38","admin2":"162327","admin3":"","admin4":"","population":0,"elevation":0,"gtopo30":101,"timezone":"Europe/Bucharest","moddate":"2016-02-07T00:00:00.000Z"},{"geonameid":665692,"name":"Suseni","asciiname":"Suseni","alternatenames":"","latitude":"46.3542600","longitude":"27.6634300","fclass":"P","fcode":"PPL","country":"RO","cc2":"","admin1":"38","admin2":"162327","admin3":"","admin4":"","population":417,"elevation":0,"gtopo30":105,"timezone":"Europe/Bucharest","moddate":"2013-04-21T00:00:00.000Z"},{"geonameid":662414,"name":"Vulpășeni","asciiname":"Vulpaseni","alternatenames":"","latitude":"46.3622700","longitude":"27.6744900","fclass":"P","fcode":"PPL","country":"RO","cc2":"","admin1":"38","admin2":"162327","admin3":"","admin4":"","population":184,"elevation":0,"gtopo30":100,"timezone":"Europe/Bucharest","moddate":"2013-04-20T00:00:00.000Z"}],"admin3":[],"alternateNames":[]},"__N_SSG":true}