{"pageProps":{"locale":"ro","admin2":{"geonameid":674833,"name":"Comuna Leţcani","country":"RO","admin1":"23","admin2":"97679","admin3":"","latitude":"47.1801200","longitude":"27.4129600"},"admin1":{"geonameid":675809,"name":"Iaşi","admin1":"23"},"locations":[{"geonameid":684359,"name":"Bogonos","asciiname":"Bogonos","alternatenames":"","latitude":"47.2084300","longitude":"27.4337600","fclass":"P","fcode":"PPL","country":"RO","cc2":"","admin1":"23","admin2":"97679","admin3":"","admin4":"","population":872,"elevation":0,"gtopo30":78,"timezone":"Europe/Bucharest","moddate":"2013-04-21T00:00:00.000Z"},{"geonameid":681157,"name":"Cogeasca","asciiname":"Cogeasca","alternatenames":"Cogeasca,Cogeasca Veche,Hasnaseni,Hăsnăşeni","latitude":"47.1664400","longitude":"27.3853700","fclass":"P","fcode":"PPL","country":"RO","cc2":"RO","admin1":"23","admin2":"97679","admin3":"","admin4":"","population":1788,"elevation":0,"gtopo30":87,"timezone":"Europe/Bucharest","moddate":"2013-04-21T00:00:00.000Z"},{"geonameid":680008,"name":"Cucuteni","asciiname":"Cucuteni","alternatenames":"","latitude":"47.1503000","longitude":"27.4210900","fclass":"P","fcode":"PPL","country":"RO","cc2":"","admin1":"23","admin2":"97679","admin3":"","admin4":"","population":482,"elevation":0,"gtopo30":78,"timezone":"Europe/Bucharest","moddate":"2013-04-21T00:00:00.000Z"},{"geonameid":674834,"name":"Leţcani","asciiname":"Letcani","alternatenames":"Letcani,Leţcani","latitude":"47.1833300","longitude":"27.4166700","fclass":"P","fcode":"PPLA2","country":"RO","cc2":"","admin1":"23","admin2":"97679","admin3":"","admin4":"","population":6642,"elevation":0,"gtopo30":46,"timezone":"Europe/Bucharest","moddate":"2012-06-12T00:00:00.000Z"}],"admin3":[],"alternateNames":[]},"__N_SSG":true}