{"pageProps":{"locale":"ro","admin2":{"geonameid":666746,"name":"Comuna Slătioara","country":"RO","admin1":"39","admin2":"173061","admin3":"","latitude":"45.1239600","longitude":"23.8858100"},"admin1":{"geonameid":662892,"name":"Vâlcea","admin1":"39"},"locations":[{"geonameid":681270,"name":"Coasta Cerbului","asciiname":"Coasta Cerbului","alternatenames":"Coasta Cerbului,Coasta Corbului","latitude":"45.1358700","longitude":"23.9110400","fclass":"P","fcode":"PPL","country":"RO","cc2":"RO","admin1":"39","admin2":"173061","admin3":"","admin4":"","population":228,"elevation":0,"gtopo30":548,"timezone":"Europe/Bucharest","moddate":"2013-04-21T00:00:00.000Z"},{"geonameid":676876,"name":"Gorunești","asciiname":"Gorunesti","alternatenames":"","latitude":"45.0987700","longitude":"23.8924400","fclass":"P","fcode":"PPL","country":"RO","cc2":"","admin1":"39","admin2":"173061","admin3":"","admin4":"","population":566,"elevation":0,"gtopo30":463,"timezone":"Europe/Bucharest","moddate":"2013-04-21T00:00:00.000Z"},{"geonameid":673767,"name":"Mariţa","asciiname":"Marita","alternatenames":"","latitude":"45.1333300","longitude":"23.8833300","fclass":"P","fcode":"PPLX","country":"RO","cc2":"","admin1":"39","admin2":"173061","admin3":"","admin4":"","population":0,"elevation":0,"gtopo30":480,"timezone":"Europe/Bucharest","moddate":"2016-02-07T00:00:00.000Z"},{"geonameid":673297,"name":"Milostea","asciiname":"Milostea","alternatenames":"","latitude":"45.1249700","longitude":"23.8359700","fclass":"P","fcode":"PPL","country":"RO","cc2":"","admin1":"39","admin2":"173061","admin3":"","admin4":"","population":954,"elevation":0,"gtopo30":457,"timezone":"Europe/Bucharest","moddate":"2013-04-21T00:00:00.000Z"},{"geonameid":674189,"name":"Mogești","asciiname":"Mogesti","alternatenames":"","latitude":"45.1166700","longitude":"23.9166700","fclass":"P","fcode":"PPLA2","country":"RO","cc2":"","admin1":"39","admin2":"173061","admin3":"","admin4":"","population":391,"elevation":0,"gtopo30":544,"timezone":"Europe/Bucharest","moddate":"2016-01-09T00:00:00.000Z"},{"geonameid":668502,"name":"Rugetu","asciiname":"Rugetu","alternatenames":"Fometesti,Fometeşti,Rugetu","latitude":"45.1414700","longitude":"23.8727500","fclass":"P","fcode":"PPL","country":"RO","cc2":"RO","admin1":"39","admin2":"173061","admin3":"","admin4":"","population":735,"elevation":0,"gtopo30":495,"timezone":"Europe/Bucharest","moddate":"2013-04-21T00:00:00.000Z"},{"geonameid":666752,"name":"Slătioara","asciiname":"Slatioara","alternatenames":"Slatioara,Slătioara","latitude":"45.1166700","longitude":"23.9166700","fclass":"P","fcode":"PPL","country":"RO","cc2":"","admin1":"39","admin2":"173061","admin3":"","admin4":"","population":985,"elevation":0,"gtopo30":544,"timezone":"Europe/Bucharest","moddate":"2019-02-21T00:00:00.000Z"}],"admin3":[],"alternateNames":[]},"__N_SSG":true}