{"pageProps":{"locale":"ro","admin2":{"geonameid":679190,"name":"Comuna Dobrun","country":"RO","admin1":"29","admin2":"126825","admin3":"","latitude":"44.2532300","longitude":"24.2329900"},"admin1":{"geonameid":671857,"name":"Olt","admin1":"29"},"locations":[{"geonameid":682128,"name":"Chilii","asciiname":"Chilii","alternatenames":"Chilia,Chilii","latitude":"44.2678200","longitude":"24.2094700","fclass":"P","fcode":"PPL","country":"RO","cc2":"RO","admin1":"29","admin2":"126825","admin3":"","admin4":"","population":171,"elevation":0,"gtopo30":108,"timezone":"Europe/Bucharest","moddate":"2013-04-21T00:00:00.000Z"},{"geonameid":679191,"name":"Dobrun","asciiname":"Dobrun","alternatenames":"Dobrun,Dobrunu,Dobrunul","latitude":"44.2666700","longitude":"24.2166700","fclass":"P","fcode":"PPLA2","country":"RO","cc2":"","admin1":"29","admin2":"126825","admin3":"","admin4":"","population":3419,"elevation":0,"gtopo30":106,"timezone":"Europe/Bucharest","moddate":"2012-06-12T00:00:00.000Z"},{"geonameid":668633,"name":"Roșienii Mari","asciiname":"Rosienii Mari","alternatenames":"Rosieni,Rosienii,Rosienii Mari,Roşieni,Roşienii,Roşienii Mari","latitude":"44.2431200","longitude":"24.2486200","fclass":"P","fcode":"PPL","country":"RO","cc2":"RO","admin1":"29","admin2":"126825","admin3":"","admin4":"","population":369,"elevation":0,"gtopo30":113,"timezone":"Europe/Bucharest","moddate":"2013-04-21T00:00:00.000Z"},{"geonameid":668632,"name":"Roșienii Mici","asciiname":"Rosienii Mici","alternatenames":"Rosienii Mica,Rosienii Mici,Roşienii Mica,Roşienii Mici","latitude":"44.2450100","longitude":"24.2331300","fclass":"P","fcode":"PPL","country":"RO","cc2":"RO","admin1":"29","admin2":"126825","admin3":"","admin4":"","population":315,"elevation":0,"gtopo30":130,"timezone":"Europe/Bucharest","moddate":"2013-04-21T00:00:00.000Z"},{"geonameid":11001784,"name":"Ulmet","asciiname":"Ulmet","alternatenames":"","latitude":"44.2516000","longitude":"24.2507800","fclass":"P","fcode":"PPL","country":"RO","cc2":"","admin1":"29","admin2":"126825","admin3":"","admin4":"","population":258,"elevation":0,"gtopo30":101,"timezone":"Europe/Bucharest","moddate":"2015-12-19T00:00:00.000Z"}],"admin3":[],"alternateNames":[]},"__N_SSG":true}