{"pageProps":{"locale":"ro","admin2":{"geonameid":8334823,"name":"Comuna Popeşti","country":"RO","admin1":"39","admin2":"172377","admin3":"","latitude":"44.9790800","longitude":"24.1101400"},"admin1":{"geonameid":662892,"name":"Vâlcea","admin1":"39"},"locations":[{"geonameid":679910,"name":"Curtea","asciiname":"Curtea","alternatenames":"Curtea,Mahalaua Curtii,Mahalaua Curţii","latitude":"44.9640500","longitude":"24.1345200","fclass":"P","fcode":"PPL","country":"RO","cc2":"RO","admin1":"39","admin2":"172377","admin3":"","admin4":"","population":340,"elevation":0,"gtopo30":249,"timezone":"Europe/Bucharest","moddate":"2013-04-21T00:00:00.000Z"},{"geonameid":679828,"name":"Dăeşti","asciiname":"Daesti","alternatenames":"","latitude":"44.9666700","longitude":"24.1333300","fclass":"P","fcode":"PPL","country":"RO","cc2":"","admin1":"39","admin2":"172377","admin3":"","admin4":"","population":2787,"elevation":0,"gtopo30":273,"timezone":"Europe/Bucharest","moddate":"2016-02-07T00:00:00.000Z"},{"geonameid":678128,"name":"Firijba","asciiname":"Firijba","alternatenames":"","latitude":"44.9895800","longitude":"24.1314700","fclass":"P","fcode":"PPL","country":"RO","cc2":"","admin1":"39","admin2":"172377","admin3":"","admin4":"","population":57,"elevation":0,"gtopo30":345,"timezone":"Europe/Bucharest","moddate":"2013-04-21T00:00:00.000Z"},{"geonameid":675425,"name":"Ivăneşti","asciiname":"Ivanesti","alternatenames":"","latitude":"44.9666700","longitude":"24.1333300","fclass":"P","fcode":"PPLX","country":"RO","cc2":"","admin1":"39","admin2":"172377","admin3":"","admin4":"","population":0,"elevation":0,"gtopo30":273,"timezone":"Europe/Bucharest","moddate":"2016-02-07T00:00:00.000Z"},{"geonameid":674079,"name":"Mahalaua Veche","asciiname":"Mahalaua Veche","alternatenames":"","latitude":"44.9500000","longitude":"24.1333300","fclass":"P","fcode":"PPLX","country":"RO","cc2":"","admin1":"39","admin2":"172377","admin3":"","admin4":"","population":0,"elevation":0,"gtopo30":274,"timezone":"Europe/Bucharest","moddate":"2016-02-07T00:00:00.000Z"},{"geonameid":673629,"name":"Medinţi","asciiname":"Medinti","alternatenames":"","latitude":"45.0000000","longitude":"24.0833300","fclass":"P","fcode":"PPLX","country":"RO","cc2":"","admin1":"39","admin2":"172377","admin3":"","admin4":"","population":0,"elevation":0,"gtopo30":293,"timezone":"Europe/Bucharest","moddate":"2016-02-07T00:00:00.000Z"},{"geonameid":673607,"name":"Meielor","asciiname":"Meielor","alternatenames":"","latitude":"44.9666700","longitude":"24.1333300","fclass":"P","fcode":"PPLX","country":"RO","cc2":"","admin1":"39","admin2":"172377","admin3":"","admin4":"","population":0,"elevation":0,"gtopo30":273,"timezone":"Europe/Bucharest","moddate":"2016-02-07T00:00:00.000Z"},{"geonameid":673622,"name":"Meieni","asciiname":"Meieni","alternatenames":"","latitude":"44.9666700","longitude":"24.1166700","fclass":"P","fcode":"PPL","country":"RO","cc2":"","admin1":"39","admin2":"172377","admin3":"","admin4":"","population":435,"elevation":0,"gtopo30":255,"timezone":"Europe/Bucharest","moddate":"2016-01-09T00:00:00.000Z"},{"geonameid":672812,"name":"Moşneni","asciiname":"Mosneni","alternatenames":"","latitude":"44.9666700","longitude":"24.1333300","fclass":"P","fcode":"PPLX","country":"RO","cc2":"","admin1":"39","admin2":"172377","admin3":"","admin4":"","population":0,"elevation":0,"gtopo30":273,"timezone":"Europe/Bucharest","moddate":"2016-02-07T00:00:00.000Z"},{"geonameid":669929,"name":"Ponoreni","asciiname":"Ponoreni","alternatenames":"","latitude":"44.9666700","longitude":"24.1333300","fclass":"P","fcode":"PPLX","country":"RO","cc2":"","admin1":"39","admin2":"172377","admin3":"","admin4":"","population":0,"elevation":0,"gtopo30":273,"timezone":"Europe/Bucharest","moddate":"2016-02-07T00:00:00.000Z"},{"geonameid":669897,"name":"Popeşti","asciiname":"Popesti","alternatenames":"","latitude":"45.0057300","longitude":"24.0765900","fclass":"P","fcode":"PPLA2","country":"RO","cc2":"","admin1":"39","admin2":"172377","admin3":"","admin4":"","population":3164,"elevation":0,"gtopo30":316,"timezone":"Europe/Bucharest","moddate":"2019-10-22T00:00:00.000Z"},{"geonameid":664108,"name":"Urși","asciiname":"Ursi","alternatenames":"","latitude":"44.9940400","longitude":"24.0889500","fclass":"P","fcode":"PPL","country":"RO","cc2":"","admin1":"39","admin2":"172377","admin3":"","admin4":"","population":1085,"elevation":0,"gtopo30":283,"timezone":"Europe/Bucharest","moddate":"2013-04-20T00:00:00.000Z"},{"geonameid":663853,"name":"Valea Caselor","asciiname":"Valea Caselor","alternatenames":"Mahalaua Caselor,Valea Caselor","latitude":"44.9469700","longitude":"24.1241600","fclass":"P","fcode":"PPL","country":"RO","cc2":"RO","admin1":"39","admin2":"172377","admin3":"","admin4":"","population":97,"elevation":0,"gtopo30":286,"timezone":"Europe/Bucharest","moddate":"2013-04-20T00:00:00.000Z"}],"admin3":[],"alternateNames":[]},"__N_SSG":true}