{"pageProps":{"locale":"ro","admin2":{"geonameid":8334893,"name":"Comuna Ion Neculce","country":"RO","admin1":"23","admin2":"95499","admin3":"","latitude":"47.2015900","longitude":"27.0322100"},"admin1":{"geonameid":675809,"name":"Iaşi","admin1":"23"},"locations":[{"geonameid":683104,"name":"Buznea","asciiname":"Buznea","alternatenames":"","latitude":"47.1951500","longitude":"27.0157200","fclass":"P","fcode":"PPL","country":"RO","cc2":"","admin1":"23","admin2":"95499","admin3":"","admin4":"","population":1214,"elevation":0,"gtopo30":151,"timezone":"Europe/Bucharest","moddate":"2013-04-21T00:00:00.000Z"},{"geonameid":679832,"name":"Dădești","asciiname":"Dadesti","alternatenames":"","latitude":"47.2188100","longitude":"26.9744500","fclass":"P","fcode":"PPL","country":"RO","cc2":"","admin1":"23","admin2":"95499","admin3":"","admin4":"","population":244,"elevation":0,"gtopo30":112,"timezone":"Europe/Bucharest","moddate":"2013-04-21T00:00:00.000Z"},{"geonameid":677618,"name":"Gănești","asciiname":"Ganesti","alternatenames":"Buznea-Noua,Buznea-Nouă,Ganesti,Găneşti","latitude":"47.1671800","longitude":"27.0318900","fclass":"P","fcode":"PPL","country":"RO","cc2":"RO","admin1":"23","admin2":"95499","admin3":"","admin4":"","population":801,"elevation":0,"gtopo30":105,"timezone":"Europe/Bucharest","moddate":"2013-04-21T00:00:00.000Z"},{"geonameid":676589,"name":"Gugea","asciiname":"Gugea","alternatenames":"","latitude":"47.2333300","longitude":"27.0833300","fclass":"P","fcode":"PPL","country":"RO","cc2":"","admin1":"23","admin2":"95499","admin3":"","admin4":"","population":0,"elevation":0,"gtopo30":147,"timezone":"Europe/Bucharest","moddate":"2016-02-07T00:00:00.000Z"},{"geonameid":675531,"name":"Ion Neculce","asciiname":"Ion Neculce","alternatenames":"Ion Neculce,Prigorenii Mici","latitude":"47.2034400","longitude":"27.0526800","fclass":"P","fcode":"PPLA2","country":"RO","cc2":"RO","admin1":"23","admin2":"95499","admin3":"","admin4":"","population":184,"elevation":0,"gtopo30":117,"timezone":"Europe/Bucharest","moddate":"2013-04-21T00:00:00.000Z"},{"geonameid":669644,"name":"Prigoreni","asciiname":"Prigoreni","alternatenames":"Prigoreni,Prigorenii Mari","latitude":"47.2074400","longitude":"27.0681200","fclass":"P","fcode":"PPL","country":"RO","cc2":"RO","admin1":"23","admin2":"95499","admin3":"","admin4":"","population":657,"elevation":0,"gtopo30":94,"timezone":"Europe/Bucharest","moddate":"2013-04-21T00:00:00.000Z"},{"geonameid":669087,"name":"Războieni","asciiname":"Razboieni","alternatenames":"Razboeni,Razboeni-Noui,Războeni,Războeni-Noui","latitude":"47.2175400","longitude":"27.0503900","fclass":"P","fcode":"PPL","country":"RO","cc2":"RO","admin1":"23","admin2":"95499","admin3":"","admin4":"","population":1200,"elevation":0,"gtopo30":106,"timezone":"Europe/Bucharest","moddate":"2013-04-21T00:00:00.000Z"}],"admin3":[],"alternateNames":[]},"__N_SSG":true}