{"pageProps":{"locale":"ro","admin2":{"geonameid":664668,"name":"Comuna Traian","country":"RO","admin1":"08","admin2":"44202","admin3":"","latitude":"45.1535500","longitude":"27.6917000"},"admin1":{"geonameid":683901,"name":"Brăila","admin1":"08"},"locations":[{"geonameid":682993,"name":"Căldărușa","asciiname":"Caldarusa","alternatenames":"","latitude":"45.1249200","longitude":"27.6079500","fclass":"P","fcode":"PPL","country":"RO","cc2":"","admin1":"08","admin2":"44202","admin3":"","admin4":"","population":215,"elevation":0,"gtopo30":22,"timezone":"Europe/Bucharest","moddate":"2013-04-21T00:00:00.000Z"},{"geonameid":667160,"name":"Silistraru","asciiname":"Silistraru","alternatenames":"Silistraru,Silistrarul","latitude":"45.1686800","longitude":"27.7778800","fclass":"P","fcode":"PPL","country":"RO","cc2":"RO","admin1":"08","admin2":"44202","admin3":"","admin4":"","population":944,"elevation":0,"gtopo30":12,"timezone":"Europe/Bucharest","moddate":"2013-04-21T00:00:00.000Z"},{"geonameid":664680,"name":"Traian","asciiname":"Traian","alternatenames":"","latitude":"45.1833300","longitude":"27.7333300","fclass":"P","fcode":"PPLA2","country":"RO","cc2":"","admin1":"08","admin2":"44202","admin3":"","admin4":"","population":3684,"elevation":0,"gtopo30":10,"timezone":"Europe/Bucharest","moddate":"2012-06-12T00:00:00.000Z"},{"geonameid":664145,"name":"Urleasca","asciiname":"Urleasca","alternatenames":"","latitude":"45.1369700","longitude":"27.6473600","fclass":"P","fcode":"PPL","country":"RO","cc2":"","admin1":"08","admin2":"44202","admin3":"","admin4":"","population":1502,"elevation":0,"gtopo30":16,"timezone":"Europe/Bucharest","moddate":"2013-04-20T00:00:00.000Z"}],"admin3":[],"alternateNames":[]},"__N_SSG":true}