{"pageProps":{"locale":"ro","admin2":{"geonameid":662800,"name":"Comuna Vintilă Vodă","country":"RO","admin1":"11","admin2":"50228","admin3":"","latitude":"45.4546100","longitude":"26.7238500"},"admin1":{"geonameid":683121,"name":"Buzău","admin1":"11"},"locations":[{"geonameid":684792,"name":"Bârleşti","asciiname":"Barlesti","alternatenames":"Barlesti,Birlesti,Bârleşti,Bîrleşti","latitude":"45.4333300","longitude":"26.7333300","fclass":"P","fcode":"PPLX","country":"RO","cc2":"","admin1":"11","admin2":"50228","admin3":"","admin4":"","population":0,"elevation":0,"gtopo30":342,"timezone":"Europe/Bucharest","moddate":"2020-03-08T00:00:00.000Z"},{"geonameid":685891,"name":"Bodinești","asciiname":"Bodinesti","alternatenames":"Badinesti,Bodinesti,Bodineşti,Bădineşti","latitude":"45.4672400","longitude":"26.7260900","fclass":"P","fcode":"PPL","country":"RO","cc2":"RO","admin1":"11","admin2":"50228","admin3":"","admin4":"","population":97,"elevation":0,"gtopo30":333,"timezone":"Europe/Bucharest","moddate":"2013-04-21T00:00:00.000Z"},{"geonameid":681848,"name":"Câmpulungeanca","asciiname":"Campulungeanca","alternatenames":"Campulungeanca,Cimpulungeanca,Câmpulungeanca,Cîmpulungeanca","latitude":"45.4333300","longitude":"26.7666700","fclass":"P","fcode":"PPLX","country":"RO","cc2":"RO","admin1":"11","admin2":"50228","admin3":"","admin4":"","population":0,"elevation":0,"gtopo30":408,"timezone":"Europe/Bucharest","moddate":"2020-03-08T00:00:00.000Z"},{"geonameid":681243,"name":"Coca-Antimirești","asciiname":"Coca-Antimiresti","alternatenames":"","latitude":"45.4559200","longitude":"26.7006100","fclass":"P","fcode":"PPL","country":"RO","cc2":"","admin1":"11","admin2":"50228","admin3":"","admin4":"","population":253,"elevation":0,"gtopo30":461,"timezone":"Europe/Bucharest","moddate":"2013-04-21T00:00:00.000Z"},{"geonameid":681235,"name":"Coca-Niculești","asciiname":"Coca-Niculesti","alternatenames":"Coca Seaca,Coca Seacă","latitude":"45.4500000","longitude":"26.6833300","fclass":"P","fcode":"PPL","country":"RO","cc2":"","admin1":"11","admin2":"50228","admin3":"","admin4":"","population":101,"elevation":0,"gtopo30":602,"timezone":"Europe/Bucharest","moddate":"2015-11-20T00:00:00.000Z"},{"geonameid":675317,"name":"Izvorul","asciiname":"Izvorul","alternatenames":"Izvoru Boului,Izvorul","latitude":"45.4833300","longitude":"26.7000000","fclass":"P","fcode":"PPLX","country":"RO","cc2":"","admin1":"11","admin2":"50228","admin3":"","admin4":"","population":0,"elevation":0,"gtopo30":373,"timezone":"Europe/Bucharest","moddate":"2016-02-07T00:00:00.000Z"},{"geonameid":674482,"name":"Lunca","asciiname":"Lunca","alternatenames":"","latitude":"45.4666700","longitude":"26.7333300","fclass":"P","fcode":"PPL","country":"RO","cc2":"","admin1":"11","admin2":"50228","admin3":"","admin4":"","population":0,"elevation":0,"gtopo30":316,"timezone":"Europe/Bucharest","moddate":"2016-02-07T00:00:00.000Z"},{"geonameid":674406,"name":"Lunca Gantei","asciiname":"Lunca Gantei","alternatenames":"","latitude":"45.4333300","longitude":"26.7500000","fclass":"P","fcode":"PPLX","country":"RO","cc2":"","admin1":"11","admin2":"50228","admin3":"","admin4":"","population":0,"elevation":0,"gtopo30":402,"timezone":"Europe/Bucharest","moddate":"2016-02-07T00:00:00.000Z"},{"geonameid":673264,"name":"Mânăstirea","asciiname":"Manastirea","alternatenames":"Manastirea,Minastirea,Mânăstirea,Mînăstirea","latitude":"45.4666700","longitude":"26.7333300","fclass":"P","fcode":"PPLX","country":"RO","cc2":"","admin1":"11","admin2":"50228","admin3":"","admin4":"","population":0,"elevation":0,"gtopo30":316,"timezone":"Europe/Bucharest","moddate":"2020-03-08T00:00:00.000Z"},{"geonameid":673585,"name":"Merei","asciiname":"Merei","alternatenames":"Merei,Merei Vintila Voda,Merei Vintilă Vodă","latitude":"45.4500000","longitude":"26.7333300","fclass":"P","fcode":"PPL","country":"RO","cc2":"","admin1":"11","admin2":"50228","admin3":"","admin4":"","population":0,"elevation":0,"gtopo30":367,"timezone":"Europe/Bucharest","moddate":"2016-02-07T00:00:00.000Z"},{"geonameid":672235,"name":"Niculești","asciiname":"Niculesti","alternatenames":"Nicolesti,Nicoleşti,Niculesti,Niculeşti","latitude":"45.4362700","longitude":"26.7426300","fclass":"P","fcode":"PPL","country":"RO","cc2":"RO","admin1":"11","admin2":"50228","admin3":"","admin4":"","population":533,"elevation":0,"gtopo30":285,"timezone":"Europe/Bucharest","moddate":"2013-04-21T00:00:00.000Z"},{"geonameid":671016,"name":"Petrăchești","asciiname":"Petrachesti","alternatenames":"","latitude":"45.4183300","longitude":"26.7459200","fclass":"P","fcode":"PPL","country":"RO","cc2":"","admin1":"11","admin2":"50228","admin3":"","admin4":"","population":434,"elevation":0,"gtopo30":266,"timezone":"Europe/Bucharest","moddate":"2013-04-21T00:00:00.000Z"},{"geonameid":670449,"name":"Plopii","asciiname":"Plopii","alternatenames":"Gura Papii,Gura-Papi,Plopii","latitude":"45.4666700","longitude":"26.7166700","fclass":"P","fcode":"PPLX","country":"RO","cc2":"","admin1":"11","admin2":"50228","admin3":"","admin4":"","population":0,"elevation":0,"gtopo30":439,"timezone":"Europe/Bucharest","moddate":"2016-02-07T00:00:00.000Z"},{"geonameid":670286,"name":"Podu Muncii","asciiname":"Podu Muncii","alternatenames":"Podu Muncii,Podul Muncei","latitude":"45.4262400","longitude":"26.7453100","fclass":"P","fcode":"PPL","country":"RO","cc2":"RO","admin1":"11","admin2":"50228","admin3":"","admin4":"","population":464,"elevation":0,"gtopo30":318,"timezone":"Europe/Bucharest","moddate":"2013-04-21T00:00:00.000Z"},{"geonameid":666858,"name":"Sârbești","asciiname":"Sarbesti","alternatenames":"Sirbesti,Sîrbeşti","latitude":"45.4833300","longitude":"26.6833300","fclass":"P","fcode":"PPL","country":"RO","cc2":"","admin1":"11","admin2":"50228","admin3":"","admin4":"","population":421,"elevation":0,"gtopo30":442,"timezone":"Europe/Bucharest","moddate":"2015-11-20T00:00:00.000Z"},{"geonameid":667701,"name":"Scheiu","asciiname":"Scheiu","alternatenames":"","latitude":"45.4500000","longitude":"26.7333300","fclass":"P","fcode":"PPL","country":"RO","cc2":"","admin1":"11","admin2":"50228","admin3":"","admin4":"","population":0,"elevation":0,"gtopo30":367,"timezone":"Europe/Bucharest","moddate":"2016-02-07T00:00:00.000Z"},{"geonameid":666639,"name":"Smeești","asciiname":"Smeesti","alternatenames":"Sineesti,Sineeşti,Smeesti,Smeeşti","latitude":"45.4976300","longitude":"26.7359600","fclass":"P","fcode":"PPL","country":"RO","cc2":"RO","admin1":"11","admin2":"50228","admin3":"","admin4":"","population":35,"elevation":0,"gtopo30":541,"timezone":"Europe/Bucharest","moddate":"2013-04-21T00:00:00.000Z"},{"geonameid":662801,"name":"Vintilă Vodă","asciiname":"Vintila Voda","alternatenames":"Vintila Voda,Vintilă Vodă","latitude":"45.4666700","longitude":"26.7166700","fclass":"P","fcode":"PPLA2","country":"RO","cc2":"","admin1":"11","admin2":"50228","admin3":"","admin4":"","population":3367,"elevation":0,"gtopo30":439,"timezone":"Europe/Bucharest","moddate":"2012-06-12T00:00:00.000Z"}],"admin3":[],"alternateNames":[]},"__N_SSG":true}