{"pageProps":{"locale":"ro","admin2":{"geonameid":8334752,"name":"Comuna Stejaru","country":"RO","admin1":"35","admin2":"154415","admin3":"","latitude":"44.1771500","longitude":"24.8820800"},"admin1":{"geonameid":665283,"name":"Teleorman","admin1":"35"},"locations":[{"geonameid":683835,"name":"Bratcovu","asciiname":"Bratcovu","alternatenames":"","latitude":"44.1576900","longitude":"24.8693000","fclass":"P","fcode":"PPL","country":"RO","cc2":"","admin1":"35","admin2":"154415","admin3":"","admin4":"","population":233,"elevation":0,"gtopo30":102,"timezone":"Europe/Bucharest","moddate":"2013-04-21T00:00:00.000Z"},{"geonameid":676740,"name":"Gresia","asciiname":"Gresia","alternatenames":"","latitude":"44.1714000","longitude":"24.9189900","fclass":"P","fcode":"PPL","country":"RO","cc2":"","admin1":"35","admin2":"154415","admin3":"","admin4":"","population":162,"elevation":0,"gtopo30":93,"timezone":"Europe/Bucharest","moddate":"2013-04-21T00:00:00.000Z"},{"geonameid":666592,"name":"Socetu","asciiname":"Socetu","alternatenames":"","latitude":"44.1950200","longitude":"24.8542100","fclass":"P","fcode":"PPL","country":"RO","cc2":"","admin1":"35","admin2":"154415","admin3":"","admin4":"","population":1086,"elevation":0,"gtopo30":126,"timezone":"Europe/Bucharest","moddate":"2013-04-21T00:00:00.000Z"},{"geonameid":666193,"name":"Stejaru","asciiname":"Stejaru","alternatenames":"Baltati,Bălţaţi,Stejaru","latitude":"44.1833300","longitude":"24.8833300","fclass":"P","fcode":"PPLA2","country":"RO","cc2":"","admin1":"35","admin2":"154415","admin3":"","admin4":"","population":2249,"elevation":0,"gtopo30":122,"timezone":"Europe/Bucharest","moddate":"2012-06-12T00:00:00.000Z"}],"admin3":[],"alternateNames":[]},"__N_SSG":true}