{"pageProps":{"locale":"ro","admin2":{"geonameid":674946,"name":"Comuna Lazuri","country":"RO","admin1":"32","admin2":"137960","admin3":"","latitude":"47.8914300","longitude":"22.8721300"},"admin1":{"geonameid":667869,"name":"Satu Mare","admin1":"32"},"locations":[{"geonameid":685061,"name":"Bercu","asciiname":"Bercu","alternatenames":"Bercu,Bercu Colonia,Bercul","latitude":"47.9148000","longitude":"22.8889600","fclass":"P","fcode":"PPL","country":"RO","cc2":"RO","admin1":"32","admin2":"137960","admin3":"","admin4":"","population":593,"elevation":0,"gtopo30":120,"timezone":"Europe/Bucharest","moddate":"2013-04-21T00:00:00.000Z"},{"geonameid":674947,"name":"Lazuri","asciiname":"Lazuri","alternatenames":"Lazar,Lazuri,Lăzar","latitude":"47.8500000","longitude":"22.8666700","fclass":"P","fcode":"PPLA2","country":"RO","cc2":"","admin1":"32","admin2":"137960","admin3":"","admin4":"","population":5237,"elevation":0,"gtopo30":123,"timezone":"Europe/Bucharest","moddate":"2012-06-12T00:00:00.000Z"},{"geonameid":672205,"name":"Nisipeni","asciiname":"Nisipeni","alternatenames":"Mehtelek,Nisipeni","latitude":"47.9026100","longitude":"22.9034200","fclass":"P","fcode":"PPL","country":"RO","cc2":"RO","admin1":"32","admin2":"137960","admin3":"","admin4":"","population":892,"elevation":0,"gtopo30":123,"timezone":"Europe/Bucharest","moddate":"2013-04-21T00:00:00.000Z"},{"geonameid":672168,"name":"Noroieni","asciiname":"Noroieni","alternatenames":"","latitude":"47.8867400","longitude":"22.8875100","fclass":"P","fcode":"PPL","country":"RO","cc2":"","admin1":"32","admin2":"137960","admin3":"","admin4":"","population":316,"elevation":0,"gtopo30":120,"timezone":"Europe/Bucharest","moddate":"2013-04-21T00:00:00.000Z"},{"geonameid":671174,"name":"Peleș","asciiname":"Peles","alternatenames":"Peles,Pelesul,Peleş,Peleşul","latitude":"47.8850800","longitude":"22.8217600","fclass":"P","fcode":"PPL","country":"RO","cc2":"RO","admin1":"32","admin2":"137960","admin3":"","admin4":"","population":809,"elevation":0,"gtopo30":120,"timezone":"Europe/Bucharest","moddate":"2013-04-21T00:00:00.000Z"},{"geonameid":671165,"name":"Pelișor","asciiname":"Pelisor","alternatenames":"","latitude":"47.9051100","longitude":"22.8602700","fclass":"P","fcode":"PPL","country":"RO","cc2":"","admin1":"32","admin2":"137960","admin3":"","admin4":"","population":275,"elevation":0,"gtopo30":118,"timezone":"Europe/Bucharest","moddate":"2013-04-21T00:00:00.000Z"}],"admin3":[],"alternateNames":[]},"__N_SSG":true}