{"pageProps":{"locale":"ro","admin2":{"geonameid":669040,"name":"Comuna Recea","country":"RO","admin1":"09","admin2":"41738","admin3":"","latitude":"45.7431200","longitude":"24.9408600"},"admin1":{"geonameid":683843,"name":"Braşov","admin1":"09"},"locations":[{"geonameid":684992,"name":"Berivoi","asciiname":"Berivoi","alternatenames":"Berivoii Mari,Berivoj","latitude":"45.7333300","longitude":"24.9833300","fclass":"P","fcode":"PPL","country":"RO","cc2":"","admin1":"09","admin2":"41738","admin3":"","admin4":"","population":596,"elevation":0,"gtopo30":534,"timezone":"Europe/Bucharest","moddate":"2015-11-19T00:00:00.000Z"},{"geonameid":684991,"name":"Berivoii Mici","asciiname":"Berivoii Mici","alternatenames":"","latitude":"45.7500000","longitude":"24.9666700","fclass":"P","fcode":"PPL","country":"RO","cc2":"","admin1":"09","admin2":"41738","admin3":"","admin4":"","population":0,"elevation":0,"gtopo30":512,"timezone":"Europe/Bucharest","moddate":"2016-02-07T00:00:00.000Z"},{"geonameid":679547,"name":"Dejani","asciiname":"Dejani","alternatenames":"Dezsan","latitude":"45.7102100","longitude":"24.9298700","fclass":"P","fcode":"PPL","country":"RO","cc2":"RO","admin1":"09","admin2":"41738","admin3":"","admin4":"","population":0,"elevation":0,"gtopo30":600,"timezone":"Europe/Bucharest","moddate":"2016-02-07T00:00:00.000Z"},{"geonameid":676466,"name":"Gura Văii","asciiname":"Gura Vaii","alternatenames":"Gura Vaii,Gura Văii,Netot,Netotu,Netotul","latitude":"45.7287100","longitude":"24.9047700","fclass":"P","fcode":"PPL","country":"RO","cc2":"RO","admin1":"09","admin2":"41738","admin3":"","admin4":"","population":451,"elevation":0,"gtopo30":555,"timezone":"Europe/Bucharest","moddate":"2013-04-21T00:00:00.000Z"},{"geonameid":675811,"name":"Iași","asciiname":"Iasi","alternatenames":"","latitude":"45.7615900","longitude":"24.9307500","fclass":"P","fcode":"PPL","country":"RO","cc2":"","admin1":"09","admin2":"41738","admin3":"","admin4":"","population":345,"elevation":0,"gtopo30":503,"timezone":"Europe/Bucharest","moddate":"2013-04-21T00:00:00.000Z"},{"geonameid":672575,"name":"Muşuroaie","asciiname":"Musuroaie","alternatenames":"","latitude":"45.7666700","longitude":"24.9333300","fclass":"P","fcode":"PPL","country":"RO","cc2":"","admin1":"09","admin2":"41738","admin3":"","admin4":"","population":0,"elevation":0,"gtopo30":496,"timezone":"Europe/Bucharest","moddate":"2016-02-07T00:00:00.000Z"},{"geonameid":669051,"name":"Recea","asciiname":"Recea","alternatenames":"Telechi Rece,Telechi-Recea,Telechi-Reci,Vaida-Recea","latitude":"45.7133400","longitude":"24.9315200","fclass":"P","fcode":"PPLA2","country":"RO","cc2":"","admin1":"09","admin2":"41738","admin3":"","admin4":"","population":3213,"elevation":0,"gtopo30":592,"timezone":"Europe/Bucharest","moddate":"2012-06-12T00:00:00.000Z"},{"geonameid":667920,"name":"Săsciori","asciiname":"Sasciori","alternatenames":"","latitude":"45.7598000","longitude":"24.9555500","fclass":"P","fcode":"PPL","country":"RO","cc2":"","admin1":"09","admin2":"41738","admin3":"","admin4":"","population":247,"elevation":0,"gtopo30":503,"timezone":"Europe/Bucharest","moddate":"2013-04-21T00:00:00.000Z"},{"geonameid":667761,"name":"Săvăstreni","asciiname":"Savastreni","alternatenames":"","latitude":"45.7628500","longitude":"24.9447000","fclass":"P","fcode":"PPL","country":"RO","cc2":"","admin1":"09","admin2":"41738","admin3":"","admin4":"","population":203,"elevation":0,"gtopo30":502,"timezone":"Europe/Bucharest","moddate":"2013-04-21T00:00:00.000Z"}],"admin3":[],"alternateNames":[]},"__N_SSG":true}