{"pageProps":{"locale":"ro","admin2":{"geonameid":8334727,"name":"Comuna Dobreţu","country":"RO","admin1":"29","admin2":"126674","admin3":"","latitude":"44.4916400","longitude":"23.9530200"},"admin1":{"geonameid":671857,"name":"Olt","admin1":"29"},"locations":[{"geonameid":679899,"name":"Curtișoara","asciiname":"Curtisoara","alternatenames":"","latitude":"44.5115800","longitude":"23.9434700","fclass":"P","fcode":"PPL","country":"RO","cc2":"","admin1":"29","admin2":"126674","admin3":"","admin4":"","population":336,"elevation":0,"gtopo30":192,"timezone":"Europe/Bucharest","moddate":"2013-04-21T00:00:00.000Z"},{"geonameid":679242,"name":"Dobreţu","asciiname":"Dobretu","alternatenames":"Dobretu,Dobretul,Dobreţu,Dobreţul","latitude":"44.5000000","longitude":"23.9500000","fclass":"P","fcode":"PPLA2","country":"RO","cc2":"","admin1":"29","admin2":"126674","admin3":"","admin4":"","population":1502,"elevation":0,"gtopo30":177,"timezone":"Europe/Bucharest","moddate":"2012-06-12T00:00:00.000Z"},{"geonameid":676028,"name":"Horezu","asciiname":"Horezu","alternatenames":"Horezu,Horezu Nou,Horezul Nou,Khorezu,Хорезу","latitude":"44.4700400","longitude":"23.9604300","fclass":"P","fcode":"PPL","country":"RO","cc2":"RO","admin1":"29","admin2":"126674","admin3":"","admin4":"","population":635,"elevation":0,"gtopo30":161,"timezone":"Europe/Bucharest","moddate":"2013-04-21T00:00:00.000Z"},{"geonameid":676020,"name":"Horezu Vechi","asciiname":"Horezu Vechi","alternatenames":"","latitude":"44.4666700","longitude":"23.9833300","fclass":"P","fcode":"PPL","country":"RO","cc2":"","admin1":"29","admin2":"126674","admin3":"","admin4":"","population":0,"elevation":0,"gtopo30":185,"timezone":"Europe/Bucharest","moddate":"2016-02-07T00:00:00.000Z"}],"admin3":[],"alternateNames":[]},"__N_SSG":true}