{"pageProps":{"locale":"ro","admin2":{"geonameid":685448,"name":"Comuna Băniţa","country":"RO","admin1":"21","admin2":"87246","admin3":"","latitude":"45.4563600","longitude":"23.2321400"},"admin1":{"geonameid":675917,"name":"Hunedoara","admin1":"21"},"locations":[{"geonameid":686110,"name":"Arsuri","asciiname":"Arsuri","alternatenames":"","latitude":"45.4500000","longitude":"23.2666700","fclass":"P","fcode":"PPL","country":"RO","cc2":"","admin1":"21","admin2":"87246","admin3":"","admin4":"","population":0,"elevation":0,"gtopo30":756,"timezone":"Europe/Bucharest","moddate":"2016-02-07T00:00:00.000Z"},{"geonameid":685450,"name":"Băniţa","asciiname":"Banita","alternatenames":"Banita,Băniţa","latitude":"45.4500000","longitude":"23.2666700","fclass":"P","fcode":"PPLA2","country":"RO","cc2":"","admin1":"21","admin2":"87246","admin3":"","admin4":"","population":1352,"elevation":0,"gtopo30":756,"timezone":"Europe/Bucharest","moddate":"2012-06-12T00:00:00.000Z"},{"geonameid":684093,"name":"Botani","asciiname":"Botani","alternatenames":"","latitude":"45.4500000","longitude":"23.2666700","fclass":"P","fcode":"PPL","country":"RO","cc2":"","admin1":"21","admin2":"87246","admin3":"","admin4":"","population":0,"elevation":0,"gtopo30":756,"timezone":"Europe/Bucharest","moddate":"2016-02-07T00:00:00.000Z"},{"geonameid":682790,"name":"Căprăreşti","asciiname":"Capraresti","alternatenames":"","latitude":"45.4500000","longitude":"23.2666700","fclass":"P","fcode":"PPL","country":"RO","cc2":"","admin1":"21","admin2":"87246","admin3":"","admin4":"","population":0,"elevation":0,"gtopo30":756,"timezone":"Europe/Bucharest","moddate":"2016-02-07T00:00:00.000Z"},{"geonameid":680681,"name":"Corsconi","asciiname":"Corsconi","alternatenames":"","latitude":"45.4500000","longitude":"23.2666700","fclass":"P","fcode":"PPL","country":"RO","cc2":"","admin1":"21","admin2":"87246","admin3":"","admin4":"","population":0,"elevation":0,"gtopo30":756,"timezone":"Europe/Bucharest","moddate":"2016-02-07T00:00:00.000Z"},{"geonameid":680510,"name":"Coteşti","asciiname":"Cotesti","alternatenames":"","latitude":"45.4666700","longitude":"23.2833300","fclass":"P","fcode":"PPL","country":"RO","cc2":"","admin1":"21","admin2":"87246","admin3":"","admin4":"","population":0,"elevation":0,"gtopo30":802,"timezone":"Europe/Bucharest","moddate":"2016-02-07T00:00:00.000Z"},{"geonameid":680135,"name":"Crivadia","asciiname":"Crivadia","alternatenames":"","latitude":"45.4649500","longitude":"23.2061200","fclass":"P","fcode":"PPL","country":"RO","cc2":"","admin1":"21","admin2":"87246","admin3":"","admin4":"","population":168,"elevation":0,"gtopo30":577,"timezone":"Europe/Bucharest","moddate":"2013-04-21T00:00:00.000Z"},{"geonameid":678118,"name":"Firma","asciiname":"Firma","alternatenames":"","latitude":"45.4500000","longitude":"23.2666700","fclass":"P","fcode":"PPL","country":"RO","cc2":"","admin1":"21","admin2":"87246","admin3":"","admin4":"","population":0,"elevation":0,"gtopo30":756,"timezone":"Europe/Bucharest","moddate":"2016-02-07T00:00:00.000Z"},{"geonameid":675240,"name":"Jigoreasa","asciiname":"Jigoreasa","alternatenames":"","latitude":"45.4500000","longitude":"23.2666700","fclass":"P","fcode":"PPL","country":"RO","cc2":"","admin1":"21","admin2":"87246","admin3":"","admin4":"","population":0,"elevation":0,"gtopo30":756,"timezone":"Europe/Bucharest","moddate":"2016-02-07T00:00:00.000Z"},{"geonameid":675203,"name":"Jitoni","asciiname":"Jitoni","alternatenames":"","latitude":"45.4666700","longitude":"23.2666700","fclass":"P","fcode":"PPL","country":"RO","cc2":"","admin1":"21","admin2":"87246","admin3":"","admin4":"","population":0,"elevation":0,"gtopo30":801,"timezone":"Europe/Bucharest","moddate":"2016-02-07T00:00:00.000Z"},{"geonameid":673548,"name":"Merișor","asciiname":"Merisor","alternatenames":"","latitude":"45.4559900","longitude":"23.2277200","fclass":"P","fcode":"PPL","country":"RO","cc2":"","admin1":"21","admin2":"87246","admin3":"","admin4":"","population":393,"elevation":0,"gtopo30":591,"timezone":"Europe/Bucharest","moddate":"2013-04-21T00:00:00.000Z"}],"admin3":[],"alternateNames":[]},"__N_SSG":true}