{"pageProps":{"locale":"ro","admin2":{"geonameid":679860,"name":"Comuna Cuzăplac","country":"RO","admin1":"31","admin2":"140869","admin3":"","latitude":"46.9465100","longitude":"23.2189500"},"admin1":{"geonameid":668248,"name":"Sălaj","admin1":"31"},"locations":[{"geonameid":683986,"name":"Bozolinic","asciiname":"Bozolinic","alternatenames":"","latitude":"46.9666700","longitude":"23.2333300","fclass":"P","fcode":"PPLX","country":"RO","cc2":"","admin1":"31","admin2":"140869","admin3":"","admin4":"","population":0,"elevation":0,"gtopo30":355,"timezone":"Europe/Bucharest","moddate":"2016-02-07T00:00:00.000Z"},{"geonameid":680059,"name":"Cubleșu","asciiname":"Cublesu","alternatenames":"Cubles,Cublesu,Cubleşu","latitude":"46.9321700","longitude":"23.3191200","fclass":"P","fcode":"PPL","country":"RO","cc2":"RO","admin1":"31","admin2":"140869","admin3":"","admin4":"","population":66,"elevation":0,"gtopo30":363,"timezone":"Europe/Bucharest","moddate":"2013-04-21T00:00:00.000Z"},{"geonameid":679861,"name":"Cuzăplac","asciiname":"Cuzaplac","alternatenames":"Cuzaplac,Cuzaplacu,Cuzăplac,Cuzăplacu","latitude":"46.9666700","longitude":"23.2000000","fclass":"P","fcode":"PPLA2","country":"RO","cc2":"","admin1":"31","admin2":"140869","admin3":"","admin4":"","population":1999,"elevation":0,"gtopo30":283,"timezone":"Europe/Bucharest","moddate":"2012-06-12T00:00:00.000Z"},{"geonameid":677705,"name":"Gălășeni","asciiname":"Galaseni","alternatenames":"","latitude":"46.8937000","longitude":"23.1800300","fclass":"P","fcode":"PPL","country":"RO","cc2":"","admin1":"31","admin2":"140869","admin3":"","admin4":"","population":245,"elevation":0,"gtopo30":397,"timezone":"Europe/Bucharest","moddate":"2013-04-21T00:00:00.000Z"},{"geonameid":673424,"name":"Mierța","asciiname":"Mierta","alternatenames":"","latitude":"46.9959100","longitude":"23.1808300","fclass":"P","fcode":"PPL","country":"RO","cc2":"","admin1":"31","admin2":"140869","admin3":"","admin4":"","population":242,"elevation":0,"gtopo30":312,"timezone":"Europe/Bucharest","moddate":"2013-04-21T00:00:00.000Z"},{"geonameid":670962,"name":"Petrindu","asciiname":"Petrindu","alternatenames":"Nagypetri,Petrindu,Petrindul","latitude":"46.9202200","longitude":"23.1851800","fclass":"P","fcode":"PPL","country":"RO","cc2":"RO","admin1":"31","admin2":"140869","admin3":"","admin4":"","population":597,"elevation":0,"gtopo30":326,"timezone":"Europe/Bucharest","moddate":"2014-06-04T00:00:00.000Z"},{"geonameid":668490,"name":"Ruginoasa","asciiname":"Ruginoasa","alternatenames":"","latitude":"46.9348400","longitude":"23.2710500","fclass":"P","fcode":"PPL","country":"RO","cc2":"","admin1":"31","admin2":"140869","admin3":"","admin4":"","population":147,"elevation":0,"gtopo30":329,"timezone":"Europe/Bucharest","moddate":"2013-04-21T00:00:00.000Z"},{"geonameid":666078,"name":"Stoboru","asciiname":"Stoboru","alternatenames":"","latitude":"46.9372000","longitude":"23.2890400","fclass":"P","fcode":"PPL","country":"RO","cc2":"","admin1":"31","admin2":"140869","admin3":"","admin4":"","population":43,"elevation":0,"gtopo30":336,"timezone":"Europe/Bucharest","moddate":"2013-04-21T00:00:00.000Z"},{"geonameid":665574,"name":"Tămasa","asciiname":"Tamasa","alternatenames":"","latitude":"46.9483900","longitude":"23.1873400","fclass":"P","fcode":"PPL","country":"RO","cc2":"","admin1":"31","admin2":"140869","admin3":"","admin4":"","population":424,"elevation":0,"gtopo30":302,"timezone":"Europe/Bucharest","moddate":"2013-04-21T00:00:00.000Z"}],"admin3":[],"alternateNames":[]},"__N_SSG":true}