{"pageProps":{"locale":"ro","admin2":{"geonameid":664770,"name":"Comuna Topana","country":"RO","admin1":"29","admin2":"129503","admin3":"","latitude":"44.8431900","longitude":"24.5282700"},"admin1":{"geonameid":671857,"name":"Olt","admin1":"29"},"locations":[{"geonameid":664386,"name":"Ciorâca","asciiname":"Cioraca","alternatenames":"Cioraca,Cioraea,Ciorica,Ciorâca,Ciorîca,Uda","latitude":"44.8300000","longitude":"24.5531500","fclass":"P","fcode":"PPL","country":"RO","cc2":"RO","admin1":"29","admin2":"129503","admin3":"","admin4":"","population":173,"elevation":0,"gtopo30":388,"timezone":"Europe/Bucharest","moddate":"2013-04-21T00:00:00.000Z"},{"geonameid":676961,"name":"Cojgărei","asciiname":"Cojgarei","alternatenames":"","latitude":"44.8310400","longitude":"24.5358500","fclass":"P","fcode":"PPL","country":"RO","cc2":"","admin1":"29","admin2":"129503","admin3":"","admin4":"","population":171,"elevation":0,"gtopo30":394,"timezone":"Europe/Bucharest","moddate":"2013-04-21T00:00:00.000Z"},{"geonameid":679956,"name":"Cungrişoara","asciiname":"Cungrisoara","alternatenames":"Badarai,Badarani,Bădărani,Bădărăi,Cungrisoara,Cungrişoara","latitude":"44.8166700","longitude":"24.4833300","fclass":"P","fcode":"PPLX","country":"RO","cc2":"","admin1":"29","admin2":"129503","admin3":"","admin4":"","population":0,"elevation":0,"gtopo30":378,"timezone":"Europe/Bucharest","moddate":"2016-02-07T00:00:00.000Z"},{"geonameid":670558,"name":"Plapcea","asciiname":"Plapcea","alternatenames":"Pacala,Plapcea,Păcală","latitude":"44.8166700","longitude":"24.5166700","fclass":"P","fcode":"PPLX","country":"RO","cc2":"","admin1":"29","admin2":"129503","admin3":"","admin4":"","population":0,"elevation":0,"gtopo30":338,"timezone":"Europe/Bucharest","moddate":"2016-02-07T00:00:00.000Z"},{"geonameid":668906,"name":"Râjleţu","asciiname":"Rajletu","alternatenames":"Rajletu,Rajletul,Rijletu,Râjletul,Râjleţu,Rîjleţu","latitude":"44.8333300","longitude":"24.5500000","fclass":"P","fcode":"PPLX","country":"RO","cc2":"RO","admin1":"29","admin2":"129503","admin3":"","admin4":"","population":0,"elevation":0,"gtopo30":387,"timezone":"Europe/Bucharest","moddate":"2020-03-08T00:00:00.000Z"},{"geonameid":664771,"name":"Topana","asciiname":"Topana","alternatenames":"Topana","latitude":"44.8166700","longitude":"24.5166700","fclass":"P","fcode":"PPLA2","country":"RO","cc2":"","admin1":"29","admin2":"129503","admin3":"","admin4":"","population":1220,"elevation":0,"gtopo30":338,"timezone":"Europe/Bucharest","moddate":"2012-06-12T00:00:00.000Z"},{"geonameid":664242,"name":"Ungureni","asciiname":"Ungureni","alternatenames":"Ungureni,Valea-Ungureni","latitude":"44.8825100","longitude":"24.5228400","fclass":"P","fcode":"PPL","country":"RO","cc2":"RO","admin1":"29","admin2":"129503","admin3":"","admin4":"","population":265,"elevation":0,"gtopo30":429,"timezone":"Europe/Bucharest","moddate":"2013-04-21T00:00:00.000Z"}],"admin3":[],"alternateNames":[]},"__N_SSG":true}