{"pageProps":{"locale":"ro","admin2":{"geonameid":678454,"name":"Comuna Fărăgău","country":"RO","admin1":"27","admin2":"116723","admin3":"","latitude":"46.7579900","longitude":"24.5278100"},"admin1":{"geonameid":672628,"name":"Mureş","admin1":"27"},"locations":[{"geonameid":678226,"name":"Fânațe","asciiname":"Fanate","alternatenames":"Finate,Foenace,Fînaţe,Fönácé","latitude":"46.7666700","longitude":"24.5166700","fclass":"P","fcode":"PPL","country":"RO","cc2":"","admin1":"27","admin2":"116723","admin3":"","admin4":"","population":0,"elevation":0,"gtopo30":395,"timezone":"Europe/Bucharest","moddate":"2015-12-15T00:00:00.000Z"},{"geonameid":678455,"name":"Fărăgău","asciiname":"Faragau","alternatenames":"Faragau,Faragaul,Farago,Faragò,Fărăgău,Fărăgăul","latitude":"46.7666700","longitude":"24.5166700","fclass":"P","fcode":"PPLA2","country":"RO","cc2":"","admin1":"27","admin2":"116723","admin3":"","admin4":"","population":1628,"elevation":0,"gtopo30":395,"timezone":"Europe/Bucharest","moddate":"2012-06-12T00:00:00.000Z"},{"geonameid":676121,"name":"Hodaia","asciiname":"Hodaia","alternatenames":"Hodaia,Hodaja,Hodoaia,Hodàja","latitude":"46.7736800","longitude":"24.4792800","fclass":"P","fcode":"PPL","country":"RO","cc2":"RO","admin1":"27","admin2":"116723","admin3":"","admin4":"","population":0,"elevation":0,"gtopo30":413,"timezone":"Europe/Bucharest","moddate":"2013-04-21T00:00:00.000Z"},{"geonameid":671793,"name":"Onuca","asciiname":"Onuca","alternatenames":"Onuca,Unoka","latitude":"46.7263000","longitude":"24.5812000","fclass":"P","fcode":"PPL","country":"RO","cc2":"RO","admin1":"27","admin2":"116723","admin3":"","admin4":"","population":102,"elevation":0,"gtopo30":413,"timezone":"Europe/Bucharest","moddate":"2013-04-21T00:00:00.000Z"},{"geonameid":670380,"name":"Poarta","asciiname":"Poarta","alternatenames":"Kortekapu,Körtekapù,Poarta","latitude":"46.7351700","longitude":"24.5614700","fclass":"P","fcode":"PPL","country":"RO","cc2":"RO","admin1":"27","admin2":"116723","admin3":"","admin4":"","population":264,"elevation":0,"gtopo30":400,"timezone":"Europe/Bucharest","moddate":"2013-04-21T00:00:00.000Z"},{"geonameid":664788,"name":"Tonciu","asciiname":"Tonciu","alternatenames":"Tonciu,Tonciul,Toncs","latitude":"46.7802500","longitude":"24.5520100","fclass":"P","fcode":"PPL","country":"RO","cc2":"RO","admin1":"27","admin2":"116723","admin3":"","admin4":"","population":734,"elevation":0,"gtopo30":388,"timezone":"Europe/Bucharest","moddate":"2013-04-21T00:00:00.000Z"}],"admin3":[],"alternateNames":[]},"__N_SSG":true}