{"pageProps":{"locale":"ro","admin2":{"geonameid":684418,"name":"Comuna Bogda","country":"RO","admin1":"36","admin2":"156035","admin3":"","latitude":"45.9702500","longitude":"21.5696400"},"admin1":{"geonameid":665091,"name":"Timiş","admin1":"36"},"locations":[{"geonameid":686429,"name":"Altringen","asciiname":"Altringen","alternatenames":"Altringen,Kisrekas,Kisrékas,Rekeshely","latitude":"45.9824100","longitude":"21.5549500","fclass":"P","fcode":"PPL","country":"RO","cc2":"RO","admin1":"36","admin2":"156035","admin3":"","admin4":"","population":37,"elevation":0,"gtopo30":150,"timezone":"Europe/Bucharest","moddate":"2013-04-21T00:00:00.000Z"},{"geonameid":684420,"name":"Bogda","asciiname":"Bogda","alternatenames":"Bogda,Bogda-Rigos,Bogda-Rigós,Neuhof,Rigosfurdo,Rigósfürdő","latitude":"45.9783300","longitude":"21.5725000","fclass":"P","fcode":"PPLA2","country":"RO","cc2":"","admin1":"36","admin2":"156035","admin3":"","admin4":"","population":465,"elevation":0,"gtopo30":146,"timezone":"Europe/Bucharest","moddate":"2012-06-12T00:00:00.000Z"},{"geonameid":683126,"name":"Buzad","asciiname":"Buzad","alternatenames":"","latitude":"45.9430700","longitude":"21.5473700","fclass":"P","fcode":"PPL","country":"RO","cc2":"","admin1":"36","admin2":"156035","admin3":"","admin4":"","population":258,"elevation":0,"gtopo30":192,"timezone":"Europe/Bucharest","moddate":"2013-04-21T00:00:00.000Z"},{"geonameid":682234,"name":"Charlotenburg","asciiname":"Charlotenburg","alternatenames":"Baricza,Charlotenburg,Charlottenburg,Sarlota,Sarlotenburg,Saroltavar,Saroltavár,Şarlota,Şarlotenburg","latitude":"45.9804200","longitude":"21.5222800","fclass":"P","fcode":"PPL","country":"RO","cc2":"RO","admin1":"36","admin2":"156035","admin3":"","admin4":"","population":135,"elevation":0,"gtopo30":151,"timezone":"Europe/Bucharest","moddate":"2013-04-21T00:00:00.000Z"},{"geonameid":681000,"name":"Comeat","asciiname":"Comeat","alternatenames":"Comeat,Coneat,Komeat,Lichtenwald,Temeskomjat,Temeskomját","latitude":"45.9611400","longitude":"21.6161800","fclass":"P","fcode":"PPL","country":"RO","cc2":"RO","admin1":"36","admin2":"156035","admin3":"","admin4":"","population":45,"elevation":0,"gtopo30":171,"timezone":"Europe/Bucharest","moddate":"2013-04-21T00:00:00.000Z"},{"geonameid":666925,"name":"Sintar","asciiname":"Sintar","alternatenames":"Buchberg,Bukkhegy,Bükkhegy,Sintar,Szintar,Szintár","latitude":"45.9752900","longitude":"21.5978700","fclass":"P","fcode":"PPL","country":"RO","cc2":"RO","admin1":"36","admin2":"156035","admin3":"","admin4":"","population":13,"elevation":0,"gtopo30":179,"timezone":"Europe/Bucharest","moddate":"2013-04-21T00:00:00.000Z"}],"admin3":[],"alternateNames":[]},"__N_SSG":true}