{"pageProps":{"locale":"ro","admin2":{"geonameid":669553,"name":"Comuna Proviţa de Sus","country":"RO","admin1":"30","admin2":"134899","admin3":"","latitude":"45.1360400","longitude":"25.6345400"},"admin1":{"geonameid":669737,"name":"Prahova","admin1":"30"},"locations":[{"geonameid":681490,"name":"Ciubuci","asciiname":"Ciubuci","alternatenames":"","latitude":"45.1333300","longitude":"25.6333300","fclass":"P","fcode":"PPLX","country":"RO","cc2":"","admin1":"30","admin2":"134899","admin3":"","admin4":"","population":0,"elevation":0,"gtopo30":470,"timezone":"Europe/Bucharest","moddate":"2016-02-07T00:00:00.000Z"},{"geonameid":675347,"name":"Izvoru","asciiname":"Izvoru","alternatenames":"Fricoasa,Izvoru","latitude":"45.1500000","longitude":"25.6166700","fclass":"P","fcode":"PPL","country":"RO","cc2":"","admin1":"30","admin2":"134899","admin3":"","admin4":"","population":0,"elevation":0,"gtopo30":583,"timezone":"Europe/Bucharest","moddate":"2016-02-07T00:00:00.000Z"},{"geonameid":670570,"name":"Plaiu","asciiname":"Plaiu","alternatenames":"Plaiu,Plaiul Talea","latitude":"45.2199900","longitude":"25.5957300","fclass":"P","fcode":"PPL","country":"RO","cc2":"RO","admin1":"30","admin2":"134899","admin3":"","admin4":"","population":704,"elevation":0,"gtopo30":737,"timezone":"Europe/Bucharest","moddate":"2013-04-21T00:00:00.000Z"},{"geonameid":669554,"name":"Proviţa de Sus","asciiname":"Provita de Sus","alternatenames":"","latitude":"45.1333300","longitude":"25.6333300","fclass":"P","fcode":"PPLA2","country":"RO","cc2":"","admin1":"30","admin2":"134899","admin3":"","admin4":"","population":2333,"elevation":0,"gtopo30":470,"timezone":"Europe/Bucharest","moddate":"2012-06-12T00:00:00.000Z"},{"geonameid":668582,"name":"Rotari","asciiname":"Rotari","alternatenames":"","latitude":"45.1333300","longitude":"25.6333300","fclass":"P","fcode":"PPLX","country":"RO","cc2":"","admin1":"30","admin2":"134899","admin3":"","admin4":"","population":0,"elevation":0,"gtopo30":470,"timezone":"Europe/Bucharest","moddate":"2016-02-07T00:00:00.000Z"},{"geonameid":667677,"name":"Schiopăta","asciiname":"Schiopata","alternatenames":"","latitude":"45.1166700","longitude":"25.6333300","fclass":"P","fcode":"PPLX","country":"RO","cc2":"","admin1":"30","admin2":"134899","admin3":"","admin4":"","population":0,"elevation":0,"gtopo30":506,"timezone":"Europe/Bucharest","moddate":"2016-02-07T00:00:00.000Z"},{"geonameid":663879,"name":"Valea Bradului","asciiname":"Valea Bradului","alternatenames":"","latitude":"45.1650100","longitude":"25.6115600","fclass":"P","fcode":"PPL","country":"RO","cc2":"","admin1":"30","admin2":"134899","admin3":"","admin4":"","population":158,"elevation":0,"gtopo30":493,"timezone":"Europe/Bucharest","moddate":"2013-04-20T00:00:00.000Z"},{"geonameid":663511,"name":"Valea Poenii","asciiname":"Valea Poenii","alternatenames":"","latitude":"45.1333300","longitude":"25.6333300","fclass":"P","fcode":"PPLX","country":"RO","cc2":"","admin1":"30","admin2":"134899","admin3":"","admin4":"","population":0,"elevation":0,"gtopo30":470,"timezone":"Europe/Bucharest","moddate":"2016-02-07T00:00:00.000Z"}],"admin3":[],"alternateNames":[{"alternatenameId":8326236,"geonameid":669737,"isoLanguage":"en","alternateName":"Prahova","isPreferredName":true,"isShortName":true,"isColloquial":false,"isHistoric":false}]},"__N_SSG":true}