{"pageProps":{"locale":"ro","admin2":{"geonameid":665627,"name":"Comuna Ţaga","country":"RO","admin1":"13","admin2":"59826","admin3":"","latitude":"46.9510000","longitude":"24.0260500"},"admin1":{"geonameid":681291,"name":"Cluj","admin1":"13"},"locations":[{"geonameid":682273,"name":"Cesariu","asciiname":"Cesariu","alternatenames":"Cesariu,Cosari","latitude":"46.9500000","longitude":"24.0166700","fclass":"P","fcode":"PPL","country":"RO","cc2":"","admin1":"13","admin2":"59826","admin3":"","admin4":"","population":0,"elevation":0,"gtopo30":378,"timezone":"Europe/Bucharest","moddate":"2016-02-07T00:00:00.000Z"},{"geonameid":677342,"name":"Ghiolţ","asciiname":"Ghiolt","alternatenames":"","latitude":"46.9500000","longitude":"24.0666700","fclass":"P","fcode":"PPL","country":"RO","cc2":"","admin1":"13","admin2":"59826","admin3":"","admin4":"","population":0,"elevation":0,"gtopo30":365,"timezone":"Europe/Bucharest","moddate":"2016-02-07T00:00:00.000Z"},{"geonameid":672499,"name":"Năsal","asciiname":"Nasal","alternatenames":"","latitude":"46.9444800","longitude":"24.1122200","fclass":"P","fcode":"PPL","country":"RO","cc2":"","admin1":"13","admin2":"59826","admin3":"","admin4":"","population":541,"elevation":0,"gtopo30":307,"timezone":"Europe/Bucharest","moddate":"2013-04-21T00:00:00.000Z"},{"geonameid":666919,"name":"Sântejude","asciiname":"Santejude","alternatenames":"Samejude,Santejude,Sintejude,Sâmejude,Sântejude,Sîntejude","latitude":"46.9268300","longitude":"23.9905300","fclass":"P","fcode":"PPL","country":"RO","cc2":"RO","admin1":"13","admin2":"59826","admin3":"","admin4":"","population":227,"elevation":0,"gtopo30":323,"timezone":"Europe/Bucharest","moddate":"2013-04-21T00:00:00.000Z"},{"geonameid":666918,"name":"Sântejude Vale","asciiname":"Santejude Vale","alternatenames":"","latitude":"46.9634400","longitude":"23.9625000","fclass":"P","fcode":"PPL","country":"RO","cc2":"","admin1":"13","admin2":"59826","admin3":"","admin4":"","population":114,"elevation":0,"gtopo30":306,"timezone":"Europe/Bucharest","moddate":"2013-04-21T00:00:00.000Z"},{"geonameid":666901,"name":"Sântioana","asciiname":"Santioana","alternatenames":"Santioana,Sintioana,Sântioana,Sîntioana","latitude":"46.9698100","longitude":"24.0116100","fclass":"P","fcode":"PPL","country":"RO","cc2":"RO","admin1":"13","admin2":"59826","admin3":"","admin4":"","population":549,"elevation":0,"gtopo30":276,"timezone":"Europe/Bucharest","moddate":"2013-04-21T00:00:00.000Z"},{"geonameid":665628,"name":"Ţaga","asciiname":"Taga","alternatenames":"Taga,Ţaga","latitude":"46.9500000","longitude":"24.0500000","fclass":"P","fcode":"PPLA2","country":"RO","cc2":"","admin1":"13","admin2":"59826","admin3":"","admin4":"","population":2124,"elevation":0,"gtopo30":280,"timezone":"Europe/Bucharest","moddate":"2012-06-12T00:00:00.000Z"}],"admin3":[],"alternateNames":[]},"__N_SSG":true}