{"pageProps":{"locale":"ro","admin2":{"geonameid":685505,"name":"Comuna Băluşeni","country":"RO","admin1":"07","admin2":"36300","admin3":"","latitude":"47.6775800","longitude":"26.7785500"},"admin1":{"geonameid":684038,"name":"Botoşani","admin1":"07"},"locations":[{"geonameid":685506,"name":"Băluşeni","asciiname":"Baluseni","alternatenames":"","latitude":"47.6666700","longitude":"26.8000000","fclass":"P","fcode":"PPLA2","country":"RO","cc2":"","admin1":"07","admin2":"36300","admin3":"","admin4":"","population":5017,"elevation":0,"gtopo30":96,"timezone":"Europe/Bucharest","moddate":"2012-06-12T00:00:00.000Z"},{"geonameid":685504,"name":"Bălușenii Noi","asciiname":"Balusenii Noi","alternatenames":"Balusenii Noi,Băluşenii Noi,Palita,Pirlita,Pâlita,Pîrlita","latitude":"47.6861000","longitude":"26.8238300","fclass":"P","fcode":"PPL","country":"RO","cc2":"RO","admin1":"07","admin2":"36300","admin3":"","admin4":"","population":325,"elevation":0,"gtopo30":80,"timezone":"Europe/Bucharest","moddate":"2013-04-21T00:00:00.000Z"},{"geonameid":683112,"name":"Buzeni","asciiname":"Buzeni","alternatenames":"","latitude":"47.6802100","longitude":"26.7453000","fclass":"P","fcode":"PPL","country":"RO","cc2":"","admin1":"07","admin2":"36300","admin3":"","admin4":"","population":496,"elevation":0,"gtopo30":113,"timezone":"Europe/Bucharest","moddate":"2013-04-21T00:00:00.000Z"},{"geonameid":680527,"name":"Coșuleni","asciiname":"Cosuleni","alternatenames":"","latitude":"47.6835700","longitude":"26.7583600","fclass":"P","fcode":"PPL","country":"RO","cc2":"","admin1":"07","admin2":"36300","admin3":"","admin4":"","population":263,"elevation":0,"gtopo30":100,"timezone":"Europe/Bucharest","moddate":"2013-04-21T00:00:00.000Z"},{"geonameid":679020,"name":"Draxini","asciiname":"Draxini","alternatenames":"","latitude":"47.6500000","longitude":"26.8166700","fclass":"P","fcode":"PPL","country":"RO","cc2":"","admin1":"07","admin2":"36300","admin3":"","admin4":"","population":1815,"elevation":0,"gtopo30":163,"timezone":"Europe/Bucharest","moddate":"2015-11-16T00:00:00.000Z"},{"geonameid":669206,"name":"Rahova","asciiname":"Rahova","alternatenames":"Racova,Rahova","latitude":"47.6833300","longitude":"26.8666700","fclass":"P","fcode":"PPLX","country":"RO","cc2":"","admin1":"07","admin2":"36300","admin3":"","admin4":"","population":0,"elevation":0,"gtopo30":146,"timezone":"Europe/Bucharest","moddate":"2016-02-07T00:00:00.000Z"},{"geonameid":662337,"name":"Zăicești","asciiname":"Zaicesti","alternatenames":"","latitude":"47.6900400","longitude":"26.7249900","fclass":"P","fcode":"PPL","country":"RO","cc2":"","admin1":"07","admin2":"36300","admin3":"","admin4":"","population":593,"elevation":0,"gtopo30":163,"timezone":"Europe/Bucharest","moddate":"2013-04-20T00:00:00.000Z"}],"admin3":[],"alternateNames":[]},"__N_SSG":true}