{"pageProps":{"locale":"ro","admin2":{"geonameid":682339,"name":"Comuna Cerna","country":"RO","admin1":"37","admin2":"160127","admin3":"","latitude":"45.0400700","longitude":"28.3166800"},"admin1":{"geonameid":664517,"name":"Tulcea","admin1":"37"},"locations":[{"geonameid":682347,"name":"Cerna","asciiname":"Cerna","alternatenames":"Cerna","latitude":"45.0833300","longitude":"28.3166700","fclass":"P","fcode":"PPLA2","country":"RO","cc2":"","admin1":"37","admin2":"160127","admin3":"","admin4":"","population":4279,"elevation":0,"gtopo30":85,"timezone":"Europe/Bucharest","moddate":"2012-06-12T00:00:00.000Z"},{"geonameid":677527,"name":"General Dragalina","asciiname":"General Dragalina","alternatenames":"Dragalina,General Dragalina,Omurcea","latitude":"44.9833300","longitude":"28.3666700","fclass":"P","fcode":"PPL","country":"RO","cc2":"","admin1":"37","admin2":"160127","admin3":"","admin4":"","population":0,"elevation":0,"gtopo30":196,"timezone":"Europe/Bucharest","moddate":"2016-02-07T00:00:00.000Z"},{"geonameid":677525,"name":"General Praporgescu","asciiname":"General Praporgescu","alternatenames":"General Praporgescu,Praporgescu","latitude":"45.0143700","longitude":"28.3754700","fclass":"P","fcode":"PPL","country":"RO","cc2":"RO","admin1":"37","admin2":"160127","admin3":"","admin4":"","population":230,"elevation":0,"gtopo30":133,"timezone":"Europe/Bucharest","moddate":"2013-04-21T00:00:00.000Z"},{"geonameid":675869,"name":"Iacob Deal","asciiname":"Iacob Deal","alternatenames":"Iacob Deal,Muntele Carol","latitude":"45.1000000","longitude":"28.2166700","fclass":"P","fcode":"PPL","country":"RO","cc2":"","admin1":"37","admin2":"160127","admin3":"","admin4":"","population":0,"elevation":0,"gtopo30":94,"timezone":"Europe/Bucharest","moddate":"2016-02-07T00:00:00.000Z"},{"geonameid":673152,"name":"Mircea Vodă","asciiname":"Mircea Voda","alternatenames":"","latitude":"45.0372500","longitude":"28.3552300","fclass":"P","fcode":"PPL","country":"RO","cc2":"","admin1":"37","admin2":"160127","admin3":"","admin4":"","population":607,"elevation":0,"gtopo30":116,"timezone":"Europe/Bucharest","moddate":"2013-04-21T00:00:00.000Z"},{"geonameid":670886,"name":"Piatra Roşie","asciiname":"Piatra Rosie","alternatenames":"","latitude":"45.0833300","longitude":"28.2666700","fclass":"P","fcode":"PPLX","country":"RO","cc2":"","admin1":"37","admin2":"160127","admin3":"","admin4":"","population":0,"elevation":0,"gtopo30":49,"timezone":"Europe/Bucharest","moddate":"2016-02-07T00:00:00.000Z"},{"geonameid":664681,"name":"Traian","asciiname":"Traian","alternatenames":"","latitude":"45.0287600","longitude":"28.2351800","fclass":"P","fcode":"PPL","country":"RO","cc2":"","admin1":"37","admin2":"160127","admin3":"","admin4":"","population":1306,"elevation":0,"gtopo30":9,"timezone":"Europe/Bucharest","moddate":"2013-04-21T00:00:00.000Z"}],"admin3":[],"alternateNames":[]},"__N_SSG":true}