{"pageProps":{"locale":"ro","admin2":{"geonameid":672717,"name":"Comuna Moviliţa","country":"RO","admin1":"40","admin2":"176793","admin3":"","latitude":"45.9575000","longitude":"27.1048700"},"admin1":{"geonameid":662447,"name":"Vrancea","admin1":"40","localeAltName":"Vrancea"},"locations":[{"geonameid":679341,"name":"Diocheți-Rediu","asciiname":"Diocheti-Rediu","alternatenames":"Diocheti,Diocheţi","latitude":"45.9305800","longitude":"27.1390700","fclass":"P","fcode":"PPL","country":"RO","cc2":"","admin1":"40","admin2":"176793","admin3":"","admin4":"","population":661,"elevation":0,"gtopo30":177,"timezone":"Europe/Bucharest","moddate":"2016-01-11T00:00:00.000Z"},{"geonameid":677904,"name":"Frecăței","asciiname":"Frecatei","alternatenames":"Frecatei,Frecateii,Frecăţei,Frecăţeii","latitude":"45.9632200","longitude":"27.0897200","fclass":"P","fcode":"PPL","country":"RO","cc2":"RO","admin1":"40","admin2":"176793","admin3":"","admin4":"","population":265,"elevation":0,"gtopo30":274,"timezone":"Europe/Bucharest","moddate":"2013-04-21T00:00:00.000Z"},{"geonameid":672720,"name":"Moviliţa","asciiname":"Movilita","alternatenames":"","latitude":"45.9500000","longitude":"27.1000000","fclass":"P","fcode":"PPLA2","country":"RO","cc2":"","admin1":"40","admin2":"176793","admin3":"","admin4":"","population":3911,"elevation":0,"gtopo30":190,"timezone":"Europe/Bucharest","moddate":"2012-06-12T00:00:00.000Z"},{"geonameid":669009,"name":"Rediu","asciiname":"Rediu","alternatenames":"","latitude":"45.9333300","longitude":"27.1333300","fclass":"P","fcode":"PPLX","country":"RO","cc2":"","admin1":"40","admin2":"176793","admin3":"","admin4":"","population":0,"elevation":0,"gtopo30":180,"timezone":"Europe/Bucharest","moddate":"2016-02-07T00:00:00.000Z"},{"geonameid":666371,"name":"Sperieţi","asciiname":"Sperieti","alternatenames":"Sperieti,Sperietii,Sperieţi,Sperieţii","latitude":"45.9500000","longitude":"27.1166700","fclass":"P","fcode":"PPLX","country":"RO","cc2":"","admin1":"40","admin2":"176793","admin3":"","admin4":"","population":0,"elevation":0,"gtopo30":227,"timezone":"Europe/Bucharest","moddate":"2016-02-07T00:00:00.000Z"},{"geonameid":664581,"name":"Trotușanu","asciiname":"Trotusanu","alternatenames":"Trotusanu,Trotusanul,Trotuşanu,Trotuşanul","latitude":"45.9817500","longitude":"27.0949600","fclass":"P","fcode":"PPL","country":"RO","cc2":"RO","admin1":"40","admin2":"176793","admin3":"","admin4":"","population":455,"elevation":0,"gtopo30":281,"timezone":"Europe/Bucharest","moddate":"2013-04-21T00:00:00.000Z"},{"geonameid":663287,"name":"Văleni","asciiname":"Valeni","alternatenames":"","latitude":"45.9565700","longitude":"27.0944700","fclass":"P","fcode":"PPL","country":"RO","cc2":"","admin1":"40","admin2":"176793","admin3":"","admin4":"","population":256,"elevation":0,"gtopo30":218,"timezone":"Europe/Bucharest","moddate":"2013-04-20T00:00:00.000Z"},{"geonameid":662362,"name":"Zăbrăuţii","asciiname":"Zabrautii","alternatenames":"Chetcanii,Cheţcanii,Chitcani,Chiţcani,Sperieti-Chitcani,Sperieţi-Chiţcani,Zabrautii,Zăbrăuţii","latitude":"45.9500000","longitude":"27.1000000","fclass":"P","fcode":"PPLX","country":"RO","cc2":"","admin1":"40","admin2":"176793","admin3":"","admin4":"","population":0,"elevation":0,"gtopo30":190,"timezone":"Europe/Bucharest","moddate":"2016-02-07T00:00:00.000Z"}],"admin3":[],"alternateNames":[{"alternatenameId":391637,"geonameid":662447,"isoLanguage":"ro","alternateName":"Vrancea","isPreferredName":true,"isShortName":true,"isColloquial":false,"isHistoric":false}]},"__N_SSG":true}