{"pageProps":{"locale":"ro","admin2":{"geonameid":680697,"name":"Comuna Coroieşti","country":"RO","admin1":"38","admin2":"163057","admin3":"","latitude":"46.2889100","longitude":"27.4924900"},"admin1":{"geonameid":663116,"name":"Vaslui","admin1":"38"},"locations":[{"geonameid":686328,"name":"Angheluţa","asciiname":"Angheluta","alternatenames":"","latitude":"46.3333300","longitude":"27.5000000","fclass":"P","fcode":"PPL","country":"RO","cc2":"","admin1":"38","admin2":"163057","admin3":"","admin4":"","population":0,"elevation":0,"gtopo30":287,"timezone":"Europe/Bucharest","moddate":"2016-02-07T00:00:00.000Z"},{"geonameid":682114,"name":"Chilieni","asciiname":"Chilieni","alternatenames":"Chilieni,Chilieni de Jos,Chilienii de Jos","latitude":"46.3073400","longitude":"27.4784200","fclass":"P","fcode":"PPL","country":"RO","cc2":"RO","admin1":"38","admin2":"163057","admin3":"","admin4":"","population":307,"elevation":0,"gtopo30":205,"timezone":"Europe/Bucharest","moddate":"2013-04-21T00:00:00.000Z"},{"geonameid":682112,"name":"Chilienii de Sus","asciiname":"Chilienii de Sus","alternatenames":"Chilieni de Sus,Chilienii de Sus","latitude":"46.3166700","longitude":"27.4666700","fclass":"P","fcode":"PPL","country":"RO","cc2":"","admin1":"38","admin2":"163057","admin3":"","admin4":"","population":0,"elevation":0,"gtopo30":257,"timezone":"Europe/Bucharest","moddate":"2016-02-07T00:00:00.000Z"},{"geonameid":680695,"name":"Coroeştii de Jos","asciiname":"Coroestii de Jos","alternatenames":"Coroesti-de-Jos,Coroestii de Jos,Coroeşti-de-Jos,Coroeştii de Jos","latitude":"46.2500000","longitude":"27.4833300","fclass":"P","fcode":"PPL","country":"RO","cc2":"","admin1":"38","admin2":"163057","admin3":"","admin4":"","population":0,"elevation":0,"gtopo30":179,"timezone":"Europe/Bucharest","moddate":"2016-02-07T00:00:00.000Z"},{"geonameid":680692,"name":"Coroieşti","asciiname":"Coroiesti","alternatenames":"Coroiesti,Coroiestii de Jos,Coroieşti,Coroieştii de Jos","latitude":"46.2500000","longitude":"27.4833300","fclass":"P","fcode":"PPL","country":"RO","cc2":"","admin1":"38","admin2":"163057","admin3":"","admin4":"","population":2318,"elevation":0,"gtopo30":179,"timezone":"Europe/Bucharest","moddate":"2016-02-07T00:00:00.000Z"},{"geonameid":680694,"name":"Coroieștii de Sus","asciiname":"Coroiestii de Sus","alternatenames":"Coroesti,Coroesti-de-Sus,Coroestii de Sus,Coroeşti,Coroeşti-de-Sus,Coroeştii de Sus","latitude":"46.2629000","longitude":"27.4904700","fclass":"P","fcode":"PPL","country":"RO","cc2":"RO","admin1":"38","admin2":"163057","admin3":"","admin4":"","population":214,"elevation":0,"gtopo30":147,"timezone":"Europe/Bucharest","moddate":"2013-04-21T00:00:00.000Z"},{"geonameid":675954,"name":"Hreasca","asciiname":"Hreasca","alternatenames":"","latitude":"46.3375100","longitude":"27.5032500","fclass":"P","fcode":"PPL","country":"RO","cc2":"","admin1":"38","admin2":"163057","admin3":"","admin4":"","population":299,"elevation":0,"gtopo30":281,"timezone":"Europe/Bucharest","moddate":"2013-04-21T00:00:00.000Z"},{"geonameid":673130,"name":"Mireni","asciiname":"Mireni","alternatenames":"","latitude":"46.3156200","longitude":"27.4900700","fclass":"P","fcode":"PPL","country":"RO","cc2":"","admin1":"38","admin2":"163057","admin3":"","admin4":"","population":513,"elevation":0,"gtopo30":174,"timezone":"Europe/Bucharest","moddate":"2013-04-21T00:00:00.000Z"},{"geonameid":672731,"name":"Movileni","asciiname":"Movileni","alternatenames":"Movileni,Movilenii","latitude":"46.2702000","longitude":"27.5140800","fclass":"P","fcode":"PPL","country":"RO","cc2":"RO","admin1":"38","admin2":"163057","admin3":"","admin4":"","population":210,"elevation":0,"gtopo30":149,"timezone":"Europe/Bucharest","moddate":"2013-04-21T00:00:00.000Z"},{"geonameid":671571,"name":"Păcurărești","asciiname":"Pacuraresti","alternatenames":"Pacuraresti,Pacurarestii,Păcurareştii,Păcurăreşti","latitude":"46.2827400","longitude":"27.4866300","fclass":"P","fcode":"PPL","country":"RO","cc2":"RO","admin1":"38","admin2":"163057","admin3":"","admin4":"","population":41,"elevation":0,"gtopo30":166,"timezone":"Europe/Bucharest","moddate":"2013-04-21T00:00:00.000Z"},{"geonameid":667827,"name":"Satu Nou","asciiname":"Satu Nou","alternatenames":"","latitude":"46.2500000","longitude":"27.4833300","fclass":"P","fcode":"PPL","country":"RO","cc2":"","admin1":"38","admin2":"163057","admin3":"","admin4":"","population":0,"elevation":0,"gtopo30":179,"timezone":"Europe/Bucharest","moddate":"2016-02-07T00:00:00.000Z"}],"admin3":[],"alternateNames":[]},"__N_SSG":true}