{"pageProps":{"locale":"ro","admin2":{"geonameid":685043,"name":"Comuna Bereni","country":"RO","admin1":"27","admin2":"120511","admin3":"","latitude":"46.5699200","longitude":"24.8672600"},"admin1":{"geonameid":672628,"name":"Mureş","admin1":"27"},"locations":[{"geonameid":684835,"name":"Bâra","asciiname":"Bara","alternatenames":"Bara,Berekeresztur,Bira,Bâra,Bîra","latitude":"46.5722100","longitude":"24.8726200","fclass":"P","fcode":"PPL","country":"RO","cc2":"RO","admin1":"27","admin2":"120511","admin3":"","admin4":"","population":158,"elevation":0,"gtopo30":379,"timezone":"Europe/Bucharest","moddate":"2013-04-21T00:00:00.000Z"},{"geonameid":685044,"name":"Bereni","asciiname":"Bereni","alternatenames":"Bereni,Szekelybere,Szèkelybere","latitude":"46.5573300","longitude":"24.8682100","fclass":"P","fcode":"PPLA2","country":"RO","cc2":"RO","admin1":"27","admin2":"120511","admin3":"","admin4":"","population":205,"elevation":0,"gtopo30":366,"timezone":"Europe/Bucharest","moddate":"2013-04-21T00:00:00.000Z"},{"geonameid":681800,"name":"Cându","asciiname":"Candu","alternatenames":"Candu,Cindu,Cându,Cîndu,Kendo,Kendö","latitude":"46.5991800","longitude":"24.8879100","fclass":"P","fcode":"PPL","country":"RO","cc2":"RO","admin1":"27","admin2":"120511","admin3":"","admin4":"","population":157,"elevation":0,"gtopo30":438,"timezone":"Europe/Bucharest","moddate":"2013-04-21T00:00:00.000Z"},{"geonameid":678809,"name":"Drojdii","asciiname":"Drojdii","alternatenames":"Drojdii,Seprod,Seprőd","latitude":"46.5459700","longitude":"24.8571100","fclass":"P","fcode":"PPL","country":"RO","cc2":"RO","admin1":"27","admin2":"120511","admin3":"","admin4":"","population":146,"elevation":0,"gtopo30":384,"timezone":"Europe/Bucharest","moddate":"2013-04-21T00:00:00.000Z"},{"geonameid":678547,"name":"Eremieni","asciiname":"Eremieni","alternatenames":"Eremieni,Nyaradszentimre,Nyàràdszentimre","latitude":"46.5364200","longitude":"24.8715800","fclass":"P","fcode":"PPL","country":"RO","cc2":"RO","admin1":"27","admin2":"120511","admin3":"","admin4":"","population":265,"elevation":0,"gtopo30":384,"timezone":"Europe/Bucharest","moddate":"2013-04-21T00:00:00.000Z"},{"geonameid":674073,"name":"Maia","asciiname":"Maia","alternatenames":"Maia,Maja,Màja","latitude":"46.5811800","longitude":"24.8481800","fclass":"P","fcode":"PPL","country":"RO","cc2":"RO","admin1":"27","admin2":"120511","admin3":"","admin4":"","population":205,"elevation":0,"gtopo30":397,"timezone":"Europe/Bucharest","moddate":"2013-04-21T00:00:00.000Z"},{"geonameid":673859,"name":"Mărculeni","asciiname":"Marculeni","alternatenames":"Marculeni,Markod,Màrkod,Mărculeni","latitude":"46.5971300","longitude":"24.8652400","fclass":"P","fcode":"PPL","country":"RO","cc2":"RO","admin1":"27","admin2":"120511","admin3":"","admin4":"","population":316,"elevation":0,"gtopo30":417,"timezone":"Europe/Bucharest","moddate":"2013-04-21T00:00:00.000Z"}],"admin3":[],"alternateNames":[]},"__N_SSG":true}