{"pageProps":{"locale":"ro","admin2":{"geonameid":662701,"name":"Comuna Vişeu de Jos","country":"RO","admin1":"25","admin2":"109504","admin3":"","latitude":"47.7276000","longitude":"24.3630600"},"admin1":{"geonameid":673887,"name":"Maramureş","admin1":"25"},"locations":[{"geonameid":679744,"name":"Danova","asciiname":"Danova","alternatenames":"","latitude":"47.7296800","longitude":"24.3288400","fclass":"P","fcode":"PPLX","country":"RO","cc2":"","admin1":"25","admin2":"109504","admin3":"","admin4":"","population":0,"elevation":0,"gtopo30":441,"timezone":"Europe/Bucharest","moddate":"2017-06-29T00:00:00.000Z"},{"geonameid":663569,"name":"Valea Morii","asciiname":"Valea Morii","alternatenames":"","latitude":"47.7332900","longitude":"24.3462200","fclass":"P","fcode":"PPLX","country":"RO","cc2":"","admin1":"25","admin2":"109504","admin3":"","admin4":"","population":0,"elevation":0,"gtopo30":461,"timezone":"Europe/Bucharest","moddate":"2017-06-29T00:00:00.000Z"},{"geonameid":663496,"name":"Valea Porcului","asciiname":"Valea Porcului","alternatenames":"","latitude":"47.7333300","longitude":"24.3666700","fclass":"P","fcode":"PPLX","country":"RO","cc2":"","admin1":"25","admin2":"109504","admin3":"","admin4":"","population":0,"elevation":0,"gtopo30":544,"timezone":"Europe/Bucharest","moddate":"2016-02-07T00:00:00.000Z"},{"geonameid":662702,"name":"Vişeu de Jos","asciiname":"Viseu de Jos","alternatenames":"Visaul-de-Jos,Viseu de Jos,Viseul de Jos,Vizaul de Jos,Vizăul de Jos,Vişeu de Jos,Vişeul de Jos,Vişăul-de-Jos","latitude":"47.7255800","longitude":"24.3661300","fclass":"P","fcode":"PPLA2","country":"RO","cc2":"","admin1":"25","admin2":"109504","admin3":"","admin4":"","population":5201,"elevation":0,"gtopo30":457,"timezone":"Europe/Bucharest","moddate":"2012-06-12T00:00:00.000Z"}],"admin3":[],"alternateNames":[]},"__N_SSG":true}