{"pageProps":{"locale":"en","admin2":{"geonameid":3333222,"name":"Wolverhampton","country":"GB","admin1":"ENG","admin2":"Q3","admin3":"","latitude":"52.5833300","longitude":"-2.1166700","localeAltName":"Wolverhampton"},"admin1":{"geonameid":6269131,"name":"England","admin1":"ENG","localeAltName":"England"},"locations":[{"geonameid":2655654,"name":"Bilston","asciiname":"Bilston","alternatenames":"Bilston,bylstwn,بیلستون","latitude":"52.5656800","longitude":"-2.0736700","fclass":"P","fcode":"PPL","country":"GB","cc2":"","admin1":"ENG","admin2":"Q3","admin3":"","admin4":"","population":5000,"elevation":0,"gtopo30":144,"timezone":"Europe/London","moddate":"2016-04-02T00:00:00.000Z"},{"geonameid":11551132,"name":"Blakenhall","asciiname":"Blakenhall","alternatenames":"","latitude":"52.5737700","longitude":"-2.1310000","fclass":"P","fcode":"PPL","country":"GB","cc2":"","admin1":"ENG","admin2":"Q3","admin3":"","admin4":"","population":0,"elevation":0,"gtopo30":155,"timezone":"Europe/London","moddate":"2017-06-08T00:00:00.000Z"},{"geonameid":11551140,"name":"Bradmore","asciiname":"Bradmore","alternatenames":"","latitude":"52.5789100","longitude":"-2.1597100","fclass":"P","fcode":"PPL","country":"GB","cc2":"","admin1":"ENG","admin2":"Q3","admin3":"","admin4":"","population":0,"elevation":0,"gtopo30":135,"timezone":"Europe/London","moddate":"2017-06-08T00:00:00.000Z"},{"geonameid":2654181,"name":"Bushbury","asciiname":"Bushbury","alternatenames":"","latitude":"52.6204100","longitude":"-2.1145100","fclass":"P","fcode":"PPL","country":"GB","cc2":"","admin1":"ENG","admin2":"Q3","admin3":"41UF","admin4":"","population":0,"elevation":0,"gtopo30":142,"timezone":"Europe/London","moddate":"2011-03-03T00:00:00.000Z"},{"geonameid":2649720,"name":"Fallings Park","asciiname":"Fallings Park","alternatenames":"","latitude":"52.6026700","longitude":"-2.1156100","fclass":"P","fcode":"PPL","country":"GB","cc2":"","admin1":"ENG","admin2":"Q3","admin3":"41UF","admin4":"","population":0,"elevation":0,"gtopo30":131,"timezone":"Europe/London","moddate":"2011-03-03T00:00:00.000Z"},{"geonameid":7281600,"name":"Merry Hill","asciiname":"Merry Hill","alternatenames":"","latitude":"52.5709500","longitude":"-2.1677500","fclass":"P","fcode":"PPL","country":"GB","cc2":"","admin1":"ENG","admin2":"Q3","admin3":"","admin4":"","population":0,"elevation":0,"gtopo30":132,"timezone":"Europe/London","moddate":"2019-10-02T00:00:00.000Z"},{"geonameid":2642314,"name":"Monmore Green","asciiname":"Monmore Green","alternatenames":"","latitude":"52.5751500","longitude":"-2.1071000","fclass":"P","fcode":"PPLX","country":"GB","cc2":"","admin1":"ENG","admin2":"Q3","admin3":"41UF","admin4":"","population":0,"elevation":0,"gtopo30":146,"timezone":"Europe/London","moddate":"2015-02-17T00:00:00.000Z"},{"geonameid":10104127,"name":"Moseley","asciiname":"Moseley","alternatenames":"","latitude":"52.5840400","longitude":"-2.0986000","fclass":"P","fcode":"PPLX","country":"GB","cc2":"","admin1":"ENG","admin2":"Q3","admin3":"","admin4":"","population":0,"elevation":0,"gtopo30":143,"timezone":"Europe/London","moddate":"2015-02-17T00:00:00.000Z"},{"geonameid":10104132,"name":"New Cross","asciiname":"New Cross","alternatenames":"","latitude":"52.5986700","longitude":"-2.0870600","fclass":"P","fcode":"PPLX","country":"GB","cc2":"","admin1":"ENG","admin2":"Q3","admin3":"","admin4":"","population":0,"elevation":0,"gtopo30":145,"timezone":"Europe/London","moddate":"2015-02-17T00:00:00.000Z"},{"geonameid":10104129,"name":"Portobello","asciiname":"Portobello","alternatenames":"","latitude":"52.5817200","longitude":"-2.0802400","fclass":"P","fcode":"PPLX","country":"GB","cc2":"","admin1":"ENG","admin2":"Q3","admin3":"","admin4":"","population":0,"elevation":0,"gtopo30":137,"timezone":"Europe/London","moddate":"2019-10-02T00:00:00.000Z"},{"geonameid":2636078,"name":"Tettenhall","asciiname":"Tettenhall","alternatenames":"Tettenhall","latitude":"52.6020600","longitude":"-2.1652500","fclass":"P","fcode":"PPL","country":"GB","cc2":"","admin1":"ENG","admin2":"Q3","admin3":"","admin4":"","population":0,"elevation":0,"gtopo30":144,"timezone":"Europe/London","moddate":"2010-08-03T00:00:00.000Z"},{"geonameid":2634616,"name":"Wednesfield","asciiname":"Wednesfield","alternatenames":"Wednesfield","latitude":"52.5963000","longitude":"-2.0850800","fclass":"P","fcode":"PPL","country":"GB","cc2":"","admin1":"ENG","admin2":"Q3","admin3":"","admin4":"","population":33555,"elevation":0,"gtopo30":141,"timezone":"Europe/London","moddate":"2015-02-17T00:00:00.000Z"},{"geonameid":2633691,"name":"Wolverhampton","asciiname":"Wolverhampton","alternatenames":"Goulverchampton,Heantun,Ulvurkhamptun,Vulvergempton,Vulverhamptonas,Vulverhempton,Vulverhemptona,Vulverkhempton,Wolverhampton,Wulfrunehantona,XVW,ulbeohaempeuteon,u~oruvu~ahanputon,wlwrhmptwn,wu er fu han pu dun,wwlbrhmptwn,wwlfrhambtwn,Γουλβερχάμπτον,Вулвергемптон,Вулверхемптон,Улвърхамптън,Վուլվերհեմպտոն,וואלווערהאמפטאן,וולברהמפטון,ولورهمپتون,وولفرهامبتون,وولورہیمپٹن,วุลเวอร์แฮมป์ตัน,ვულვერჰემპტონი,ウォルヴァーハンプトン,伍爾弗漢普頓,울버햄프턴","latitude":"52.5854700","longitude":"-2.1229600","fclass":"P","fcode":"PPLA2","country":"GB","cc2":"","admin1":"ENG","admin2":"Q3","admin3":"41UF","admin4":"","population":252791,"elevation":0,"gtopo30":160,"timezone":"Europe/London","moddate":"2018-03-12T00:00:00.000Z"}],"admin3":[],"alternateNames":[{"alternatenameId":8666541,"geonameid":3333222,"isoLanguage":"en","alternateName":"Wolverhampton","isPreferredName":true,"isShortName":true,"isColloquial":false,"isHistoric":false},{"alternatenameId":1626647,"geonameid":6269131,"isoLanguage":"en","alternateName":"England","isPreferredName":true,"isShortName":true,"isColloquial":false,"isHistoric":false}]},"__N_SSG":true}