{"pageProps":{"locale":"en","admin2":{"geonameid":3333173,"name":"Milton Keynes","country":"GB","admin1":"ENG","admin2":"I6","admin3":"","latitude":"52.0833300","longitude":"-0.7500000","localeAltName":"Milton Keynes"},"admin1":{"geonameid":6269131,"name":"England","admin1":"ENG","localeAltName":"England"},"locations":[{"geonameid":11591724,"name":"Abbey Hill","asciiname":"Abbey Hill","alternatenames":"","latitude":"52.0444700","longitude":"-0.8071300","fclass":"P","fcode":"PPL","country":"GB","cc2":"","admin1":"ENG","admin2":"I6","admin3":"00MG004","admin4":"","population":0,"elevation":0,"gtopo30":92,"timezone":"Europe/London","moddate":"2017-06-09T00:00:00.000Z"},{"geonameid":2656856,"name":"Astwood","asciiname":"Astwood","alternatenames":"Astwood","latitude":"52.1000000","longitude":"-0.6000000","fclass":"P","fcode":"PPLA3","country":"GB","cc2":"","admin1":"ENG","admin2":"I6","admin3":"00MG001","admin4":"","population":0,"elevation":0,"gtopo30":89,"timezone":"Europe/London","moddate":"2011-07-31T00:00:00.000Z"},{"geonameid":2655351,"name":"Bletchley","asciiname":"Bletchley","alternatenames":"Blechli,blchly,bu lai qi li,Блечли,بلچلی,布莱奇利","latitude":"51.9933400","longitude":"-0.7347100","fclass":"P","fcode":"PPL","country":"GB","cc2":"","admin1":"ENG","admin2":"I6","admin3":"00MG039","admin4":"","population":50193,"elevation":0,"gtopo30":82,"timezone":"Europe/London","moddate":"2016-06-22T00:00:00.000Z"},{"geonameid":2655073,"name":"Bow Brickhill","asciiname":"Bow Brickhill","alternatenames":"Bow Brickhill","latitude":"52.0028000","longitude":"-0.6806400","fclass":"P","fcode":"PPLA3","country":"GB","cc2":"","admin1":"ENG","admin2":"I6","admin3":"00MG002","admin4":"","population":562,"elevation":0,"gtopo30":102,"timezone":"Europe/London","moddate":"2017-06-12T00:00:00.000Z"},{"geonameid":2654974,"name":"Bradwell","asciiname":"Bradwell","alternatenames":"","latitude":"52.0485700","longitude":"-0.7877100","fclass":"P","fcode":"PPLA3","country":"GB","cc2":"","admin1":"ENG","admin2":"I6","admin3":"00MG003","admin4":"","population":0,"elevation":0,"gtopo30":80,"timezone":"Europe/London","moddate":"2011-07-31T00:00:00.000Z"},{"geonameid":2654510,"name":"Broughton","asciiname":"Broughton","alternatenames":"","latitude":"52.0503800","longitude":"-0.6935100","fclass":"P","fcode":"PPLA3","country":"GB","cc2":"","admin1":"ENG","admin2":"I6","admin3":"00MG005","admin4":"","population":0,"elevation":0,"gtopo30":66,"timezone":"Europe/London","moddate":"2011-07-31T00:00:00.000Z"},{"geonameid":2653961,"name":"Calverton","asciiname":"Calverton","alternatenames":"","latitude":"52.0411900","longitude":"-0.8504100","fclass":"P","fcode":"PPLA3","country":"GB","cc2":"","admin1":"ENG","admin2":"I6","admin3":"00MG040","admin4":"","population":0,"elevation":0,"gtopo30":73,"timezone":"Europe/London","moddate":"2011-07-31T00:00:00.000Z"},{"geonameid":2653545,"name":"Castlethorpe","asciiname":"Castlethorpe","alternatenames":"Castlethorpe","latitude":"52.0923000","longitude":"-0.8353900","fclass":"P","fcode":"PPLA3","country":"GB","cc2":"","admin1":"ENG","admin2":"I6","admin3":"00MG006","admin4":"","population":0,"elevation":0,"gtopo30":88,"timezone":"Europe/London","moddate":"2011-07-31T00:00:00.000Z"},{"geonameid":2653193,"name":"Chicheley","asciiname":"Chicheley","alternatenames":"Chicheley","latitude":"52.1030300","longitude":"-0.6864700","fclass":"P","fcode":"PPLA3","country":"GB","cc2":"","admin1":"ENG","admin2":"I6","admin3":"00MG007","admin4":"","population":0,"elevation":0,"gtopo30":82,"timezone":"Europe/London","moddate":"2011-07-31T00:00:00.000Z"},{"geonameid":12181859,"name":"Clifton Reynes","asciiname":"Clifton Reynes","alternatenames":"","latitude":"52.1529800","longitude":"-0.6824800","fclass":"P","fcode":"PPL","country":"GB","cc2":"","admin1":"ENG","admin2":"I6","admin3":"00MG008","admin4":"","population":0,"elevation":0,"gtopo30":66,"timezone":"Europe/London","moddate":"2020-08-18T00:00:00.000Z"},{"geonameid":2652613,"name":"Cold Brayfield","asciiname":"Cold Brayfield","alternatenames":"Cold Brayfield","latitude":"52.1615200","longitude":"-0.6418500","fclass":"P","fcode":"PPL","country":"GB","cc2":"","admin1":"ENG","admin2":"I6","admin3":"00MG009","admin4":"","population":0,"elevation":0,"gtopo30":57,"timezone":"Europe/London","moddate":"2011-03-03T00:00:00.000Z"},{"geonameid":11776603,"name":"Crownhill","asciiname":"Crownhill","alternatenames":"","latitude":"52.0276600","longitude":"-0.8031100","fclass":"P","fcode":"PPLL","country":"GB","cc2":"","admin1":"ENG","admin2":"I6","admin3":"00MG028","admin4":"","population":0,"elevation":0,"gtopo30":98,"timezone":"Europe/London","moddate":"2017-11-16T00:00:00.000Z"},{"geonameid":2650019,"name":"Emberton","asciiname":"Emberton","alternatenames":"Emberton","latitude":"52.1369100","longitude":"-0.7067300","fclass":"P","fcode":"PPLA3","country":"GB","cc2":"","admin1":"ENG","admin2":"I6","admin3":"00MG010","admin4":"","population":315,"elevation":0,"gtopo30":66,"timezone":"Europe/London","moddate":"2017-06-12T00:00:00.000Z"},{"geonameid":2649552,"name":"Fenny Stratford","asciiname":"Fenny Stratford","alternatenames":"Fenny Stratford","latitude":"51.9968000","longitude":"-0.7179600","fclass":"P","fcode":"PPL","country":"GB","cc2":"","admin1":"ENG","admin2":"I6","admin3":"00MG039","admin4":"","population":0,"elevation":0,"gtopo30":83,"timezone":"Europe/London","moddate":"2011-03-03T00:00:00.000Z"},{"geonameid":2649460,"name":"Filgrave","asciiname":"Filgrave","alternatenames":"Filgrave","latitude":"52.1269500","longitude":"-0.7286200","fclass":"P","fcode":"PPL","country":"GB","cc2":"","admin1":"ENG","admin2":"I6","admin3":"00MG046","admin4":"","population":0,"elevation":0,"gtopo30":62,"timezone":"Europe/London","moddate":"2016-06-22T00:00:00.000Z"},{"geonameid":2648758,"name":"Gayhurst","asciiname":"Gayhurst","alternatenames":"Gayhurst","latitude":"52.1136200","longitude":"-0.7627800","fclass":"P","fcode":"PPLA3","country":"GB","cc2":"","admin1":"ENG","admin2":"I6","admin3":"00MG011","admin4":"","population":0,"elevation":0,"gtopo30":70,"timezone":"Europe/London","moddate":"2011-07-31T00:00:00.000Z"},{"geonameid":2648067,"name":"Great Linford","asciiname":"Great Linford","alternatenames":"Great Linford","latitude":"52.0656100","longitude":"-0.7591200","fclass":"P","fcode":"PPL","country":"GB","cc2":"","admin1":"ENG","admin2":"I6","admin3":"00MG012","admin4":"","population":0,"elevation":0,"gtopo30":91,"timezone":"Europe/London","moddate":"2011-03-03T00:00:00.000Z"},{"geonameid":2647518,"name":"Hanslope","asciiname":"Hanslope","alternatenames":"","latitude":"52.1142500","longitude":"-0.8267200","fclass":"P","fcode":"PPLA3","country":"GB","cc2":"","admin1":"ENG","admin2":"I6","admin3":"00MG013","admin4":"","population":1916,"elevation":0,"gtopo30":119,"timezone":"Europe/London","moddate":"2017-06-12T00:00:00.000Z"},{"geonameid":2647306,"name":"Haversham","asciiname":"Haversham","alternatenames":"Haversham","latitude":"52.0784000","longitude":"-0.7922200","fclass":"P","fcode":"PPL","country":"GB","cc2":"","admin1":"ENG","admin2":"I6","admin3":"00MG015","admin4":"","population":0,"elevation":0,"gtopo30":67,"timezone":"Europe/London","moddate":"2016-06-22T00:00:00.000Z"},{"geonameid":2644826,"name":"Lathbury","asciiname":"Lathbury","alternatenames":"Lathbury","latitude":"52.0988100","longitude":"-0.7213200","fclass":"P","fcode":"PPLA3","country":"GB","cc2":"","admin1":"ENG","admin2":"I6","admin3":"00MG016","admin4":"","population":0,"elevation":0,"gtopo30":59,"timezone":"Europe/London","moddate":"2011-07-31T00:00:00.000Z"},{"geonameid":2644804,"name":"Lavendon","asciiname":"Lavendon","alternatenames":"Lavendon","latitude":"52.1727900","longitude":"-0.6610900","fclass":"P","fcode":"PPL","country":"GB","cc2":"","admin1":"ENG","admin2":"I6","admin3":"00MG017","admin4":"","population":1303,"elevation":0,"gtopo30":65,"timezone":"Europe/London","moddate":"2017-06-12T00:00:00.000Z"},{"geonameid":2644298,"name":"Little Linford","asciiname":"Little Linford","alternatenames":"Little Linford","latitude":"52.0900500","longitude":"-0.7705000","fclass":"P","fcode":"PPL","country":"GB","cc2":"","admin1":"ENG","admin2":"I6","admin3":"00MG015","admin4":"","population":0,"elevation":0,"gtopo30":77,"timezone":"Europe/London","moddate":"2016-06-22T00:00:00.000Z"},{"geonameid":2643557,"name":"Loughton","asciiname":"Loughton","alternatenames":"","latitude":"52.0303700","longitude":"-0.7864200","fclass":"P","fcode":"PPLA3","country":"GB","cc2":"","admin1":"ENG","admin2":"I6","admin3":"00MG019","admin4":"","population":0,"elevation":0,"gtopo30":78,"timezone":"Europe/London","moddate":"2011-07-31T00:00:00.000Z"},{"geonameid":2642465,"name":"Milton Keynes","asciiname":"Milton Keynes","alternatenames":"KYN,MK,Middeltūn þǣra de Cahaignes,Milton Keinsas,Milton Keynes,Milton Kins,Milton-Kins,Milton-Kinz,mi er dun kai en si,milteonkeinseu,myltwn kynz,Милтон-Кинс,Мілтон-Кінз,Միլթոն-Քինս,ميلتون كينز,میلتون کینز,ミルトン・キーンズ,米尔顿凯恩斯,밀턴케인스","latitude":"52.0417200","longitude":"-0.7558300","fclass":"P","fcode":"PPLA2","country":"GB","cc2":"","admin1":"ENG","admin2":"I6","admin3":"00MG041","admin4":"","population":229941,"elevation":0,"gtopo30":114,"timezone":"Europe/London","moddate":"2017-06-12T00:00:00.000Z"},{"geonameid":11550987,"name":"Milton Keynes Village","asciiname":"Milton Keynes Village","alternatenames":"","latitude":"52.0446300","longitude":"-0.7034300","fclass":"P","fcode":"PPL","country":"GB","cc2":"","admin1":"ENG","admin2":"I6","admin3":"00MG020","admin4":"","population":0,"elevation":0,"gtopo30":66,"timezone":"Europe/London","moddate":"2017-06-08T00:00:00.000Z"},{"geonameid":2642126,"name":"Moulsoe","asciiname":"Moulsoe","alternatenames":"Moulsoe","latitude":"52.0688000","longitude":"-0.6732600","fclass":"P","fcode":"PPLA3","country":"GB","cc2":"","admin1":"ENG","admin2":"I6","admin3":"00MG021","admin4":"","population":0,"elevation":0,"gtopo30":81,"timezone":"Europe/London","moddate":"2011-07-31T00:00:00.000Z"},{"geonameid":11496499,"name":"New Blossomville","asciiname":"New Blossomville","alternatenames":"","latitude":"52.1537700","longitude":"-0.6516700","fclass":"P","fcode":"PPL","country":"GB","cc2":"","admin1":"ENG","admin2":"I6","admin3":"00MG023","admin4":"","population":0,"elevation":0,"gtopo30":56,"timezone":"Europe/London","moddate":"2017-03-22T00:00:00.000Z"},{"geonameid":2641591,"name":"Newport Pagnell","asciiname":"Newport Pagnell","alternatenames":"Newport Pagnell,Njuport Pagnel,nywpwrt pagnl,Нюпорт Пагнел,نیوپورت پاگنل","latitude":"52.0873100","longitude":"-0.7221800","fclass":"P","fcode":"PPLA3","country":"GB","cc2":"","admin1":"ENG","admin2":"I6","admin3":"00MG022","admin4":"","population":15067,"elevation":0,"gtopo30":63,"timezone":"Europe/London","moddate":"2011-07-31T00:00:00.000Z"},{"geonameid":2641383,"name":"North Crawley","asciiname":"North Crawley","alternatenames":"North Crawley","latitude":"52.0929800","longitude":"-0.6485900","fclass":"P","fcode":"PPL","country":"GB","cc2":"","admin1":"ENG","admin2":"I6","admin3":"00MG024","admin4":"","population":736,"elevation":0,"gtopo30":99,"timezone":"Europe/London","moddate":"2017-06-12T00:00:00.000Z"},{"geonameid":2640972,"name":"Olney","asciiname":"Olney","alternatenames":"Olney i Buckinghamshire,ao er ni,awlny,أولني,اولنی، باکینگهام‌شر,奧爾尼","latitude":"52.1534500","longitude":"-0.7020100","fclass":"P","fcode":"PPLA3","country":"GB","cc2":"","admin1":"ENG","admin2":"I6","admin3":"00MG025","admin4":"","population":6477,"elevation":0,"gtopo30":53,"timezone":"Europe/London","moddate":"2017-06-12T00:00:00.000Z"},{"geonameid":2639597,"name":"Ravenstone","asciiname":"Ravenstone","alternatenames":"","latitude":"52.1493400","longitude":"-0.7587400","fclass":"P","fcode":"PPLA3","country":"GB","cc2":"","admin1":"ENG","admin2":"I6","admin3":"00MG026","admin4":"","population":0,"elevation":0,"gtopo30":88,"timezone":"Europe/London","moddate":"2011-07-31T00:00:00.000Z"},{"geonameid":2638050,"name":"Shenley Brook End","asciiname":"Shenley Brook End","alternatenames":"","latitude":"52.0121200","longitude":"-0.7841600","fclass":"P","fcode":"PPL","country":"GB","cc2":"","admin1":"ENG","admin2":"I6","admin3":"00MG027","admin4":"","population":0,"elevation":0,"gtopo30":94,"timezone":"Europe/London","moddate":"2011-03-03T00:00:00.000Z"},{"geonameid":2638049,"name":"Shenley Church End","asciiname":"Shenley Church End","alternatenames":"Shenley,Shenley Church End","latitude":"52.0252200","longitude":"-0.7899400","fclass":"P","fcode":"PPLA3","country":"GB","cc2":"GB","admin1":"ENG","admin2":"I6","admin3":"00MG028","admin4":"","population":0,"elevation":0,"gtopo30":92,"timezone":"Europe/London","moddate":"2011-07-31T00:00:00.000Z"},{"geonameid":2638017,"name":"Sherington","asciiname":"Sherington","alternatenames":"Sherington","latitude":"52.1117200","longitude":"-0.6997300","fclass":"P","fcode":"PPLA3","country":"GB","cc2":"","admin1":"ENG","admin2":"I6","admin3":"00MG029","admin4":"","population":954,"elevation":0,"gtopo30":76,"timezone":"Europe/London","moddate":"2017-06-12T00:00:00.000Z"},{"geonameid":2637819,"name":"Simpson","asciiname":"Simpson","alternatenames":"","latitude":"52.0166700","longitude":"-0.7000000","fclass":"P","fcode":"PPLA3","country":"GB","cc2":"","admin1":"ENG","admin2":"I6","admin3":"00MG044","admin4":"","population":0,"elevation":0,"gtopo30":77,"timezone":"Europe/London","moddate":"2011-07-31T00:00:00.000Z"},{"geonameid":2636852,"name":"Stoke Goldington","asciiname":"Stoke Goldington","alternatenames":"Stoke Goldington","latitude":"52.1313300","longitude":"-0.7781400","fclass":"P","fcode":"PPLA3","country":"GB","cc2":"","admin1":"ENG","admin2":"I6","admin3":"00MG031","admin4":"","population":575,"elevation":0,"gtopo30":68,"timezone":"Europe/London","moddate":"2017-06-12T00:00:00.000Z"},{"geonameid":2636795,"name":"Stony Stratford","asciiname":"Stony Stratford","alternatenames":"Stony Stratford,astwny astrtfwrd,stwny stafwrd,استونی استرتفورد,ستوني ستافورد","latitude":"52.0568200","longitude":"-0.8528100","fclass":"P","fcode":"PPLA3","country":"GB","cc2":"","admin1":"ENG","admin2":"I6","admin3":"00MG045","admin4":"","population":0,"elevation":0,"gtopo30":71,"timezone":"Europe/London","moddate":"2011-07-31T00:00:00.000Z"},{"geonameid":2635260,"name":"Tyringham","asciiname":"Tyringham","alternatenames":"Tyringham","latitude":"52.1138800","longitude":"-0.7456100","fclass":"P","fcode":"PPL","country":"GB","cc2":"","admin1":"ENG","admin2":"I6","admin3":"00MG046","admin4":"","population":0,"elevation":0,"gtopo30":70,"timezone":"Europe/London","moddate":"2016-06-22T00:00:00.000Z"},{"geonameid":11550988,"name":"Walton","asciiname":"Walton","alternatenames":"","latitude":"52.0201800","longitude":"-0.7040300","fclass":"P","fcode":"PPL","country":"GB","cc2":"","admin1":"ENG","admin2":"I6","admin3":"00MG032","admin4":"","population":0,"elevation":0,"gtopo30":75,"timezone":"Europe/London","moddate":"2017-06-08T00:00:00.000Z"},{"geonameid":2634740,"name":"Warrington","asciiname":"Warrington","alternatenames":"","latitude":"52.1844600","longitude":"-0.6875900","fclass":"P","fcode":"PPLA3","country":"GB","cc2":"","admin1":"ENG","admin2":"I6","admin3":"00MG033","admin4":"","population":0,"elevation":0,"gtopo30":81,"timezone":"Europe/London","moddate":"2011-07-31T00:00:00.000Z"},{"geonameid":8468720,"name":"Water Eaton","asciiname":"Water Eaton","alternatenames":"","latitude":"51.9869700","longitude":"-0.7218800","fclass":"P","fcode":"PPLL","country":"GB","cc2":"","admin1":"ENG","admin2":"I6","admin3":"00MG039","admin4":"","population":8412,"elevation":75,"gtopo30":83,"timezone":"Europe/London","moddate":"2013-02-16T00:00:00.000Z"},{"geonameid":2634653,"name":"Wavendon","asciiname":"Wavendon","alternatenames":"","latitude":"52.0254100","longitude":"-0.6741100","fclass":"P","fcode":"PPLA3","country":"GB","cc2":"","admin1":"ENG","admin2":"I6","admin3":"00MG034","admin4":"","population":0,"elevation":0,"gtopo30":93,"timezone":"Europe/London","moddate":"2011-07-31T00:00:00.000Z"},{"geonameid":2634304,"name":"Weston Underwood","asciiname":"Weston Underwood","alternatenames":"","latitude":"52.1457400","longitude":"-0.7386200","fclass":"P","fcode":"PPLA3","country":"GB","cc2":"","admin1":"ENG","admin2":"I6","admin3":"00MG035","admin4":"","population":0,"elevation":0,"gtopo30":76,"timezone":"Europe/London","moddate":"2011-07-31T00:00:00.000Z"},{"geonameid":2633913,"name":"Willen","asciiname":"Willen","alternatenames":"Willen","latitude":"52.0641000","longitude":"-0.7231200","fclass":"P","fcode":"PPL","country":"GB","cc2":"","admin1":"ENG","admin2":"I6","admin3":"00MG037","admin4":"","population":0,"elevation":0,"gtopo30":69,"timezone":"Europe/London","moddate":"2016-06-22T00:00:00.000Z"},{"geonameid":2633710,"name":"Woburn Sands","asciiname":"Woburn Sands","alternatenames":"","latitude":"52.0157900","longitude":"-0.6498200","fclass":"P","fcode":"PPLA3","country":"GB","cc2":"","admin1":"ENG","admin2":"I6","admin3":"00MG036","admin4":"","population":5074,"elevation":0,"gtopo30":90,"timezone":"Europe/London","moddate":"2011-07-31T00:00:00.000Z"},{"geonameid":2633688,"name":"Wolverton","asciiname":"Wolverton","alternatenames":"","latitude":"52.0624600","longitude":"-0.8165900","fclass":"P","fcode":"PPL","country":"GB","cc2":"","admin1":"ENG","admin2":"I6","admin3":"00MG048","admin4":"","population":0,"elevation":0,"gtopo30":80,"timezone":"Europe/London","moddate":"2016-06-22T00:00:00.000Z"},{"geonameid":2633588,"name":"Woolstone","asciiname":"Woolstone","alternatenames":"","latitude":"52.0333300","longitude":"-0.7166700","fclass":"P","fcode":"PPL","country":"GB","cc2":"","admin1":"ENG","admin2":"I6","admin3":"00MG038","admin4":"","population":0,"elevation":0,"gtopo30":64,"timezone":"Europe/London","moddate":"2016-06-22T00:00:00.000Z"}],"admin3":[{"geonameid":7299213,"name":"Astwood","admin3":"00MG001"},{"geonameid":7295593,"name":"Bletchley and Fenny Stratford","admin3":"00MG039"},{"geonameid":7295586,"name":"Bow Brickhill","admin3":"00MG002"},{"geonameid":7297832,"name":"Bradwell","admin3":"00MG003"},{"geonameid":7301821,"name":"Bradwell Abbey","admin3":"00MG004"},{"geonameid":7291158,"name":"Broughton","admin3":"00MG005"},{"geonameid":7301830,"name":"Calverton","admin3":"00MG040"},{"geonameid":7295591,"name":"Campbell Park","admin3":"00MG037"},{"geonameid":7291159,"name":"Castlethorpe","admin3":"00MG006"},{"geonameid":7299232,"name":"Central Milton Keynes","admin3":"00MG041"},{"geonameid":7296587,"name":"Chicheley","admin3":"00MG007"},{"geonameid":7301822,"name":"Clifton Reynes","admin3":"00MG008"},{"geonameid":7295587,"name":"Cold Brayfield","admin3":"00MG009"},{"geonameid":7299258,"name":"Emberton","admin3":"00MG010"},{"geonameid":7295588,"name":"Gayhurst","admin3":"00MG011"},{"geonameid":7299259,"name":"Great Linford","admin3":"00MG012"},{"geonameid":7301823,"name":"Hanslope","admin3":"00MG013"},{"geonameid":7301824,"name":"Hardmead","admin3":"00MG014"},{"geonameid":7299260,"name":"Haversham-cum-Little Linford","admin3":"00MG015"},{"geonameid":7299262,"name":"Kents Hill, Monkston and Brinklow","admin3":"00MG042"},{"geonameid":7296588,"name":"Lathbury","admin3":"00MG016"},{"geonameid":7301825,"name":"Lavendon","admin3":"00MG017"},{"geonameid":7296589,"name":"Little Brickhill","admin3":"00MG018"},{"geonameid":7296590,"name":"Loughton","admin3":"00MG019"},{"geonameid":7295993,"name":"Milton Keynes","admin3":"00MG020"},{"geonameid":7301826,"name":"Moulsoe","admin3":"00MG021"},{"geonameid":7299263,"name":"New Bradwell","admin3":"00MG043"},{"geonameid":7301827,"name":"Newport Pagnell","admin3":"00MG022"},{"geonameid":7301828,"name":"Newton Blossomville","admin3":"00MG023"},{"geonameid":7296591,"name":"North Crawley","admin3":"00MG024"},{"geonameid":7295589,"name":"Olney","admin3":"00MG025"},{"geonameid":7296592,"name":"Ravenstone","admin3":"00MG026"},{"geonameid":7296593,"name":"Shenley Brook End","admin3":"00MG027"},{"geonameid":7299261,"name":"Shenley Church End","admin3":"00MG028"},{"geonameid":7296594,"name":"Sherington","admin3":"00MG029"},{"geonameid":7299264,"name":"Simpson","admin3":"00MG044"},{"geonameid":7291290,"name":"Stantonbury","admin3":"00MG030"},{"geonameid":7295590,"name":"Stoke Goldington","admin3":"00MG031"},{"geonameid":7301831,"name":"Stony Stratford","admin3":"00MG045"},{"geonameid":7296595,"name":"Tyringham and Filgrave","admin3":"00MG046"},{"geonameid":7299931,"name":"Walton","admin3":"00MG032"},{"geonameid":7295994,"name":"Warrington","admin3":"00MG033"},{"geonameid":7298979,"name":"Wavendon","admin3":"00MG034"},{"geonameid":7295594,"name":"West Bletchley","admin3":"00MG047"},{"geonameid":7291292,"name":"Weston Underwood","admin3":"00MG035"},{"geonameid":7301829,"name":"Woburn Sands","admin3":"00MG036"},{"geonameid":7301832,"name":"Wolverton and Greenleys","admin3":"00MG048"},{"geonameid":7295592,"name":"Woughton on the Green","admin3":"00MG038"}],"alternateNames":[{"alternatenameId":8666506,"geonameid":3333173,"isoLanguage":"en","alternateName":"Milton Keynes","isPreferredName":true,"isShortName":true,"isColloquial":false,"isHistoric":false},{"alternatenameId":1626647,"geonameid":6269131,"isoLanguage":"en","alternateName":"England","isPreferredName":true,"isShortName":true,"isColloquial":false,"isHistoric":false}]},"__N_SSG":true}