{"pageProps":{"locale":"ro","admin2":{"geonameid":669062,"name":"Comuna Rebricea","country":"RO","admin1":"38","admin2":"165719","admin3":"","latitude":"46.8722900","longitude":"27.5725000"},"admin1":{"geonameid":663116,"name":"Vaslui","admin1":"38"},"locations":[{"geonameid":684294,"name":"Bolați","asciiname":"Bolati","alternatenames":"","latitude":"46.8458900","longitude":"27.5962600","fclass":"P","fcode":"PPL","country":"RO","cc2":"","admin1":"38","admin2":"165719","admin3":"","admin4":"","population":240,"elevation":0,"gtopo30":151,"timezone":"Europe/Bucharest","moddate":"2013-04-21T00:00:00.000Z"},{"geonameid":681570,"name":"Cârleşti","asciiname":"Carlesti","alternatenames":"Carlesti,Cirlesti,Cârleşti,Cîrleşti","latitude":"46.8500000","longitude":"27.6166700","fclass":"P","fcode":"PPL","country":"RO","cc2":"","admin1":"38","admin2":"165719","admin3":"","admin4":"","population":0,"elevation":0,"gtopo30":238,"timezone":"Europe/Bucharest","moddate":"2020-03-08T00:00:00.000Z"},{"geonameid":680367,"name":"Crăciunești","asciiname":"Craciunesti","alternatenames":"","latitude":"46.8707600","longitude":"27.5318200","fclass":"P","fcode":"PPL","country":"RO","cc2":"","admin1":"38","admin2":"165719","admin3":"","admin4":"","population":407,"elevation":0,"gtopo30":198,"timezone":"Europe/Bucharest","moddate":"2013-04-21T00:00:00.000Z"},{"geonameid":678843,"name":"Draxeni","asciiname":"Draxeni","alternatenames":"Dracseni,Dracşeni,Draxeni,Drăxeni","latitude":"46.8733300","longitude":"27.6266100","fclass":"P","fcode":"PPL","country":"RO","cc2":"RO","admin1":"38","admin2":"165719","admin3":"","admin4":"","population":859,"elevation":0,"gtopo30":191,"timezone":"Europe/Bucharest","moddate":"2013-04-21T00:00:00.000Z"},{"geonameid":674221,"name":"Măcrești","asciiname":"Macresti","alternatenames":"","latitude":"46.8919700","longitude":"27.5367000","fclass":"P","fcode":"PPLX","country":"RO","cc2":"","admin1":"38","admin2":"165719","admin3":"","admin4":"","population":84,"elevation":0,"gtopo30":197,"timezone":"Europe/Bucharest","moddate":"2013-04-21T00:00:00.000Z"},{"geonameid":669110,"name":"Rateșu Cuzei","asciiname":"Ratesu Cuzei","alternatenames":"Ratesu Cuzei,Ratesu Cuzii,Ratesul-Cuzei,Rateşu Cuzei,Rateşu Cuzii","latitude":"46.8375500","longitude":"27.5642400","fclass":"P","fcode":"PPL","country":"RO","cc2":"RO","admin1":"38","admin2":"165719","admin3":"","admin4":"","population":498,"elevation":0,"gtopo30":119,"timezone":"Europe/Bucharest","moddate":"2013-04-21T00:00:00.000Z"},{"geonameid":669064,"name":"Rebricea","asciiname":"Rebricea","alternatenames":"Gura Vaii,Gura Văii,Rebricea","latitude":"46.8666700","longitude":"27.5500000","fclass":"P","fcode":"PPLA2","country":"RO","cc2":"","admin1":"38","admin2":"165719","admin3":"","admin4":"","population":3605,"elevation":0,"gtopo30":188,"timezone":"Europe/Bucharest","moddate":"2012-06-12T00:00:00.000Z"},{"geonameid":667903,"name":"Sasova","asciiname":"Sasova","alternatenames":"","latitude":"46.8825500","longitude":"27.5810800","fclass":"P","fcode":"PPL","country":"RO","cc2":"","admin1":"38","admin2":"165719","admin3":"","admin4":"","population":264,"elevation":0,"gtopo30":165,"timezone":"Europe/Bucharest","moddate":"2013-04-21T00:00:00.000Z"},{"geonameid":665417,"name":"Tatomirești","asciiname":"Tatomiresti","alternatenames":"","latitude":"46.9012900","longitude":"27.5343400","fclass":"P","fcode":"PPL","country":"RO","cc2":"","admin1":"38","admin2":"165719","admin3":"","admin4":"","population":224,"elevation":0,"gtopo30":231,"timezone":"Europe/Bucharest","moddate":"2013-04-21T00:00:00.000Z"},{"geonameid":664536,"name":"Tufeștii de Jos","asciiname":"Tufestii de Jos","alternatenames":"Pirlita,Pîrlita,Tufesti,Tufestii de Jos,Tufeşti,Tufeştii de Jos","latitude":"46.8809000","longitude":"27.6211900","fclass":"P","fcode":"PPL","country":"RO","cc2":"RO","admin1":"38","admin2":"165719","admin3":"","admin4":"","population":373,"elevation":0,"gtopo30":169,"timezone":"Europe/Bucharest","moddate":"2013-04-21T00:00:00.000Z"}],"admin3":[],"alternateNames":[]},"__N_SSG":true}