{"pageProps":{"locale":"ro","admin2":{"geonameid":663265,"name":"Comuna Văleni","country":"RO","admin1":"29","admin2":"129763","admin3":"","latitude":"44.2188200","longitude":"24.7974800"},"admin1":{"geonameid":671857,"name":"Olt","admin1":"29"},"locations":[{"geonameid":673222,"name":"Mandra","asciiname":"Mandra","alternatenames":"Mindra,Mindra Veche,Mîndra,Mîndra Veche","latitude":"44.2144800","longitude":"24.8082700","fclass":"P","fcode":"PPL","country":"RO","cc2":"","admin1":"29","admin2":"129763","admin3":"","admin4":"","population":440,"elevation":0,"gtopo30":128,"timezone":"Europe/Bucharest","moddate":"2015-11-11T00:00:00.000Z"},{"geonameid":669915,"name":"Popești","asciiname":"Popesti","alternatenames":"Popesti,Popestii,Popeşti,Popeştii","latitude":"44.2208700","longitude":"24.8058700","fclass":"P","fcode":"PPL","country":"RO","cc2":"RO","admin1":"29","admin2":"129763","admin3":"","admin4":"","population":287,"elevation":0,"gtopo30":131,"timezone":"Europe/Bucharest","moddate":"2013-04-21T00:00:00.000Z"},{"geonameid":664983,"name":"Tirișneag","asciiname":"Tirisneag","alternatenames":"","latitude":"44.2039200","longitude":"24.7882800","fclass":"P","fcode":"PPL","country":"RO","cc2":"","admin1":"29","admin2":"129763","admin3":"","admin4":"","population":357,"elevation":0,"gtopo30":128,"timezone":"Europe/Bucharest","moddate":"2013-04-21T00:00:00.000Z"},{"geonameid":663297,"name":"Văleni","asciiname":"Valeni","alternatenames":"Valeni,Valenii,Văleni,Vălenii","latitude":"44.2333300","longitude":"24.7833300","fclass":"P","fcode":"PPLA2","country":"RO","cc2":"","admin1":"29","admin2":"129763","admin3":"","admin4":"","population":3317,"elevation":0,"gtopo30":131,"timezone":"Europe/Bucharest","moddate":"2012-06-12T00:00:00.000Z"}],"admin3":[],"alternateNames":[]},"__N_SSG":true}