{"pageProps":{"locale":"ro","admin2":{"geonameid":681441,"name":"Comuna Ciulniţa","country":"RO","admin1":"22","admin2":"93156","admin3":"","latitude":"44.5197600","longitude":"27.2846100"},"admin1":{"geonameid":675848,"name":"Ialomiţa","admin1":"22"},"locations":[{"geonameid":681444,"name":"Ciulniţa","asciiname":"Ciulnita","alternatenames":"","latitude":"44.5333300","longitude":"27.3500000","fclass":"P","fcode":"PPLA2","country":"RO","cc2":"","admin1":"22","admin2":"93156","admin3":"","admin4":"","population":2529,"elevation":0,"gtopo30":52,"timezone":"Europe/Bucharest","moddate":"2012-06-12T00:00:00.000Z"},{"geonameid":675536,"name":"Ion Ghica","asciiname":"Ion Ghica","alternatenames":"","latitude":"44.5310300","longitude":"27.3063000","fclass":"P","fcode":"PPL","country":"RO","cc2":"","admin1":"22","admin2":"93156","admin3":"","admin4":"","population":352,"elevation":0,"gtopo30":55,"timezone":"Europe/Bucharest","moddate":"2013-04-21T00:00:00.000Z"},{"geonameid":675430,"name":"Ivănești","asciiname":"Ivanesti","alternatenames":"","latitude":"44.5360100","longitude":"27.2801400","fclass":"P","fcode":"PPL","country":"RO","cc2":"","admin1":"22","admin2":"93156","admin3":"","admin4":"","population":207,"elevation":0,"gtopo30":56,"timezone":"Europe/Bucharest","moddate":"2013-04-21T00:00:00.000Z"},{"geonameid":670156,"name":"Poiana","asciiname":"Poiana","alternatenames":"","latitude":"44.5488900","longitude":"27.2584100","fclass":"P","fcode":"PPL","country":"RO","cc2":"","admin1":"22","admin2":"93156","admin3":"","admin4":"","population":866,"elevation":0,"gtopo30":29,"timezone":"Europe/Bucharest","moddate":"2013-04-21T00:00:00.000Z"}],"admin3":[],"alternateNames":[]},"__N_SSG":true}