{"pageProps":{"locale":"en","admin2":{"geonameid":3333175,"name":"North East Lincolnshire","country":"GB","admin1":"ENG","admin2":"J2","admin3":"","latitude":"53.5333300","longitude":"-0.0833300","localeAltName":"North East Lincolnshire"},"admin1":{"geonameid":6269131,"name":"England","admin1":"ENG","localeAltName":"England"},"locations":[{"geonameid":2656972,"name":"Ashby cum Fenby","asciiname":"Ashby cum Fenby","alternatenames":"Ashby,Ashby cum Fenby","latitude":"53.4904000","longitude":"-0.1121600","fclass":"P","fcode":"PPL","country":"GB","cc2":"","admin1":"ENG","admin2":"J2","admin3":"00FC001","admin4":"","population":249,"elevation":0,"gtopo30":26,"timezone":"Europe/London","moddate":"2017-06-12T00:00:00.000Z"},{"geonameid":2656717,"name":"Aylesby","asciiname":"Aylesby","alternatenames":"","latitude":"53.5510300","longitude":"-0.1806400","fclass":"P","fcode":"PPL","country":"GB","cc2":"","admin1":"ENG","admin2":"J2","admin3":"00FC002","admin4":"","population":0,"elevation":0,"gtopo30":17,"timezone":"Europe/London","moddate":"2011-03-03T00:00:00.000Z"},{"geonameid":2656021,"name":"Beelsby","asciiname":"Beelsby","alternatenames":"Beelsby","latitude":"53.5000900","longitude":"-0.1814600","fclass":"P","fcode":"PPL","country":"GB","cc2":"","admin1":"ENG","admin2":"J2","admin3":"00FC004","admin4":"","population":0,"elevation":0,"gtopo30":67,"timezone":"Europe/London","moddate":"2011-03-03T00:00:00.000Z"},{"geonameid":2654984,"name":"Bradley","asciiname":"Bradley","alternatenames":"","latitude":"53.5500000","longitude":"-0.1333300","fclass":"P","fcode":"PPLA3","country":"GB","cc2":"","admin1":"ENG","admin2":"J2","admin3":"00FC005","admin4":"","population":0,"elevation":0,"gtopo30":18,"timezone":"Europe/London","moddate":"2011-07-31T00:00:00.000Z"},{"geonameid":2654704,"name":"Brigsley","asciiname":"Brigsley","alternatenames":"Brigsley","latitude":"53.5009000","longitude":"-0.1102600","fclass":"P","fcode":"PPL","country":"GB","cc2":"","admin1":"ENG","admin2":"J2","admin3":"00FC006","admin4":"","population":0,"elevation":0,"gtopo30":29,"timezone":"Europe/London","moddate":"2011-03-03T00:00:00.000Z"},{"geonameid":2652885,"name":"Cleethorpes","asciiname":"Cleethorpes","alternatenames":"Cleethorpes,Klitkhorps,Klitorpsas,Meggies,klytwrps,Клитхорпс,کلیتورپس","latitude":"53.5604700","longitude":"-0.0322500","fclass":"P","fcode":"PPL","country":"GB","cc2":"","admin1":"ENG","admin2":"J2","admin3":"00FC016","admin4":"","population":32017,"elevation":0,"gtopo30":13,"timezone":"Europe/London","moddate":"2015-06-02T00:00:00.000Z"},{"geonameid":2650349,"name":"East Ravendale","asciiname":"East Ravendale","alternatenames":"East Ravendale,Ravendale","latitude":"53.4795800","longitude":"-0.1368400","fclass":"P","fcode":"PPL","country":"GB","cc2":"","admin1":"ENG","admin2":"J2","admin3":"00FC007","admin4":"","population":0,"elevation":0,"gtopo30":67,"timezone":"Europe/London","moddate":"2011-03-03T00:00:00.000Z"},{"geonameid":2648133,"name":"Great Coates","asciiname":"Great Coates","alternatenames":"Great Coates","latitude":"53.5707000","longitude":"-0.1390500","fclass":"P","fcode":"PPLA3","country":"GB","cc2":"","admin1":"ENG","admin2":"J2","admin3":"00FC021","admin4":"","population":0,"elevation":0,"gtopo30":10,"timezone":"Europe/London","moddate":"2011-07-31T00:00:00.000Z"},{"geonameid":7304130,"name":"Grimbsy","asciiname":"Grimbsy","alternatenames":"","latitude":"53.5598900","longitude":"-0.0988800","fclass":"P","fcode":"PPLA4","country":"GB","cc2":"","admin1":"ENG","admin2":"J2","admin3":"00FC021","admin4":"","population":0,"elevation":0,"gtopo30":5,"timezone":"Europe/London","moddate":"2010-07-29T00:00:00.000Z"},{"geonameid":2647878,"name":"Grimsby","asciiname":"Grimsby","alternatenames":"GSY,Great Grimsby,Grimsbi,Grimsbis,Grimsby,Grimzbi,ge li mu si bi,geulimjeubi,grymsbay,gurimuzubi,Гримзби,Гримсби,گریمسبای,グリムズビー,格里姆斯比,그림즈비","latitude":"53.5653900","longitude":"-0.0755300","fclass":"P","fcode":"PPLA2","country":"GB","cc2":"GB","admin1":"ENG","admin2":"J2","admin3":"00FC005","admin4":"","population":134160,"elevation":0,"gtopo30":4,"timezone":"Europe/London","moddate":"2017-06-12T00:00:00.000Z"},{"geonameid":2647706,"name":"Habrough","asciiname":"Habrough","alternatenames":"Habrough","latitude":"53.6079600","longitude":"-0.2664700","fclass":"P","fcode":"PPL","country":"GB","cc2":"","admin1":"ENG","admin2":"J2","admin3":"00FC008","admin4":"","population":631,"elevation":0,"gtopo30":16,"timezone":"Europe/London","moddate":"2017-06-12T00:00:00.000Z"},{"geonameid":2647350,"name":"Hatcliffe","asciiname":"Hatcliffe","alternatenames":"Hatcliffe","latitude":"53.4901200","longitude":"-0.1719400","fclass":"P","fcode":"PPL","country":"GB","cc2":"","admin1":"ENG","admin2":"J2","admin3":"00FC004","admin4":"","population":0,"elevation":0,"gtopo30":38,"timezone":"Europe/London","moddate":"2011-03-03T00:00:00.000Z"},{"geonameid":2647229,"name":"Healing","asciiname":"Healing","alternatenames":"","latitude":"53.5810100","longitude":"-0.1620200","fclass":"P","fcode":"PPL","country":"GB","cc2":"","admin1":"ENG","admin2":"J2","admin3":"00FC011","admin4":"","population":2940,"elevation":0,"gtopo30":7,"timezone":"Europe/London","moddate":"2017-06-12T00:00:00.000Z"},{"geonameid":2646435,"name":"Humberston","asciiname":"Humberston","alternatenames":"Humberston,Humberstone","latitude":"53.5303600","longitude":"-0.0246500","fclass":"P","fcode":"PPL","country":"GB","cc2":"","admin1":"ENG","admin2":"J2","admin3":"00FC012","admin4":"","population":8216,"elevation":0,"gtopo30":11,"timezone":"Europe/London","moddate":"2011-03-03T00:00:00.000Z"},{"geonameid":2646256,"name":"Immingham","asciiname":"Immingham","alternatenames":"aymyngham,yi ming han mu,ایمینگهام,伊明漢姆","latitude":"53.6142000","longitude":"-0.2157900","fclass":"P","fcode":"PPL","country":"GB","cc2":"","admin1":"ENG","admin2":"J2","admin3":"00FC013","admin4":"","population":10750,"elevation":0,"gtopo30":8,"timezone":"Europe/London","moddate":"2019-10-15T00:00:00.000Z"},{"geonameid":2646056,"name":"Irby upon Humber","asciiname":"Irby upon Humber","alternatenames":"Irby,Irby upon Humber","latitude":"53.5252300","longitude":"-0.1946100","fclass":"P","fcode":"PPL","country":"GB","cc2":"","admin1":"ENG","admin2":"J2","admin3":"00FC014","admin4":"","population":0,"elevation":0,"gtopo30":57,"timezone":"Europe/London","moddate":"2011-03-03T00:00:00.000Z"},{"geonameid":2645080,"name":"Laceby","asciiname":"Laceby","alternatenames":"Laceby","latitude":"53.5409200","longitude":"-0.1683000","fclass":"P","fcode":"PPL","country":"GB","cc2":"","admin1":"ENG","admin2":"J2","admin3":"00FC015","admin4":"","population":3259,"elevation":0,"gtopo30":15,"timezone":"Europe/London","moddate":"2017-06-12T00:00:00.000Z"},{"geonameid":2644349,"name":"Little Coates","asciiname":"Little Coates","alternatenames":"","latitude":"53.5609200","longitude":"-0.1191100","fclass":"P","fcode":"PPL","country":"GB","cc2":"","admin1":"ENG","admin2":"J2","admin3":"00FC005","admin4":"","population":0,"elevation":0,"gtopo30":6,"timezone":"Europe/London","moddate":"2011-03-03T00:00:00.000Z"},{"geonameid":11592751,"name":"New Waltham","asciiname":"New Waltham","alternatenames":"","latitude":"53.5249300","longitude":"-0.0624000","fclass":"P","fcode":"PPL","country":"GB","cc2":"","admin1":"ENG","admin2":"J2","admin3":"00FC016","admin4":"","population":0,"elevation":0,"gtopo30":14,"timezone":"Europe/London","moddate":"2017-06-19T00:00:00.000Z"},{"geonameid":2641029,"name":"Old Clee","asciiname":"Old Clee","alternatenames":"Clee,Old Clee","latitude":"53.5566300","longitude":"-0.0531300","fclass":"P","fcode":"PPL","country":"GB","cc2":"","admin1":"ENG","admin2":"J2","admin3":"","admin4":"","population":0,"elevation":0,"gtopo30":8,"timezone":"Europe/London","moddate":"2010-08-03T00:00:00.000Z"},{"geonameid":2638401,"name":"Scartho","asciiname":"Scartho","alternatenames":"Scartho","latitude":"53.5367500","longitude":"-0.0910500","fclass":"P","fcode":"PPL","country":"GB","cc2":"","admin1":"ENG","admin2":"J2","admin3":"00FC016","admin4":"","population":0,"elevation":0,"gtopo30":18,"timezone":"Europe/London","moddate":"2011-03-03T00:00:00.000Z"},{"geonameid":2637108,"name":"Stallingborough","asciiname":"Stallingborough","alternatenames":"Stallingborough","latitude":"53.5867500","longitude":"-0.1848900","fclass":"P","fcode":"PPL","country":"GB","cc2":"","admin1":"ENG","admin2":"J2","admin3":"00FC017","admin4":"","population":1073,"elevation":0,"gtopo30":7,"timezone":"Europe/London","moddate":"2017-06-12T00:00:00.000Z"},{"geonameid":2634844,"name":"Waltham","asciiname":"Waltham","alternatenames":"","latitude":"53.5166700","longitude":"-0.1000000","fclass":"P","fcode":"PPLA3","country":"GB","cc2":"","admin1":"ENG","admin2":"J2","admin3":"00FC018","admin4":"","population":6563,"elevation":0,"gtopo30":19,"timezone":"Europe/London","moddate":"2011-07-31T00:00:00.000Z"},{"geonameid":11550770,"name":"West Marsh","asciiname":"West Marsh","alternatenames":"","latitude":"53.5730100","longitude":"-0.0913200","fclass":"P","fcode":"PPL","country":"GB","cc2":"","admin1":"ENG","admin2":"J2","admin3":"","admin4":"","population":0,"elevation":0,"gtopo30":2,"timezone":"Europe/London","moddate":"2017-06-06T00:00:00.000Z"},{"geonameid":2634286,"name":"West Ravendale","asciiname":"West Ravendale","alternatenames":"","latitude":"53.4817600","longitude":"-0.1519400","fclass":"P","fcode":"PPL","country":"GB","cc2":"","admin1":"ENG","admin2":"J2","admin3":"00FC019","admin4":"","population":0,"elevation":0,"gtopo30":52,"timezone":"Europe/London","moddate":"2011-03-03T00:00:00.000Z"},{"geonameid":2633706,"name":"Wold Newton","asciiname":"Wold Newton","alternatenames":"","latitude":"53.4500000","longitude":"-0.1333300","fclass":"P","fcode":"PPLA3","country":"GB","cc2":"","admin1":"ENG","admin2":"J2","admin3":"00FC020","admin4":"","population":0,"elevation":0,"gtopo30":91,"timezone":"Europe/London","moddate":"2011-07-31T00:00:00.000Z"}],"admin3":[{"geonameid":7290727,"name":"Ashby cum Fenby","admin3":"00FC001"},{"geonameid":7296531,"name":"Aylesby","admin3":"00FC002"},{"geonameid":7298801,"name":"Barnoldby Le Beck","admin3":"00FC003"},{"geonameid":7298802,"name":"Beelsby","admin3":"00FC004"},{"geonameid":7298226,"name":"Bradley","admin3":"00FC005"},{"geonameid":7298804,"name":"Brigsley","admin3":"00FC006"},{"geonameid":7298227,"name":"East Ravendale","admin3":"00FC007"},{"geonameid":7298234,"name":"Great Coates","admin3":"00FC021"},{"geonameid":7298805,"name":"Habrough","admin3":"00FC008"},{"geonameid":7298228,"name":"Hatcliffe","admin3":"00FC009"},{"geonameid":7290955,"name":"Hawerby cum Beesby","admin3":"00FC010"},{"geonameid":7298229,"name":"Healing","admin3":"00FC011"},{"geonameid":7296114,"name":"Humberston","admin3":"00FC012"},{"geonameid":7298230,"name":"Immingham","admin3":"00FC013"},{"geonameid":7296068,"name":"Irby","admin3":"00FC014"},{"geonameid":7298231,"name":"Laceby","admin3":"00FC015"},{"geonameid":7290839,"name":"New Waltham","admin3":"00FC016"},{"geonameid":7296115,"name":"Stallingborough","admin3":"00FC017"},{"geonameid":7296499,"name":"Waltham","admin3":"00FC018"},{"geonameid":7298232,"name":"West Ravendale","admin3":"00FC019"},{"geonameid":7298233,"name":"Wold Newton","admin3":"00FC020"}],"alternateNames":[{"alternatenameId":7636462,"geonameid":3333175,"isoLanguage":"en","alternateName":"North East Lincolnshire","isPreferredName":true,"isShortName":true,"isColloquial":false,"isHistoric":false},{"alternatenameId":1626647,"geonameid":6269131,"isoLanguage":"en","alternateName":"England","isPreferredName":true,"isShortName":true,"isColloquial":false,"isHistoric":false}]},"__N_SSG":true}