{"pageProps":{"locale":"ro","admin2":{"geonameid":680935,"name":"Comuna Copăcel","country":"RO","admin1":"05","admin2":"28816","admin3":"","latitude":"46.9723400","longitude":"22.1673100"},"admin1":{"geonameid":684878,"name":"Bihor","admin1":"05"},"locations":[{"geonameid":683499,"name":"Bucuroaia","asciiname":"Bucuroaia","alternatenames":"","latitude":"46.9292000","longitude":"22.1833700","fclass":"P","fcode":"PPL","country":"RO","cc2":"","admin1":"05","admin2":"28816","admin3":"","admin4":"","population":555,"elevation":0,"gtopo30":367,"timezone":"Europe/Bucharest","moddate":"2019-10-21T00:00:00.000Z"},{"geonameid":682134,"name":"Chijic","asciiname":"Chijic","alternatenames":"Chigic,Chijic","latitude":"46.9949400","longitude":"22.1563500","fclass":"P","fcode":"PPL","country":"RO","cc2":"RO","admin1":"05","admin2":"28816","admin3":"","admin4":"","population":314,"elevation":0,"gtopo30":225,"timezone":"Europe/Bucharest","moddate":"2013-04-21T00:00:00.000Z"},{"geonameid":680936,"name":"Copăcel","asciiname":"Copacel","alternatenames":"Copacel,Copăcel","latitude":"46.9833300","longitude":"22.1666700","fclass":"P","fcode":"PPLA2","country":"RO","cc2":"","admin1":"05","admin2":"28816","admin3":"","admin4":"","population":2427,"elevation":0,"gtopo30":209,"timezone":"Europe/Bucharest","moddate":"2012-06-12T00:00:00.000Z"},{"geonameid":670022,"name":"Poiana Tășad","asciiname":"Poiana Tasad","alternatenames":"Poiana Copacel,Poiana Copăcel,Poiana Motilor,Poiana Moţilor,Poiana Tasad,Poiana Tăşad","latitude":"46.9539700","longitude":"22.1712000","fclass":"P","fcode":"PPL","country":"RO","cc2":"RO","admin1":"05","admin2":"28816","admin3":"","admin4":"","population":233,"elevation":0,"gtopo30":413,"timezone":"Europe/Bucharest","moddate":"2013-04-21T00:00:00.000Z"},{"geonameid":668060,"name":"Sărand","asciiname":"Sarand","alternatenames":"","latitude":"46.9982900","longitude":"22.1209500","fclass":"P","fcode":"PPL","country":"RO","cc2":"","admin1":"05","admin2":"28816","admin3":"","admin4":"","population":530,"elevation":0,"gtopo30":230,"timezone":"Europe/Bucharest","moddate":"2013-04-21T00:00:00.000Z"},{"geonameid":665730,"name":"Surduc","asciiname":"Surduc","alternatenames":"","latitude":"46.9761100","longitude":"22.2016000","fclass":"P","fcode":"PPL","country":"RO","cc2":"","admin1":"05","admin2":"28816","admin3":"","admin4":"","population":549,"elevation":0,"gtopo30":227,"timezone":"Europe/Bucharest","moddate":"2013-04-21T00:00:00.000Z"}],"admin3":[],"alternateNames":[]},"__N_SSG":true}