{"pageProps":{"locale":"ro","admin2":{"geonameid":8334870,"name":"Comuna Bãrãşti","country":"RO","admin1":"29","admin2":"125757","admin3":"","latitude":"44.7085200","longitude":"24.6447000"},"admin1":{"geonameid":671857,"name":"Olt","admin1":"29"},"locations":[{"geonameid":685407,"name":"Bărăștii de Cepturi","asciiname":"Barastii de Cepturi","alternatenames":"","latitude":"44.7031700","longitude":"24.6334800","fclass":"P","fcode":"PPL","country":"RO","cc2":"","admin1":"29","admin2":"125757","admin3":"","admin4":"","population":379,"elevation":0,"gtopo30":297,"timezone":"Europe/Bucharest","moddate":"2013-04-21T00:00:00.000Z"},{"geonameid":685405,"name":"Bărăștii de Vede","asciiname":"Barastii de Vede","alternatenames":"Barasti de Vede,Barastii de Vede,Bărăşti de Vede,Bărăştii de Vede","latitude":"44.7160100","longitude":"24.6591900","fclass":"P","fcode":"PPLA2","country":"RO","cc2":"","admin1":"29","admin2":"125757","admin3":"","admin4":"","population":370,"elevation":0,"gtopo30":259,"timezone":"Europe/Bucharest","moddate":"2015-11-14T00:00:00.000Z"},{"geonameid":684526,"name":"Boboci","asciiname":"Boboci","alternatenames":"Boboci,Bobocii","latitude":"44.7166700","longitude":"24.6500000","fclass":"P","fcode":"PPL","country":"RO","cc2":"","admin1":"29","admin2":"125757","admin3":"","admin4":"","population":0,"elevation":0,"gtopo30":260,"timezone":"Europe/Bucharest","moddate":"2016-02-07T00:00:00.000Z"},{"geonameid":684176,"name":"Boroești","asciiname":"Boroesti","alternatenames":"","latitude":"44.6828200","longitude":"24.6281600","fclass":"P","fcode":"PPL","country":"RO","cc2":"","admin1":"29","admin2":"125757","admin3":"","admin4":"","population":103,"elevation":0,"gtopo30":281,"timezone":"Europe/Bucharest","moddate":"2013-04-21T00:00:00.000Z"},{"geonameid":681746,"name":"Ciocănești","asciiname":"Ciocanesti","alternatenames":"","latitude":"44.6802200","longitude":"24.6542100","fclass":"P","fcode":"PPL","country":"RO","cc2":"","admin1":"29","admin2":"125757","admin3":"","admin4":"","population":369,"elevation":0,"gtopo30":240,"timezone":"Europe/Bucharest","moddate":"2013-04-21T00:00:00.000Z"},{"geonameid":680784,"name":"Corneşti","asciiname":"Cornesti","alternatenames":"","latitude":"44.7333300","longitude":"24.6500000","fclass":"P","fcode":"PPL","country":"RO","cc2":"","admin1":"29","admin2":"125757","admin3":"","admin4":"","population":0,"elevation":0,"gtopo30":268,"timezone":"Europe/Bucharest","moddate":"2016-02-07T00:00:00.000Z"},{"geonameid":674970,"name":"Lăzărești","asciiname":"Lazaresti","alternatenames":"","latitude":"44.7127100","longitude":"24.6320400","fclass":"P","fcode":"PPL","country":"RO","cc2":"","admin1":"29","admin2":"125757","admin3":"","admin4":"","population":174,"elevation":0,"gtopo30":303,"timezone":"Europe/Bucharest","moddate":"2013-04-21T00:00:00.000Z"},{"geonameid":673721,"name":"Mărunţei","asciiname":"Maruntei","alternatenames":"","latitude":"44.7000000","longitude":"24.6500000","fclass":"P","fcode":"PPL","country":"RO","cc2":"","admin1":"29","admin2":"125757","admin3":"","admin4":"","population":0,"elevation":0,"gtopo30":292,"timezone":"Europe/Bucharest","moddate":"2016-02-07T00:00:00.000Z"},{"geonameid":673580,"name":"Mereni","asciiname":"Mereni","alternatenames":"","latitude":"44.7244000","longitude":"24.6023500","fclass":"P","fcode":"PPL","country":"RO","cc2":"","admin1":"29","admin2":"125757","admin3":"","admin4":"","population":223,"elevation":0,"gtopo30":282,"timezone":"Europe/Bucharest","moddate":"2013-04-21T00:00:00.000Z"},{"geonameid":672766,"name":"Moțoești","asciiname":"Motoesti","alternatenames":"","latitude":"44.7232400","longitude":"24.7012900","fclass":"P","fcode":"PPL","country":"RO","cc2":"","admin1":"29","admin2":"125757","admin3":"","admin4":"","population":177,"elevation":0,"gtopo30":285,"timezone":"Europe/Bucharest","moddate":"2013-04-21T00:00:00.000Z"},{"geonameid":669908,"name":"Popești","asciiname":"Popesti","alternatenames":"","latitude":"44.7256300","longitude":"24.6469000","fclass":"P","fcode":"PPL","country":"RO","cc2":"","admin1":"29","admin2":"125757","admin3":"","admin4":"","population":499,"elevation":0,"gtopo30":266,"timezone":"Europe/Bucharest","moddate":"2013-04-21T00:00:00.000Z"},{"geonameid":669387,"name":"Răchicioara","asciiname":"Rachicioara","alternatenames":"Rachicioara,Richicioara,Răchicioara","latitude":"44.7333300","longitude":"24.6000000","fclass":"P","fcode":"PPL","country":"RO","cc2":"","admin1":"29","admin2":"125757","admin3":"","admin4":"","population":0,"elevation":0,"gtopo30":292,"timezone":"Europe/Bucharest","moddate":"2020-06-10T00:00:00.000Z"},{"geonameid":662566,"name":"Vlaicii de Sus","asciiname":"Vlaicii de Sus","alternatenames":"","latitude":"44.6833300","longitude":"24.6500000","fclass":"P","fcode":"PPLX","country":"RO","cc2":"","admin1":"29","admin2":"125757","admin3":"","admin4":"","population":0,"elevation":0,"gtopo30":279,"timezone":"Europe/Bucharest","moddate":"2016-02-07T00:00:00.000Z"}],"admin3":[],"alternateNames":[]},"__N_SSG":true}