{"pageProps":{"locale":"ro","admin2":{"geonameid":670102,"name":"Comuna Poiana Blenchii","country":"RO","admin1":"31","admin2":"142373","admin3":"","latitude":"47.3062600","longitude":"23.7601200"},"admin1":{"geonameid":668248,"name":"Sălaj","admin1":"31"},"locations":[{"geonameid":678460,"name":"Fălcușa","asciiname":"Falcusa","alternatenames":"","latitude":"47.2794000","longitude":"23.7814500","fclass":"P","fcode":"PPL","country":"RO","cc2":"","admin1":"31","admin2":"142373","admin3":"","admin4":"","population":104,"elevation":0,"gtopo30":340,"timezone":"Europe/Bucharest","moddate":"2013-04-21T00:00:00.000Z"},{"geonameid":676863,"name":"Gostila","asciiname":"Gostila","alternatenames":"","latitude":"47.3235600","longitude":"23.8042200","fclass":"P","fcode":"PPL","country":"RO","cc2":"","admin1":"31","admin2":"142373","admin3":"","admin4":"","population":601,"elevation":0,"gtopo30":320,"timezone":"Europe/Bucharest","moddate":"2013-04-21T00:00:00.000Z"},{"geonameid":674145,"name":"Măgura","asciiname":"Magura","alternatenames":"","latitude":"47.3150900","longitude":"23.7055900","fclass":"P","fcode":"PPL","country":"RO","cc2":"","admin1":"31","admin2":"142373","admin3":"","admin4":"","population":33,"elevation":0,"gtopo30":464,"timezone":"Europe/Bucharest","moddate":"2013-04-21T00:00:00.000Z"},{"geonameid":670103,"name":"Poiana Blenchii","asciiname":"Poiana Blenchii","alternatenames":"Poiana Blenchii","latitude":"47.3000000","longitude":"23.7500000","fclass":"P","fcode":"PPLA2","country":"RO","cc2":"","admin1":"31","admin2":"142373","admin3":"","admin4":"","population":1311,"elevation":0,"gtopo30":275,"timezone":"Europe/Bucharest","moddate":"2012-06-12T00:00:00.000Z"}],"admin3":[],"alternateNames":[]},"__N_SSG":true}