{"pageProps":{"locale":"ro","admin2":{"geonameid":673166,"name":"Comuna Mioarele","country":"RO","admin1":"03","admin2":"17334","admin3":"","latitude":"45.2339600","longitude":"25.1004500"},"admin1":{"geonameid":686192,"name":"Argeş","admin1":"03"},"locations":[{"geonameid":686422,"name":"Aluniș","asciiname":"Alunis","alternatenames":"","latitude":"45.2345700","longitude":"25.1399700","fclass":"P","fcode":"PPL","country":"RO","cc2":"","admin1":"03","admin2":"17334","admin3":"","admin4":"","population":6,"elevation":0,"gtopo30":738,"timezone":"Europe/Bucharest","moddate":"2013-04-21T00:00:00.000Z"},{"geonameid":683741,"name":"Brebeneşti","asciiname":"Brebenesti","alternatenames":"","latitude":"45.2333300","longitude":"25.0500000","fclass":"P","fcode":"PPLX","country":"RO","cc2":"","admin1":"03","admin2":"17334","admin3":"","admin4":"","population":0,"elevation":0,"gtopo30":799,"timezone":"Europe/Bucharest","moddate":"2016-02-07T00:00:00.000Z"},{"geonameid":682541,"name":"Căţuleşti","asciiname":"Catulesti","alternatenames":"Calulestii,Catulesti,Căluleştii,Căţuleşti","latitude":"45.2166700","longitude":"25.1166700","fclass":"P","fcode":"PPL","country":"RO","cc2":"","admin1":"03","admin2":"17334","admin3":"","admin4":"","population":0,"elevation":0,"gtopo30":747,"timezone":"Europe/Bucharest","moddate":"2016-02-07T00:00:00.000Z"},{"geonameid":682111,"name":"Chilii","asciiname":"Chilii","alternatenames":"Chili,Chilii","latitude":"45.2377000","longitude":"25.0599500","fclass":"P","fcode":"PPL","country":"RO","cc2":"RO","admin1":"03","admin2":"17334","admin3":"","admin4":"","population":147,"elevation":0,"gtopo30":897,"timezone":"Europe/Bucharest","moddate":"2013-04-21T00:00:00.000Z"},{"geonameid":681232,"name":"Cocenești","asciiname":"Cocenesti","alternatenames":"","latitude":"45.2224400","longitude":"25.0990400","fclass":"P","fcode":"PPL","country":"RO","cc2":"","admin1":"03","admin2":"17334","admin3":"","admin4":"","population":259,"elevation":0,"gtopo30":832,"timezone":"Europe/Bucharest","moddate":"2013-04-21T00:00:00.000Z"},{"geonameid":673686,"name":"Mățău","asciiname":"Matau","alternatenames":"","latitude":"45.2356500","longitude":"25.0828600","fclass":"P","fcode":"PPL","country":"RO","cc2":"","admin1":"03","admin2":"17334","admin3":"","admin4":"","population":1105,"elevation":0,"gtopo30":896,"timezone":"Europe/Bucharest","moddate":"2013-04-21T00:00:00.000Z"},{"geonameid":672845,"name":"Moroeşti","asciiname":"Moroesti","alternatenames":"","latitude":"45.2500000","longitude":"25.1166700","fclass":"P","fcode":"PPLX","country":"RO","cc2":"","admin1":"03","admin2":"17334","admin3":"","admin4":"","population":0,"elevation":0,"gtopo30":682,"timezone":"Europe/Bucharest","moddate":"2016-02-07T00:00:00.000Z"},{"geonameid":665672,"name":"Suslănești","asciiname":"Suslanesti","alternatenames":"","latitude":"45.2394500","longitude":"25.1204400","fclass":"P","fcode":"PPL","country":"RO","cc2":"","admin1":"03","admin2":"17334","admin3":"","admin4":"","population":504,"elevation":0,"gtopo30":631,"timezone":"Europe/Bucharest","moddate":"2013-04-21T00:00:00.000Z"}],"admin3":[],"alternateNames":[]},"__N_SSG":true}