{"pageProps":{"locale":"ro","admin2":{"geonameid":670097,"name":"Comuna Poiana Câmpina","country":"RO","admin1":"30","admin2":"131274","admin3":"","latitude":"45.1207900","longitude":"25.7190500"},"admin1":{"geonameid":669737,"name":"Prahova","admin1":"30"},"locations":[{"geonameid":684519,"name":"Bobolia","asciiname":"Bobolia","alternatenames":"","latitude":"45.0939500","longitude":"25.7425900","fclass":"P","fcode":"PPL","country":"RO","cc2":"","admin1":"30","admin2":"131274","admin3":"","admin4":"","population":1086,"elevation":0,"gtopo30":369,"timezone":"Europe/Bucharest","moddate":"2013-04-21T00:00:00.000Z"},{"geonameid":670845,"name":"Pietrișu","asciiname":"Pietrisu","alternatenames":"Pietrisu,Pietrişu,Vrajitoarea,Vrăjitoarea","latitude":"45.1178300","longitude":"25.7271900","fclass":"P","fcode":"PPL","country":"RO","cc2":"RO","admin1":"30","admin2":"131274","admin3":"","admin4":"","population":338,"elevation":0,"gtopo30":383,"timezone":"Europe/Bucharest","moddate":"2013-04-21T00:00:00.000Z"},{"geonameid":670098,"name":"Poiana Câmpina","asciiname":"Poiana Campina","alternatenames":"Poiana,Poiana Cimpina,Poiana Cîmpina,Poiana-Campina,Poiana-Câmpina,Poiana-de-Prahova","latitude":"45.1333300","longitude":"25.6833300","fclass":"P","fcode":"PPLA2","country":"RO","cc2":"","admin1":"30","admin2":"131274","admin3":"","admin4":"","population":5254,"elevation":0,"gtopo30":571,"timezone":"Europe/Bucharest","moddate":"2012-06-12T00:00:00.000Z"},{"geonameid":669213,"name":"Răgman","asciiname":"Ragman","alternatenames":"","latitude":"45.1433300","longitude":"25.6954500","fclass":"P","fcode":"PPL","country":"RO","cc2":"","admin1":"30","admin2":"131274","admin3":"","admin4":"","population":122,"elevation":0,"gtopo30":422,"timezone":"Europe/Bucharest","moddate":"2013-04-21T00:00:00.000Z"}],"admin3":[],"alternateNames":[{"alternatenameId":8326236,"geonameid":669737,"isoLanguage":"en","alternateName":"Prahova","isPreferredName":true,"isShortName":true,"isColloquial":false,"isHistoric":false}]},"__N_SSG":true}