{"pageProps":{"locale":"ro","admin2":{"geonameid":672539,"name":"Comuna Năeni","country":"RO","admin1":"11","admin2":"47854","admin3":"","latitude":"45.0996800","longitude":"26.4894400"},"admin1":{"geonameid":683121,"name":"Buzău","admin1":"11"},"locations":[{"geonameid":684206,"name":"Bordoşani Tufele","asciiname":"Bordosani Tufele","alternatenames":"","latitude":"45.0833300","longitude":"26.4666700","fclass":"P","fcode":"PPLX","country":"RO","cc2":"","admin1":"11","admin2":"47854","admin3":"","admin4":"","population":0,"elevation":0,"gtopo30":240,"timezone":"Europe/Bucharest","moddate":"2016-02-07T00:00:00.000Z"},{"geonameid":678167,"name":"Fântânele","asciiname":"Fantanele","alternatenames":"Fantanelele,Fintinele,Fântânelele,Fîntînele","latitude":"45.1068200","longitude":"26.5008200","fclass":"P","fcode":"PPL","country":"RO","cc2":"RO","admin1":"11","admin2":"47854","admin3":"","admin4":"","population":173,"elevation":0,"gtopo30":437,"timezone":"Europe/Bucharest","moddate":"2013-04-21T00:00:00.000Z"},{"geonameid":678198,"name":"Fințești","asciiname":"Fintesti","alternatenames":"","latitude":"45.0881500","longitude":"26.4643500","fclass":"P","fcode":"PPL","country":"RO","cc2":"","admin1":"11","admin2":"47854","admin3":"","admin4":"","population":805,"elevation":0,"gtopo30":251,"timezone":"Europe/Bucharest","moddate":"2013-04-21T00:00:00.000Z"},{"geonameid":672540,"name":"Năeni","asciiname":"Naeni","alternatenames":"Naeni,Năeni","latitude":"45.1000000","longitude":"26.4833300","fclass":"P","fcode":"PPLA2","country":"RO","cc2":"","admin1":"11","admin2":"47854","admin3":"","admin4":"","population":2008,"elevation":0,"gtopo30":345,"timezone":"Europe/Bucharest","moddate":"2012-06-12T00:00:00.000Z"},{"geonameid":669565,"name":"Proșca","asciiname":"Prosca","alternatenames":"","latitude":"45.0948400","longitude":"26.4824000","fclass":"P","fcode":"PPL","country":"RO","cc2":"","admin1":"11","admin2":"47854","admin3":"","admin4":"","population":336,"elevation":0,"gtopo30":308,"timezone":"Europe/Bucharest","moddate":"2013-04-21T00:00:00.000Z"},{"geonameid":664573,"name":"Tudorăcheşti","asciiname":"Tudorachesti","alternatenames":"","latitude":"45.1000000","longitude":"26.5000000","fclass":"P","fcode":"PPLX","country":"RO","cc2":"","admin1":"11","admin2":"47854","admin3":"","admin4":"","population":0,"elevation":0,"gtopo30":323,"timezone":"Europe/Bucharest","moddate":"2016-02-07T00:00:00.000Z"},{"geonameid":664545,"name":"Tufele","asciiname":"Tufele","alternatenames":"Tufele,Tufele-Fintesti","latitude":"45.1000000","longitude":"26.4666700","fclass":"P","fcode":"PPLX","country":"RO","cc2":"","admin1":"11","admin2":"47854","admin3":"","admin4":"","population":0,"elevation":0,"gtopo30":326,"timezone":"Europe/Bucharest","moddate":"2016-02-07T00:00:00.000Z"},{"geonameid":662780,"name":"Vârf","asciiname":"Varf","alternatenames":"Varfu,Virf,Vârfu,Vîrf","latitude":"45.1166700","longitude":"26.5000000","fclass":"P","fcode":"PPL","country":"RO","cc2":"","admin1":"11","admin2":"47854","admin3":"","admin4":"","population":152,"elevation":0,"gtopo30":472,"timezone":"Europe/Bucharest","moddate":"2015-11-20T00:00:00.000Z"}],"admin3":[],"alternateNames":[]},"__N_SSG":true}