{"pageProps":{"locale":"ro","admin2":{"geonameid":671400,"name":"Comuna Pănceşti","country":"RO","admin1":"04","admin2":"24187","admin3":"","latitude":"46.3645900","longitude":"27.1137700"},"admin1":{"geonameid":685947,"name":"Bacău","admin1":"04"},"locations":[{"geonameid":682118,"name":"Chilia Benei","asciiname":"Chilia Benei","alternatenames":"Chilia Benei,Chilibeni","latitude":"46.3421800","longitude":"27.1307700","fclass":"P","fcode":"PPL","country":"RO","cc2":"RO","admin1":"04","admin2":"24187","admin3":"","admin4":"","population":111,"elevation":0,"gtopo30":219,"timezone":"Europe/Bucharest","moddate":"2013-04-21T00:00:00.000Z"},{"geonameid":679650,"name":"Dieneț","asciiname":"Dienet","alternatenames":"Dealu-Dienet,Dealu-Dieneț,Dienet-Deal,Dieneț-Deal","latitude":"46.3166700","longitude":"27.0666700","fclass":"P","fcode":"PPL","country":"RO","cc2":"","admin1":"04","admin2":"24187","admin3":"","admin4":"","population":668,"elevation":0,"gtopo30":115,"timezone":"Europe/Bucharest","moddate":"2015-11-13T00:00:00.000Z"},{"geonameid":679412,"name":"Dieneţ-Vale","asciiname":"Dienet-Vale","alternatenames":"Dienet,Dienet-Vale,Dieneţ-Vale","latitude":"46.3333300","longitude":"27.0666700","fclass":"P","fcode":"PPL","country":"RO","cc2":"","admin1":"04","admin2":"24187","admin3":"","admin4":"","population":0,"elevation":0,"gtopo30":171,"timezone":"Europe/Bucharest","moddate":"2020-06-10T00:00:00.000Z"},{"geonameid":677843,"name":"Fulgeriș","asciiname":"Fulgeris","alternatenames":"","latitude":"46.3340500","longitude":"27.1214700","fclass":"P","fcode":"PPL","country":"RO","cc2":"","admin1":"04","admin2":"24187","admin3":"","admin4":"","population":341,"elevation":0,"gtopo30":193,"timezone":"Europe/Bucharest","moddate":"2013-04-21T00:00:00.000Z"},{"geonameid":677779,"name":"Fundu Văii","asciiname":"Fundu Vaii","alternatenames":"Fundu Vaei,Fundu Vaii,Fundu Văei,Fundu Văii","latitude":"46.4215500","longitude":"27.1368700","fclass":"P","fcode":"PPL","country":"RO","cc2":"RO","admin1":"04","admin2":"24187","admin3":"","admin4":"","population":135,"elevation":0,"gtopo30":228,"timezone":"Europe/Bucharest","moddate":"2013-04-21T00:00:00.000Z"},{"geonameid":672770,"name":"Motoc","asciiname":"Motoc","alternatenames":"","latitude":"46.3638100","longitude":"27.0991600","fclass":"P","fcode":"PPL","country":"RO","cc2":"","admin1":"04","admin2":"24187","admin3":"","admin4":"","population":133,"elevation":0,"gtopo30":191,"timezone":"Europe/Bucharest","moddate":"2013-04-21T00:00:00.000Z"},{"geonameid":671402,"name":"Pănceşti","asciiname":"Pancesti","alternatenames":"","latitude":"46.3333300","longitude":"27.0833300","fclass":"P","fcode":"PPLA2","country":"RO","cc2":"","admin1":"04","admin2":"24187","admin3":"","admin4":"","population":4272,"elevation":0,"gtopo30":195,"timezone":"Europe/Bucharest","moddate":"2012-06-12T00:00:00.000Z"},{"geonameid":670996,"name":"Petrești","asciiname":"Petresti","alternatenames":"","latitude":"46.3871200","longitude":"27.1143500","fclass":"P","fcode":"PPL","country":"RO","cc2":"","admin1":"04","admin2":"24187","admin3":"","admin4":"","population":672,"elevation":0,"gtopo30":169,"timezone":"Europe/Bucharest","moddate":"2013-04-21T00:00:00.000Z"},{"geonameid":666590,"name":"Soci","asciiname":"Soci","alternatenames":"","latitude":"46.4079600","longitude":"27.1339800","fclass":"P","fcode":"PPL","country":"RO","cc2":"","admin1":"04","admin2":"24187","admin3":"","admin4":"","population":589,"elevation":0,"gtopo30":222,"timezone":"Europe/Bucharest","moddate":"2013-04-21T00:00:00.000Z"},{"geonameid":663690,"name":"Valea lui Noe","asciiname":"Valea lui Noe","alternatenames":"","latitude":"46.4000000","longitude":"27.1333300","fclass":"P","fcode":"PPL","country":"RO","cc2":"","admin1":"04","admin2":"24187","admin3":"","admin4":"","population":0,"elevation":0,"gtopo30":250,"timezone":"Europe/Bucharest","moddate":"2016-02-07T00:00:00.000Z"}],"admin3":[],"alternateNames":[]},"__N_SSG":true}