{"pageProps":{"locale":"ro","admin2":{"geonameid":666065,"name":"Comuna Stoeneşti","country":"RO","admin1":"42","admin2":"105348","admin3":"","latitude":"44.1416400","longitude":"25.8934900"},"admin1":{"geonameid":677104,"name":"Giurgiu","admin1":"42"},"locations":[{"geonameid":675830,"name":"Ianculești","asciiname":"Ianculesti","alternatenames":"","latitude":"44.1397900","longitude":"25.9264400","fclass":"P","fcode":"PPL","country":"RO","cc2":"","admin1":"42","admin2":"105348","admin3":"","admin4":"","population":294,"elevation":0,"gtopo30":82,"timezone":"Europe/Bucharest","moddate":"2013-04-21T00:00:00.000Z"},{"geonameid":673158,"name":"Mirău","asciiname":"Mirau","alternatenames":"Mirau,Miraul,Mirău","latitude":"44.1401900","longitude":"25.8641500","fclass":"P","fcode":"PPL","country":"RO","cc2":"RO","admin1":"42","admin2":"105348","admin3":"","admin4":"","population":225,"elevation":0,"gtopo30":60,"timezone":"Europe/Bucharest","moddate":"2013-04-21T00:00:00.000Z"},{"geonameid":666074,"name":"Stoeneşti","asciiname":"Stoenesti","alternatenames":"Stoenesti,Stoeneşti,Stoeresti","latitude":"44.1444400","longitude":"25.8950000","fclass":"P","fcode":"PPLA2","country":"RO","cc2":"","admin1":"42","admin2":"105348","admin3":"","admin4":"","population":2540,"elevation":0,"gtopo30":58,"timezone":"Europe/Bucharest","moddate":"2012-06-12T00:00:00.000Z"},{"geonameid":665538,"name":"Tangâru","asciiname":"Tangaru","alternatenames":"Tangaru,Tangarul,Tangiru,Tangâru,Tangârul,Tangîru","latitude":"44.1500000","longitude":"25.8833300","fclass":"P","fcode":"PPL","country":"RO","cc2":"","admin1":"42","admin2":"105348","admin3":"","admin4":"","population":0,"elevation":0,"gtopo30":65,"timezone":"Europe/Bucharest","moddate":"2016-02-07T00:00:00.000Z"}],"admin3":[],"alternateNames":[]},"__N_SSG":true}