{"pageProps":{"locale":"ro","admin2":{"geonameid":665016,"name":"Oraş Târgu Cãrbuneşti","country":"RO","admin1":"19","admin2":"78329","admin3":"","latitude":"44.9655000","longitude":"23.4956700"},"admin1":{"geonameid":676898,"name":"Gorj","admin1":"19"},"locations":[{"geonameid":684614,"name":"Blahnița de Jos","asciiname":"Blahnita de Jos","alternatenames":"Blahnita de Jos,Blahniţa de Jos,Purceleni","latitude":"45.0066400","longitude":"23.5229700","fclass":"P","fcode":"PPL","country":"RO","cc2":"RO","admin1":"19","admin2":"78329","admin3":"","admin4":"","population":112,"elevation":0,"gtopo30":242,"timezone":"Europe/Bucharest","moddate":"2013-04-21T00:00:00.000Z"},{"geonameid":682693,"name":"Cărbunești-Sat","asciiname":"Carbunesti-Sat","alternatenames":"Carbunesti,Carbunesti-Sat,Cărbuneşti,Cărbuneşti-Sat","latitude":"44.9507100","longitude":"23.5468100","fclass":"P","fcode":"PPL","country":"RO","cc2":"RO","admin1":"19","admin2":"78329","admin3":"","admin4":"","population":869,"elevation":0,"gtopo30":267,"timezone":"Europe/Bucharest","moddate":"2013-04-21T00:00:00.000Z"},{"geonameid":682395,"name":"Cerătu","asciiname":"Ceratu","alternatenames":"","latitude":"44.9833300","longitude":"23.4666700","fclass":"P","fcode":"PPL","country":"RO","cc2":"","admin1":"19","admin2":"78329","admin3":"","admin4":"","population":0,"elevation":0,"gtopo30":297,"timezone":"Europe/Bucharest","moddate":"2016-02-07T00:00:00.000Z"},{"geonameid":681680,"name":"Cionteşti","asciiname":"Ciontesti","alternatenames":"","latitude":"44.9333300","longitude":"23.5333300","fclass":"P","fcode":"PPL","country":"RO","cc2":"","admin1":"19","admin2":"78329","admin3":"","admin4":"","population":0,"elevation":0,"gtopo30":220,"timezone":"Europe/Bucharest","moddate":"2016-02-07T00:00:00.000Z"},{"geonameid":681154,"name":"Cojani","asciiname":"Cojani","alternatenames":"","latitude":"44.9975400","longitude":"23.5471400","fclass":"P","fcode":"PPL","country":"RO","cc2":"","admin1":"19","admin2":"78329","admin3":"","admin4":"","population":327,"elevation":0,"gtopo30":222,"timezone":"Europe/Bucharest","moddate":"2013-04-21T00:00:00.000Z"},{"geonameid":681020,"name":"Comăneşti","asciiname":"Comanesti","alternatenames":"","latitude":"44.9666700","longitude":"23.5000000","fclass":"P","fcode":"PPL","country":"RO","cc2":"","admin1":"19","admin2":"78329","admin3":"","admin4":"","population":0,"elevation":0,"gtopo30":212,"timezone":"Europe/Bucharest","moddate":"2016-02-07T00:00:00.000Z"},{"geonameid":680275,"name":"Crețești","asciiname":"Cretesti","alternatenames":"","latitude":"44.9520400","longitude":"23.4350000","fclass":"P","fcode":"PPL","country":"RO","cc2":"","admin1":"19","admin2":"78329","admin3":"","admin4":"","population":312,"elevation":0,"gtopo30":318,"timezone":"Europe/Bucharest","moddate":"2013-04-21T00:00:00.000Z"},{"geonameid":679906,"name":"Curteana","asciiname":"Curteana","alternatenames":"","latitude":"44.9552400","longitude":"23.4469000","fclass":"P","fcode":"PPL","country":"RO","cc2":"","admin1":"19","admin2":"78329","admin3":"","admin4":"","population":230,"elevation":0,"gtopo30":317,"timezone":"Europe/Bucharest","moddate":"2013-04-21T00:00:00.000Z"},{"geonameid":678599,"name":"Duţeşti","asciiname":"Dutesti","alternatenames":"Dulesti,Duleşti,Dutesti,Duţeşti","latitude":"44.9500000","longitude":"23.5500000","fclass":"P","fcode":"PPL","country":"RO","cc2":"","admin1":"19","admin2":"78329","admin3":"","admin4":"","population":0,"elevation":0,"gtopo30":277,"timezone":"Europe/Bucharest","moddate":"2016-02-07T00:00:00.000Z"},{"geonameid":678068,"name":"Floreșteni","asciiname":"Floresteni","alternatenames":"Floresteni,Floresti,Floreşteni,Floreşti","latitude":"44.9462700","longitude":"23.4229100","fclass":"P","fcode":"PPL","country":"RO","cc2":"RO","admin1":"19","admin2":"78329","admin3":"","admin4":"","population":434,"elevation":0,"gtopo30":310,"timezone":"Europe/Bucharest","moddate":"2013-04-21T00:00:00.000Z"},{"geonameid":674239,"name":"Măceșu","asciiname":"Macesu","alternatenames":"Macesu,Macesul,Măceşu,Măceşul","latitude":"44.9417500","longitude":"23.4641500","fclass":"P","fcode":"PPL","country":"RO","cc2":"RO","admin1":"19","admin2":"78329","admin3":"","admin4":"","population":179,"elevation":0,"gtopo30":328,"timezone":"Europe/Bucharest","moddate":"2013-04-21T00:00:00.000Z"},{"geonameid":669973,"name":"Pojogeni","asciiname":"Pojogeni","alternatenames":"","latitude":"44.9911900","longitude":"23.4842500","fclass":"P","fcode":"PPL","country":"RO","cc2":"","admin1":"19","admin2":"78329","admin3":"","admin4":"","population":1107,"elevation":0,"gtopo30":222,"timezone":"Europe/Bucharest","moddate":"2013-04-21T00:00:00.000Z"},{"geonameid":668758,"name":"Rogojeni","asciiname":"Rogojeni","alternatenames":"Rogojani,Rogojeni","latitude":"44.9416200","longitude":"23.5006900","fclass":"P","fcode":"PPL","country":"RO","cc2":"RO","admin1":"19","admin2":"78329","admin3":"","admin4":"","population":26,"elevation":0,"gtopo30":217,"timezone":"Europe/Bucharest","moddate":"2013-04-21T00:00:00.000Z"},{"geonameid":668500,"name":"Rugi","asciiname":"Rugi","alternatenames":"","latitude":"44.9833300","longitude":"23.4500000","fclass":"P","fcode":"PPL","country":"RO","cc2":"","admin1":"19","admin2":"78329","admin3":"","admin4":"","population":0,"elevation":0,"gtopo30":304,"timezone":"Europe/Bucharest","moddate":"2016-02-07T00:00:00.000Z"},{"geonameid":666234,"name":"Ștefănești","asciiname":"Stefanesti","alternatenames":"","latitude":"44.9806000","longitude":"23.5664900","fclass":"P","fcode":"PPL","country":"RO","cc2":"","admin1":"19","admin2":"78329","admin3":"","admin4":"","population":588,"elevation":0,"gtopo30":236,"timezone":"Europe/Bucharest","moddate":"2013-04-21T00:00:00.000Z"},{"geonameid":665017,"name":"Târgu Cărbuneşti","asciiname":"Targu Carbunesti","alternatenames":"Targu Carbunesti,Targul-Carbunesti,Tirgu Carbunesti,Târgu Cărbuneşti,Târgul-Cărbuneşti,Tîrgu Cărbuneşti","latitude":"44.9500000","longitude":"23.5166700","fclass":"P","fcode":"PPLA2","country":"RO","cc2":"","admin1":"19","admin2":"78329","admin3":"","admin4":"","population":8646,"elevation":0,"gtopo30":195,"timezone":"Europe/Bucharest","moddate":"2012-06-12T00:00:00.000Z"},{"geonameid":664485,"name":"Tupşani","asciiname":"Tupsani","alternatenames":"","latitude":"44.9333300","longitude":"23.5500000","fclass":"P","fcode":"PPL","country":"RO","cc2":"","admin1":"19","admin2":"78329","admin3":"","admin4":"","population":0,"elevation":0,"gtopo30":267,"timezone":"Europe/Bucharest","moddate":"2016-02-07T00:00:00.000Z"},{"geonameid":664251,"name":"Ungurelu","asciiname":"Ungurelu","alternatenames":"","latitude":"44.9666700","longitude":"23.5500000","fclass":"P","fcode":"PPL","country":"RO","cc2":"","admin1":"19","admin2":"78329","admin3":"","admin4":"","population":0,"elevation":0,"gtopo30":264,"timezone":"Europe/Bucharest","moddate":"2016-02-07T00:00:00.000Z"}],"admin3":[],"alternateNames":[]},"__N_SSG":true}