{"pageProps":{"locale":"ro","admin2":{"geonameid":8334958,"name":"Municipiul  Adjud","country":"RO","admin1":"40","admin2":"174860","admin3":"","latitude":"46.1146400","longitude":"27.1928400"},"admin1":{"geonameid":662447,"name":"Vrancea","admin1":"40","localeAltName":"Vrancea"},"locations":[{"geonameid":686669,"name":"Adjud","asciiname":"Adjud","alternatenames":"Ad Judul,Adjud","latitude":"46.1000000","longitude":"27.1666700","fclass":"P","fcode":"PPL","country":"RO","cc2":"","admin1":"40","admin2":"174860","admin3":"","admin4":"","population":17298,"elevation":0,"gtopo30":101,"timezone":"Europe/Bucharest","moddate":"2016-02-07T00:00:00.000Z"},{"geonameid":686667,"name":"Adjudu Vechi","asciiname":"Adjudu Vechi","alternatenames":"Adjudu Vechi,Adjudu-Vechiu,Adjudul-Vechi,Adjudul-Vechiu","latitude":"46.1348500","longitude":"27.1889100","fclass":"P","fcode":"PPL","country":"RO","cc2":"RO","admin1":"40","admin2":"174860","admin3":"","admin4":"","population":1508,"elevation":0,"gtopo30":103,"timezone":"Europe/Bucharest","moddate":"2013-04-21T00:00:00.000Z"},{"geonameid":683248,"name":"Burcioaia","asciiname":"Burcioaia","alternatenames":"","latitude":"46.0705800","longitude":"27.2301000","fclass":"P","fcode":"PPLX","country":"RO","cc2":"","admin1":"40","admin2":"174860","admin3":"","admin4":"","population":519,"elevation":0,"gtopo30":88,"timezone":"Europe/Bucharest","moddate":"2013-04-21T00:00:00.000Z"},{"geonameid":666803,"name":"Șișcani","asciiname":"Siscani","alternatenames":"Adjudu Nou,Siscani,Şişcani","latitude":"46.1523000","longitude":"27.1703900","fclass":"P","fcode":"PPL","country":"RO","cc2":"RO","admin1":"40","admin2":"174860","admin3":"","admin4":"","population":765,"elevation":0,"gtopo30":104,"timezone":"Europe/Bucharest","moddate":"2013-04-21T00:00:00.000Z"}],"admin3":[],"alternateNames":[{"alternatenameId":391637,"geonameid":662447,"isoLanguage":"ro","alternateName":"Vrancea","isPreferredName":true,"isShortName":true,"isColloquial":false,"isHistoric":false}]},"__N_SSG":true}