{"pageProps":{"locale":"ro","admin2":{"geonameid":684994,"name":"Comuna Beriu","country":"RO","admin1":"21","admin2":"88261","admin3":"","latitude":"45.7634700","longitude":"23.2312600"},"admin1":{"geonameid":675917,"name":"Hunedoara","admin1":"21"},"locations":[{"geonameid":685840,"name":"Baia","asciiname":"Baia","alternatenames":"","latitude":"45.6833300","longitude":"23.3166700","fclass":"P","fcode":"PPLX","country":"RO","cc2":"","admin1":"21","admin2":"88261","admin3":"","admin4":"","population":0,"elevation":0,"gtopo30":1052,"timezone":"Europe/Bucharest","moddate":"2016-02-07T00:00:00.000Z"},{"geonameid":684995,"name":"Beriu","asciiname":"Beriu","alternatenames":"Beriu","latitude":"45.7833300","longitude":"23.1833300","fclass":"P","fcode":"PPLA2","country":"RO","cc2":"","admin1":"21","admin2":"88261","admin3":"","admin4":"","population":3309,"elevation":0,"gtopo30":260,"timezone":"Europe/Bucharest","moddate":"2012-06-12T00:00:00.000Z"},{"geonameid":682590,"name":"Căstău","asciiname":"Castau","alternatenames":"","latitude":"45.8146500","longitude":"23.2117300","fclass":"P","fcode":"PPL","country":"RO","cc2":"","admin1":"21","admin2":"88261","admin3":"","admin4":"","population":1202,"elevation":0,"gtopo30":245,"timezone":"Europe/Bucharest","moddate":"2013-04-21T00:00:00.000Z"},{"geonameid":680020,"name":"Cucuiș","asciiname":"Cucuis","alternatenames":"","latitude":"45.7704000","longitude":"23.2770900","fclass":"P","fcode":"PPL","country":"RO","cc2":"","admin1":"21","admin2":"88261","admin3":"","admin4":"","population":183,"elevation":0,"gtopo30":345,"timezone":"Europe/Bucharest","moddate":"2013-04-21T00:00:00.000Z"},{"geonameid":674104,"name":"Măgureni","asciiname":"Magureni","alternatenames":"","latitude":"45.6752400","longitude":"23.3225800","fclass":"P","fcode":"PPL","country":"RO","cc2":"","admin1":"21","admin2":"88261","admin3":"","admin4":"","population":21,"elevation":0,"gtopo30":1080,"timezone":"Europe/Bucharest","moddate":"2013-04-21T00:00:00.000Z"},{"geonameid":671754,"name":"Orăştioara de Jos","asciiname":"Orastioara de Jos","alternatenames":"Alsovarosviz,Alsóvárosvíz,Orastioara de Jos,Orastiora-de Jos,Orăştioara de Jos,Orăştiora-de Jos","latitude":"45.7666700","longitude":"23.1833300","fclass":"P","fcode":"PPL","country":"RO","cc2":"","admin1":"21","admin2":"88261","admin3":"","admin4":"","population":0,"elevation":0,"gtopo30":280,"timezone":"Europe/Bucharest","moddate":"2016-02-07T00:00:00.000Z"},{"geonameid":670219,"name":"Poieni","asciiname":"Poieni","alternatenames":"Pojenytanya,Pojénytanya","latitude":"45.7571800","longitude":"23.2204200","fclass":"P","fcode":"PPL","country":"RO","cc2":"","admin1":"21","admin2":"88261","admin3":"","admin4":"","population":57,"elevation":0,"gtopo30":347,"timezone":"Europe/Bucharest","moddate":"2015-12-04T00:00:00.000Z"},{"geonameid":667343,"name":"Sereca","asciiname":"Sereca","alternatenames":"","latitude":"45.7816000","longitude":"23.1827500","fclass":"P","fcode":"PPL","country":"RO","cc2":"","admin1":"21","admin2":"88261","admin3":"","admin4":"","population":191,"elevation":0,"gtopo30":264,"timezone":"Europe/Bucharest","moddate":"2013-04-21T00:00:00.000Z"},{"geonameid":667271,"name":"Sibișel","asciiname":"Sibisel","alternatenames":"Osebeshely,Sibiselul Vechiu,Sibişelul Vechiu,Ósebeshely","latitude":"45.7500000","longitude":"23.2500000","fclass":"P","fcode":"PPL","country":"RO","cc2":"","admin1":"21","admin2":"88261","admin3":"","admin4":"","population":641,"elevation":0,"gtopo30":430,"timezone":"Europe/Bucharest","moddate":"2015-12-04T00:00:00.000Z"},{"geonameid":667272,"name":"Sibişelu Nou","asciiname":"Sibiselu Nou","alternatenames":"","latitude":"45.7500000","longitude":"23.2500000","fclass":"P","fcode":"PPL","country":"RO","cc2":"","admin1":"21","admin2":"88261","admin3":"","admin4":"","population":0,"elevation":0,"gtopo30":430,"timezone":"Europe/Bucharest","moddate":"2016-02-07T00:00:00.000Z"},{"geonameid":663290,"name":"Văleni","asciiname":"Valeni","alternatenames":"","latitude":"45.7500000","longitude":"23.2000000","fclass":"P","fcode":"PPL","country":"RO","cc2":"","admin1":"21","admin2":"88261","admin3":"","admin4":"","population":0,"elevation":0,"gtopo30":346,"timezone":"Europe/Bucharest","moddate":"2016-02-07T00:00:00.000Z"}],"admin3":[],"alternateNames":[]},"__N_SSG":true}