{"pageProps":{"locale":"ro","admin2":{"geonameid":670867,"name":"Comuna Pieleşti","country":"RO","admin1":"17","admin2":"73629","admin3":"","latitude":"44.3563200","longitude":"23.9757000"},"admin1":{"geonameid":679134,"name":"jud. Dolj","admin1":"17"},"locations":[{"geonameid":681879,"name":"Câmpeni","asciiname":"Campeni","alternatenames":"Campeni,Cimpeni,Câmpeni,Cîmpeni","latitude":"44.3676400","longitude":"24.0150400","fclass":"P","fcode":"PPL","country":"RO","cc2":"RO","admin1":"17","admin2":"73629","admin3":"","admin4":"","population":992,"elevation":0,"gtopo30":173,"timezone":"Europe/Bucharest","moddate":"2013-04-21T00:00:00.000Z"},{"geonameid":674774,"name":"Lânga","asciiname":"Langa","alternatenames":"Langa,Linga,Lânga,Lînga","latitude":"44.3614900","longitude":"23.9624200","fclass":"P","fcode":"PPL","country":"RO","cc2":"RO","admin1":"17","admin2":"73629","admin3":"","admin4":"","population":33,"elevation":0,"gtopo30":182,"timezone":"Europe/Bucharest","moddate":"2013-04-21T00:00:00.000Z"},{"geonameid":672283,"name":"Nichitoaia","asciiname":"Nichitoaia","alternatenames":"","latitude":"44.3500000","longitude":"23.9333300","fclass":"P","fcode":"PPL","country":"RO","cc2":"","admin1":"17","admin2":"73629","admin3":"","admin4":"","population":0,"elevation":0,"gtopo30":187,"timezone":"Europe/Bucharest","moddate":"2016-02-07T00:00:00.000Z"},{"geonameid":670689,"name":"Pârşani","asciiname":"Parsani","alternatenames":"Parsani,Pirsani,Pârşani,Pîrşani","latitude":"44.3333300","longitude":"23.9833300","fclass":"P","fcode":"PPL","country":"RO","cc2":"RO","admin1":"17","admin2":"73629","admin3":"","admin4":"","population":0,"elevation":0,"gtopo30":152,"timezone":"Europe/Bucharest","moddate":"2020-03-08T00:00:00.000Z"},{"geonameid":670688,"name":"Pârşanii Nou","asciiname":"Parsanii Nou","alternatenames":"Parsani Noui,Parsanii Noi,Parsanii Nou,Pirsanii Nou,Pârsani Noui,Pârşanii Nou,Pîrşanii Nou,Părşanii Noi","latitude":"44.3333300","longitude":"23.9833300","fclass":"P","fcode":"PPLX","country":"RO","cc2":"RO","admin1":"17","admin2":"73629","admin3":"","admin4":"","population":0,"elevation":0,"gtopo30":152,"timezone":"Europe/Bucharest","moddate":"2020-03-08T00:00:00.000Z"},{"geonameid":670687,"name":"Pârşanii Vechi","asciiname":"Parsanii Vechi","alternatenames":"Parsanii Vechi,Pirsanii Vechi,Pârşanii Vechi,Pîrşanii Vechi,Părşanii Vechi","latitude":"44.3333300","longitude":"23.9666700","fclass":"P","fcode":"PPLX","country":"RO","cc2":"RO","admin1":"17","admin2":"73629","admin3":"","admin4":"","population":0,"elevation":0,"gtopo30":153,"timezone":"Europe/Bucharest","moddate":"2020-03-08T00:00:00.000Z"},{"geonameid":670869,"name":"Pieleştí","asciiname":"Pielesti","alternatenames":"Pielesti,Pielestii,Pieleştí","latitude":"44.3333300","longitude":"23.9500000","fclass":"P","fcode":"PPLA2","country":"RO","cc2":"","admin1":"17","admin2":"73629","admin3":"","admin4":"","population":3647,"elevation":0,"gtopo30":162,"timezone":"Europe/Bucharest","moddate":"2012-06-12T00:00:00.000Z"},{"geonameid":670559,"name":"Plaiu Vulcăneşti","asciiname":"Plaiu Vulcanesti","alternatenames":"","latitude":"44.3500000","longitude":"23.9500000","fclass":"P","fcode":"PPLX","country":"RO","cc2":"","admin1":"17","admin2":"73629","admin3":"","admin4":"","population":0,"elevation":0,"gtopo30":191,"timezone":"Europe/Bucharest","moddate":"2016-02-07T00:00:00.000Z"},{"geonameid":665036,"name":"Târbeşti","asciiname":"Tarbesti","alternatenames":"Tarbesti,Tirbesti,Târbeşti,Tîrbeşti","latitude":"44.3666700","longitude":"24.0000000","fclass":"P","fcode":"PPL","country":"RO","cc2":"RO","admin1":"17","admin2":"73629","admin3":"","admin4":"","population":0,"elevation":0,"gtopo30":180,"timezone":"Europe/Bucharest","moddate":"2020-03-08T00:00:00.000Z"},{"geonameid":663109,"name":"Vătăşelu","asciiname":"Vataselu","alternatenames":"Vatajelul,Vataselu,Vătăjelul,Vătăşelu","latitude":"44.3666700","longitude":"23.9333300","fclass":"P","fcode":"PPLX","country":"RO","cc2":"","admin1":"17","admin2":"73629","admin3":"","admin4":"","population":0,"elevation":0,"gtopo30":198,"timezone":"Europe/Bucharest","moddate":"2016-02-07T00:00:00.000Z"}],"admin3":[],"alternateNames":[]},"__N_SSG":true}