{"pageProps":{"locale":"ro","admin2":{"geonameid":680043,"name":"Comuna Cuci","country":"RO","admin1":"27","admin2":"116439","admin3":"","latitude":"46.4590700","longitude":"24.1632100"},"admin1":{"geonameid":672628,"name":"Mureş","admin1":"27"},"locations":[{"geonameid":680045,"name":"Cuci","asciiname":"Cuci","alternatenames":"Cuci,Cuciu,Cuciul","latitude":"46.4666700","longitude":"24.1500000","fclass":"P","fcode":"PPLA2","country":"RO","cc2":"","admin1":"27","admin2":"116439","admin3":"","admin4":"","population":2171,"elevation":0,"gtopo30":274,"timezone":"Europe/Bucharest","moddate":"2012-06-12T00:00:00.000Z"},{"geonameid":679706,"name":"Dătășeni","asciiname":"Dataseni","alternatenames":"Dataseni,Dates,Dateş,Dătăşeni","latitude":"46.4754900","longitude":"24.1751200","fclass":"P","fcode":"PPL","country":"RO","cc2":"RO","admin1":"27","admin2":"116439","admin3":"","admin4":"","population":416,"elevation":0,"gtopo30":276,"timezone":"Europe/Bucharest","moddate":"2013-04-21T00:00:00.000Z"},{"geonameid":678625,"name":"După Deal","asciiname":"Dupa Deal","alternatenames":"","latitude":"46.4887500","longitude":"24.1958800","fclass":"P","fcode":"PPL","country":"RO","cc2":"","admin1":"27","admin2":"116439","admin3":"","admin4":"","population":0,"elevation":0,"gtopo30":295,"timezone":"Europe/Bucharest","moddate":"2013-04-21T00:00:00.000Z"},{"geonameid":671682,"name":"Orosia","asciiname":"Orosia","alternatenames":"","latitude":"46.4562200","longitude":"24.1418700","fclass":"P","fcode":"PPL","country":"RO","cc2":"","admin1":"27","admin2":"116439","admin3":"","admin4":"","population":199,"elevation":0,"gtopo30":280,"timezone":"Europe/Bucharest","moddate":"2013-04-21T00:00:00.000Z"},{"geonameid":670968,"name":"Petrilaca","asciiname":"Petrilaca","alternatenames":"","latitude":"46.4106200","longitude":"24.1469600","fclass":"P","fcode":"PPL","country":"RO","cc2":"","admin1":"27","admin2":"116439","admin3":"","admin4":"","population":675,"elevation":0,"gtopo30":314,"timezone":"Europe/Bucharest","moddate":"2013-04-21T00:00:00.000Z"}],"admin3":[],"alternateNames":[]},"__N_SSG":true}