{"pageProps":{"locale":"ro","admin2":{"geonameid":675368,"name":"Comuna Izvoarele","country":"RO","admin1":"30","admin2":"133795","admin3":"","latitude":"45.2710200","longitude":"26.0093100"},"admin1":{"geonameid":669737,"name":"Prahova","admin1":"30"},"locations":[{"geonameid":682314,"name":"Cernești","asciiname":"Cernesti","alternatenames":"","latitude":"45.2616900","longitude":"26.0280000","fclass":"P","fcode":"PPL","country":"RO","cc2":"","admin1":"30","admin2":"133795","admin3":"","admin4":"","population":143,"elevation":0,"gtopo30":430,"timezone":"Europe/Bucharest","moddate":"2013-04-21T00:00:00.000Z"},{"geonameid":10941968,"name":"Chirițești","asciiname":"Chiritesti","alternatenames":"","latitude":"45.2742900","longitude":"26.0215000","fclass":"P","fcode":"PPL","country":"RO","cc2":"","admin1":"30","admin2":"133795","admin3":"","admin4":"","population":54,"elevation":0,"gtopo30":442,"timezone":"Europe/Bucharest","moddate":"2015-11-14T00:00:00.000Z"},{"geonameid":676060,"name":"Homorâciu","asciiname":"Homoraciu","alternatenames":"Homoraciu,Homoraciul,Homoriciu,Homorâciu,Homorâciul,Homorîciu","latitude":"45.2694000","longitude":"26.0163400","fclass":"P","fcode":"PPL","country":"RO","cc2":"RO","admin1":"30","admin2":"133795","admin3":"","admin4":"","population":2031,"elevation":0,"gtopo30":490,"timezone":"Europe/Bucharest","moddate":"2013-04-21T00:00:00.000Z"},{"geonameid":676058,"name":"Homorâciu Pământeni","asciiname":"Homoraciu Pamanteni","alternatenames":"Homoraciu Pamanteni,Homoriciu Paminteni,Homorâciu Pământeni,Homorîciu Pămînteni","latitude":"45.2666700","longitude":"26.0000000","fclass":"P","fcode":"PPLX","country":"RO","cc2":"","admin1":"30","admin2":"133795","admin3":"","admin4":"","population":0,"elevation":0,"gtopo30":595,"timezone":"Europe/Bucharest","moddate":"2020-03-08T00:00:00.000Z"},{"geonameid":10941969,"name":"Izvoarele","asciiname":"Izvoarele","alternatenames":"","latitude":"45.2837600","longitude":"26.0011900","fclass":"P","fcode":"PPLA2","country":"RO","cc2":"","admin1":"30","admin2":"133795","admin3":"","admin4":"","population":2329,"elevation":0,"gtopo30":528,"timezone":"Europe/Bucharest","moddate":"2015-11-14T00:00:00.000Z"},{"geonameid":673959,"name":"Malu Vânăt","asciiname":"Malu Vanat","alternatenames":"Malu Vanat,Malu Vinat,Malu Vânăt,Malu Vînăt","latitude":"45.2562100","longitude":"26.0230800","fclass":"P","fcode":"PPL","country":"RO","cc2":"RO","admin1":"30","admin2":"133795","admin3":"","admin4":"","population":884,"elevation":0,"gtopo30":463,"timezone":"Europe/Bucharest","moddate":"2013-04-21T00:00:00.000Z"},{"geonameid":667627,"name":"Schiulești","asciiname":"Schiulesti","alternatenames":"","latitude":"45.2847100","longitude":"25.9540300","fclass":"P","fcode":"PPL","country":"RO","cc2":"","admin1":"30","admin2":"133795","admin3":"","admin4":"","population":1294,"elevation":0,"gtopo30":621,"timezone":"Europe/Bucharest","moddate":"2013-04-21T00:00:00.000Z"},{"geonameid":664227,"name":"Ungureni","asciiname":"Ungureni","alternatenames":"Homoriciu Ungureni,Homorîciu Ungureni,Ungureni","latitude":"45.2666700","longitude":"26.0000000","fclass":"P","fcode":"PPLX","country":"RO","cc2":"","admin1":"30","admin2":"133795","admin3":"","admin4":"","population":0,"elevation":0,"gtopo30":595,"timezone":"Europe/Bucharest","moddate":"2016-02-07T00:00:00.000Z"}],"admin3":[],"alternateNames":[{"alternatenameId":8326236,"geonameid":669737,"isoLanguage":"en","alternateName":"Prahova","isPreferredName":true,"isShortName":true,"isColloquial":false,"isHistoric":false}]},"__N_SSG":true}