{"pageProps":{"locale":"ro","admin2":{"geonameid":666758,"name":"Comuna Slatina-Timiş","country":"RO","admin1":"12","admin2":"54056","admin3":"","latitude":"45.2606400","longitude":"22.3180700"},"admin1":{"geonameid":682714,"name":"Caraş-Severin","admin1":"12"},"locations":[{"geonameid":675643,"name":"Ilova","asciiname":"Ilova","alternatenames":"","latitude":"45.2777100","longitude":"22.3415100","fclass":"P","fcode":"PPL","country":"RO","cc2":"","admin1":"12","admin2":"54056","admin3":"","admin4":"","population":972,"elevation":0,"gtopo30":425,"timezone":"Europe/Bucharest","moddate":"2013-04-21T00:00:00.000Z"},{"geonameid":668283,"name":"Sadova Nouă","asciiname":"Sadova Noua","alternatenames":"Ujszagyva,Újszagyva","latitude":"45.2568700","longitude":"22.3455400","fclass":"P","fcode":"PPL","country":"RO","cc2":"","admin1":"12","admin2":"54056","admin3":"","admin4":"","population":388,"elevation":0,"gtopo30":459,"timezone":"Europe/Bucharest","moddate":"2014-06-04T00:00:00.000Z"},{"geonameid":668282,"name":"Sadova Veche","asciiname":"Sadova Veche","alternatenames":"Sadova Veche,Veche","latitude":"45.2472500","longitude":"22.3006200","fclass":"P","fcode":"PPL","country":"RO","cc2":"RO","admin1":"12","admin2":"54056","admin3":"","admin4":"","population":322,"elevation":0,"gtopo30":299,"timezone":"Europe/Bucharest","moddate":"2013-04-21T00:00:00.000Z"},{"geonameid":666759,"name":"Slatina-Timiş","asciiname":"Slatina-Timis","alternatenames":"Slatina,Slatina-Timis,Slatina-Timisului,Slatina-Timiş,Slatina-Timişului","latitude":"45.2500000","longitude":"22.2833300","fclass":"P","fcode":"PPLA2","country":"RO","cc2":"","admin1":"12","admin2":"54056","admin3":"","admin4":"","population":3037,"elevation":0,"gtopo30":338,"timezone":"Europe/Bucharest","moddate":"2012-06-12T00:00:00.000Z"}],"admin3":[],"alternateNames":[]},"__N_SSG":true}