{"pageProps":{"locale":"ro","admin2":{"geonameid":679427,"name":"Comuna Dichiseni","country":"RO","admin1":"41","admin2":"93325","admin3":"","latitude":"44.2305600","longitude":"27.5346600"},"admin1":{"geonameid":683016,"name":"Călăraşi","admin1":"41"},"locations":[{"geonameid":680627,"name":"Coslogeni","asciiname":"Coslogeni","alternatenames":"Coslegeni,Coslogeni,Coşlegeni","latitude":"44.2263800","longitude":"27.4963800","fclass":"P","fcode":"PPL","country":"RO","cc2":"RO","admin1":"41","admin2":"93325","admin3":"","admin4":"","population":0,"elevation":0,"gtopo30":17,"timezone":"Europe/Bucharest","moddate":"2012-06-09T00:00:00.000Z"},{"geonameid":679428,"name":"Dichiseni","asciiname":"Dichiseni","alternatenames":"Dichiseni,Dichisenii","latitude":"44.2333300","longitude":"27.5333300","fclass":"P","fcode":"PPLA2","country":"RO","cc2":"","admin1":"41","admin2":"93325","admin3":"","admin4":"","population":1836,"elevation":0,"gtopo30":18,"timezone":"Europe/Bucharest","moddate":"2012-06-09T00:00:00.000Z"},{"geonameid":674812,"name":"Libertatea","asciiname":"Libertatea","alternatenames":"Bratieni,Bratienio,Brătieni,Brătienio,Libertatea","latitude":"44.2691500","longitude":"27.4992800","fclass":"P","fcode":"PPL","country":"RO","cc2":"RO","admin1":"41","admin2":"93325","admin3":"","admin4":"","population":0,"elevation":0,"gtopo30":15,"timezone":"Europe/Bucharest","moddate":"2013-04-21T00:00:00.000Z"},{"geonameid":667893,"name":"Satnoeni","asciiname":"Satnoeni","alternatenames":"","latitude":"44.2331600","longitude":"27.5510700","fclass":"P","fcode":"PPL","country":"RO","cc2":"","admin1":"41","admin2":"93325","admin3":"","admin4":"","population":574,"elevation":0,"gtopo30":20,"timezone":"Europe/Bucharest","moddate":"2013-04-21T00:00:00.000Z"}],"admin3":[],"alternateNames":[]},"__N_SSG":true}