{"pageProps":{"locale":"ro","admin2":{"geonameid":685201,"name":"Oraş Beclean","country":"RO","admin1":"06","admin2":"32483","admin3":"","latitude":"47.1612400","longitude":"24.1738500"},"admin1":{"geonameid":684647,"name":"Bistriţa-Năsăud","admin1":"06"},"locations":[{"geonameid":685204,"name":"Beclean","asciiname":"Beclean","alternatenames":"Beclean","latitude":"47.1833300","longitude":"24.1833300","fclass":"P","fcode":"PPLA2","country":"RO","cc2":"","admin1":"06","admin2":"32483","admin3":"","admin4":"","population":10909,"elevation":0,"gtopo30":257,"timezone":"Europe/Bucharest","moddate":"2012-06-12T00:00:00.000Z"},{"geonameid":685200,"name":"Beclenuţ","asciiname":"Beclenut","alternatenames":"","latitude":"47.1833300","longitude":"24.1833300","fclass":"P","fcode":"PPL","country":"RO","cc2":"","admin1":"06","admin2":"32483","admin3":"","admin4":"","population":0,"elevation":0,"gtopo30":257,"timezone":"Europe/Bucharest","moddate":"2016-02-07T00:00:00.000Z"},{"geonameid":681123,"name":"Coldău","asciiname":"Coldau","alternatenames":"Coldau,Coldaul,Coldău,Coldăul","latitude":"47.1807100","longitude":"24.1335900","fclass":"P","fcode":"PPL","country":"RO","cc2":"RO","admin1":"06","admin2":"32483","admin3":"","admin4":"","population":727,"elevation":0,"gtopo30":269,"timezone":"Europe/Bucharest","moddate":"2013-04-21T00:00:00.000Z"},{"geonameid":681122,"name":"Coldău-Vale","asciiname":"Coldau-Vale","alternatenames":"","latitude":"47.1833300","longitude":"24.1833300","fclass":"P","fcode":"PPL","country":"RO","cc2":"","admin1":"06","admin2":"32483","admin3":"","admin4":"","population":0,"elevation":0,"gtopo30":257,"timezone":"Europe/Bucharest","moddate":"2016-02-07T00:00:00.000Z"},{"geonameid":678280,"name":"Figa","asciiname":"Figa","alternatenames":"","latitude":"47.1407500","longitude":"24.2126700","fclass":"P","fcode":"PPL","country":"RO","cc2":"","admin1":"06","admin2":"32483","admin3":"","admin4":"","population":487,"elevation":0,"gtopo30":325,"timezone":"Europe/Bucharest","moddate":"2013-04-21T00:00:00.000Z"},{"geonameid":668369,"name":"Rusu de Jos","asciiname":"Rusu de Jos","alternatenames":"Rusu de Jos,Rusul-de-Jos","latitude":"47.1443800","longitude":"24.1722400","fclass":"P","fcode":"PPL","country":"RO","cc2":"RO","admin1":"06","admin2":"32483","admin3":"","admin4":"","population":353,"elevation":0,"gtopo30":267,"timezone":"Europe/Bucharest","moddate":"2013-04-21T00:00:00.000Z"},{"geonameid":663312,"name":"Valea Viilor","asciiname":"Valea Viilor","alternatenames":"","latitude":"47.1833300","longitude":"24.1833300","fclass":"P","fcode":"PPL","country":"RO","cc2":"","admin1":"06","admin2":"32483","admin3":"","admin4":"","population":0,"elevation":0,"gtopo30":257,"timezone":"Europe/Bucharest","moddate":"2016-02-07T00:00:00.000Z"}],"admin3":[],"alternateNames":[]},"__N_SSG":true}