{"pageProps":{"locale":"ro","admin2":{"geonameid":8334853,"name":"Comuna Lunca Cernii De Jos","country":"RO","admin1":"21","admin2":"90119","admin3":"","latitude":"45.6430200","longitude":"22.5843800"},"admin1":{"geonameid":675917,"name":"Hunedoara","admin1":"21"},"locations":[{"geonameid":681424,"name":"Ciumița","asciiname":"Ciumita","alternatenames":"","latitude":"45.6638200","longitude":"22.5790200","fclass":"P","fcode":"PPL","country":"RO","cc2":"","admin1":"21","admin2":"90119","admin3":"","admin4":"","population":4,"elevation":0,"gtopo30":959,"timezone":"Europe/Bucharest","moddate":"2013-04-21T00:00:00.000Z"},{"geonameid":678194,"name":"Fântâna","asciiname":"Fantana","alternatenames":"Vadtelep,Vádtelep","latitude":"45.6699400","longitude":"22.5913500","fclass":"P","fcode":"PPL","country":"RO","cc2":"","admin1":"21","admin2":"90119","admin3":"","admin4":"","population":25,"elevation":0,"gtopo30":1041,"timezone":"Europe/Bucharest","moddate":"2015-12-04T00:00:00.000Z"},{"geonameid":676560,"name":"Gura Bordului","asciiname":"Gura Bordului","alternatenames":"Gura Bordului,Jura Bordului","latitude":"45.6367300","longitude":"22.5323700","fclass":"P","fcode":"PPL","country":"RO","cc2":"RO","admin1":"21","admin2":"90119","admin3":"","admin4":"","population":139,"elevation":0,"gtopo30":659,"timezone":"Europe/Bucharest","moddate":"2013-04-21T00:00:00.000Z"},{"geonameid":674426,"name":"Lunca Cernii de Jos","asciiname":"Lunca Cernii de Jos","alternatenames":"Lunca Cernii de Jos","latitude":"45.6333300","longitude":"22.6166700","fclass":"P","fcode":"PPL","country":"RO","cc2":"","admin1":"21","admin2":"90119","admin3":"","admin4":"","population":1099,"elevation":0,"gtopo30":696,"timezone":"Europe/Bucharest","moddate":"2016-02-07T00:00:00.000Z"},{"geonameid":674425,"name":"Lunca Cernii de Sus","asciiname":"Lunca Cernii de Sus","alternatenames":"","latitude":"45.6394100","longitude":"22.5843900","fclass":"P","fcode":"PPL","country":"RO","cc2":"","admin1":"21","admin2":"90119","admin3":"","admin4":"","population":344,"elevation":0,"gtopo30":610,"timezone":"Europe/Bucharest","moddate":"2013-04-21T00:00:00.000Z"},{"geonameid":673563,"name":"Meria","asciiname":"Meria","alternatenames":"","latitude":"45.6607100","longitude":"22.6337000","fclass":"P","fcode":"PPL","country":"RO","cc2":"","admin1":"21","admin2":"90119","admin3":"","admin4":"","population":350,"elevation":0,"gtopo30":898,"timezone":"Europe/Bucharest","moddate":"2013-04-21T00:00:00.000Z"},{"geonameid":673518,"name":"Mesteacăn","asciiname":"Mesteacan","alternatenames":"","latitude":"45.6333300","longitude":"22.6166700","fclass":"P","fcode":"PPLX","country":"RO","cc2":"","admin1":"21","admin2":"90119","admin3":"","admin4":"","population":0,"elevation":0,"gtopo30":696,"timezone":"Europe/Bucharest","moddate":"2016-02-07T00:00:00.000Z"},{"geonameid":672416,"name":"Negoiu","asciiname":"Negoiu","alternatenames":"","latitude":"45.6108700","longitude":"22.5634500","fclass":"P","fcode":"PPL","country":"RO","cc2":"","admin1":"21","admin2":"90119","admin3":"","admin4":"","population":342,"elevation":0,"gtopo30":668,"timezone":"Europe/Bucharest","moddate":"2013-04-21T00:00:00.000Z"},{"geonameid":663922,"name":"Valea Babii","asciiname":"Valea Babii","alternatenames":"","latitude":"45.6241700","longitude":"22.5737500","fclass":"P","fcode":"PPL","country":"RO","cc2":"","admin1":"21","admin2":"90119","admin3":"","admin4":"","population":47,"elevation":0,"gtopo30":663,"timezone":"Europe/Bucharest","moddate":"2013-04-20T00:00:00.000Z"}],"admin3":[],"alternateNames":[]},"__N_SSG":true}