{"pageProps":{"locale":"ro","admin2":{"geonameid":663975,"name":"Comuna Văgiuleşti","country":"RO","admin1":"19","admin2":"82779","admin3":"","latitude":"44.7298000","longitude":"23.1011300"},"admin1":{"geonameid":676898,"name":"Gorj","admin1":"19"},"locations":[{"geonameid":681614,"name":"Cârciu","asciiname":"Carciu","alternatenames":"Carciul,Circiu,Cârciul,Cîrciu","latitude":"44.7402800","longitude":"23.0594200","fclass":"P","fcode":"PPL","country":"RO","cc2":"RO","admin1":"19","admin2":"82779","admin3":"","admin4":"","population":370,"elevation":0,"gtopo30":190,"timezone":"Europe/Bucharest","moddate":"2013-04-21T00:00:00.000Z"},{"geonameid":680586,"name":"Costeni","asciiname":"Costeni","alternatenames":"","latitude":"44.7333300","longitude":"23.1666700","fclass":"P","fcode":"PPL","country":"RO","cc2":"","admin1":"19","admin2":"82779","admin3":"","admin4":"","population":0,"elevation":0,"gtopo30":199,"timezone":"Europe/Bucharest","moddate":"2016-02-07T00:00:00.000Z"},{"geonameid":680420,"name":"Covrigi","asciiname":"Covrigi","alternatenames":"","latitude":"44.7382500","longitude":"23.1492100","fclass":"P","fcode":"PPL","country":"RO","cc2":"","admin1":"19","admin2":"82779","admin3":"","admin4":"","population":1184,"elevation":0,"gtopo30":214,"timezone":"Europe/Bucharest","moddate":"2013-04-21T00:00:00.000Z"},{"geonameid":676132,"name":"Hobiţa","asciiname":"Hobita","alternatenames":"","latitude":"44.7500000","longitude":"23.1000000","fclass":"P","fcode":"PPL","country":"RO","cc2":"","admin1":"19","admin2":"82779","admin3":"","admin4":"","population":0,"elevation":0,"gtopo30":247,"timezone":"Europe/Bucharest","moddate":"2016-02-07T00:00:00.000Z"},{"geonameid":672606,"name":"Murgilești","asciiname":"Murgilesti","alternatenames":"Hobita Murgilesti,Hobiţa Murgileşti,Murgilesti,Murgileşti","latitude":"44.7542200","longitude":"23.0966300","fclass":"P","fcode":"PPL","country":"RO","cc2":"RO","admin1":"19","admin2":"82779","admin3":"","admin4":"","population":451,"elevation":0,"gtopo30":274,"timezone":"Europe/Bucharest","moddate":"2013-04-21T00:00:00.000Z"},{"geonameid":664246,"name":"Ungureni","asciiname":"Ungureni","alternatenames":"Ungurena,Ungureni","latitude":"44.7000000","longitude":"23.1000000","fclass":"P","fcode":"PPL","country":"RO","cc2":"","admin1":"19","admin2":"82779","admin3":"","admin4":"","population":0,"elevation":0,"gtopo30":209,"timezone":"Europe/Bucharest","moddate":"2016-02-07T00:00:00.000Z"},{"geonameid":663976,"name":"Văgiuleşti","asciiname":"Vagiulesti","alternatenames":"Vagiulesti,Văgiuleşti","latitude":"44.7166700","longitude":"23.0833300","fclass":"P","fcode":"PPLA2","country":"RO","cc2":"","admin1":"19","admin2":"82779","admin3":"","admin4":"","population":3114,"elevation":0,"gtopo30":177,"timezone":"Europe/Bucharest","moddate":"2012-06-12T00:00:00.000Z"},{"geonameid":663744,"name":"Valea Hobiţei","asciiname":"Valea Hobitei","alternatenames":"","latitude":"44.7500000","longitude":"23.1000000","fclass":"P","fcode":"PPLX","country":"RO","cc2":"","admin1":"19","admin2":"82779","admin3":"","admin4":"","population":0,"elevation":0,"gtopo30":247,"timezone":"Europe/Bucharest","moddate":"2016-02-07T00:00:00.000Z"},{"geonameid":663566,"name":"Valea Motrului","asciiname":"Valea Motrului","alternatenames":"Valea Motrului,Valea Rea","latitude":"44.6982300","longitude":"23.1170300","fclass":"P","fcode":"PPL","country":"RO","cc2":"RO","admin1":"19","admin2":"82779","admin3":"","admin4":"","population":317,"elevation":0,"gtopo30":168,"timezone":"Europe/Bucharest","moddate":"2013-04-20T00:00:00.000Z"}],"admin3":[],"alternateNames":[]},"__N_SSG":true}