{"pageProps":{"locale":"ro","admin2":{"geonameid":673410,"name":"Comuna Mihăeşti","country":"RO","admin1":"39","admin2":"171325","admin3":"","latitude":"45.0328200","longitude":"24.2450100"},"admin1":{"geonameid":662892,"name":"Vâlcea","admin1":"39"},"locations":[{"geonameid":686122,"name":"Arsanca","asciiname":"Arsanca","alternatenames":"","latitude":"45.0082000","longitude":"24.2417500","fclass":"P","fcode":"PPL","country":"RO","cc2":"","admin1":"39","admin2":"171325","admin3":"","admin4":"","population":224,"elevation":0,"gtopo30":222,"timezone":"Europe/Bucharest","moddate":"2013-04-21T00:00:00.000Z"},{"geonameid":684751,"name":"Bârsești","asciiname":"Barsesti","alternatenames":"Birsesti,Bîrseşti","latitude":"45.0500000","longitude":"24.2666700","fclass":"P","fcode":"PPL","country":"RO","cc2":"","admin1":"39","admin2":"171325","admin3":"","admin4":"","population":725,"elevation":0,"gtopo30":293,"timezone":"Europe/Bucharest","moddate":"2015-11-27T00:00:00.000Z"},{"geonameid":683322,"name":"Buleta","asciiname":"Buleta","alternatenames":"","latitude":"45.0397800","longitude":"24.2536700","fclass":"P","fcode":"PPL","country":"RO","cc2":"","admin1":"39","admin2":"171325","admin3":"","admin4":"","population":901,"elevation":0,"gtopo30":231,"timezone":"Europe/Bucharest","moddate":"2013-04-21T00:00:00.000Z"},{"geonameid":676848,"name":"Govora","asciiname":"Govora","alternatenames":"Govora,Govora-Mahalaua Mare","latitude":"45.0655300","longitude":"24.2384000","fclass":"P","fcode":"PPL","country":"RO","cc2":"RO","admin1":"39","admin2":"171325","admin3":"","admin4":"","population":363,"elevation":0,"gtopo30":270,"timezone":"Europe/Bucharest","moddate":"2013-04-21T00:00:00.000Z"},{"geonameid":676431,"name":"Gurișoara","asciiname":"Gurisoara","alternatenames":"","latitude":"45.0763100","longitude":"24.2205300","fclass":"P","fcode":"PPL","country":"RO","cc2":"","admin1":"39","admin2":"171325","admin3":"","admin4":"","population":529,"elevation":0,"gtopo30":254,"timezone":"Europe/Bucharest","moddate":"2013-04-21T00:00:00.000Z"},{"geonameid":674158,"name":"Măgura","asciiname":"Magura","alternatenames":"","latitude":"45.0039800","longitude":"24.2510900","fclass":"P","fcode":"PPL","country":"RO","cc2":"","admin1":"39","admin2":"171325","admin3":"","admin4":"","population":544,"elevation":0,"gtopo30":213,"timezone":"Europe/Bucharest","moddate":"2013-04-21T00:00:00.000Z"},{"geonameid":674087,"name":"Mahalaua Mare","asciiname":"Mahalaua Mare","alternatenames":"","latitude":"45.0666700","longitude":"24.2333300","fclass":"P","fcode":"PPLX","country":"RO","cc2":"","admin1":"39","admin2":"171325","admin3":"","admin4":"","population":0,"elevation":0,"gtopo30":259,"timezone":"Europe/Bucharest","moddate":"2016-02-07T00:00:00.000Z"},{"geonameid":673237,"name":"Mânăstirea Surpatele","asciiname":"Manastirea Surpatele","alternatenames":"Manastirea Surpatele,Minastirea Surpatele,Mânăstirea Surpatele,Mînăstirea Surpatele","latitude":"45.0500000","longitude":"24.2000000","fclass":"P","fcode":"PPLX","country":"RO","cc2":"RO","admin1":"39","admin2":"171325","admin3":"","admin4":"","population":0,"elevation":0,"gtopo30":428,"timezone":"Europe/Bucharest","moddate":"2020-03-08T00:00:00.000Z"},{"geonameid":673417,"name":"Mihăeşti","asciiname":"Mihaesti","alternatenames":"Mihaesti,Mihăeşti","latitude":"45.0333300","longitude":"24.2500000","fclass":"P","fcode":"PPLA2","country":"RO","cc2":"","admin1":"39","admin2":"171325","admin3":"","admin4":"","population":6263,"elevation":0,"gtopo30":234,"timezone":"Europe/Bucharest","moddate":"2012-06-12T00:00:00.000Z"},{"geonameid":672661,"name":"Munteni","asciiname":"Munteni","alternatenames":"Munteni","latitude":"44.9882000","longitude":"24.2708100","fclass":"P","fcode":"PPL","country":"RO","cc2":"","admin1":"39","admin2":"171325","admin3":"","admin4":"","population":208,"elevation":0,"gtopo30":198,"timezone":"Europe/Bucharest","moddate":"2013-04-21T00:00:00.000Z"},{"geonameid":672394,"name":"Negreni","asciiname":"Negreni","alternatenames":"","latitude":"45.0275600","longitude":"24.2464400","fclass":"P","fcode":"PPL","country":"RO","cc2":"","admin1":"39","admin2":"171325","admin3":"","admin4":"","population":337,"elevation":0,"gtopo30":231,"timezone":"Europe/Bucharest","moddate":"2013-04-21T00:00:00.000Z"},{"geonameid":668504,"name":"Rugetu","asciiname":"Rugetu","alternatenames":"Rugel,Rugetu","latitude":"44.9983900","longitude":"24.2434000","fclass":"P","fcode":"PPL","country":"RO","cc2":"RO","admin1":"39","admin2":"171325","admin3":"","admin4":"","population":240,"elevation":0,"gtopo30":216,"timezone":"Europe/Bucharest","moddate":"2013-04-21T00:00:00.000Z"},{"geonameid":667724,"name":"Scărișoara","asciiname":"Scarisoara","alternatenames":"Scarisoara,Scărişoara,Tigania,Ţigănia","latitude":"45.0612600","longitude":"24.2206600","fclass":"P","fcode":"PPL","country":"RO","cc2":"RO","admin1":"39","admin2":"171325","admin3":"","admin4":"","population":404,"elevation":0,"gtopo30":263,"timezone":"Europe/Bucharest","moddate":"2013-04-21T00:00:00.000Z"},{"geonameid":667663,"name":"Schitu","asciiname":"Schitu","alternatenames":"","latitude":"45.0666700","longitude":"24.2333300","fclass":"P","fcode":"PPLX","country":"RO","cc2":"","admin1":"39","admin2":"171325","admin3":"","admin4":"","population":0,"elevation":0,"gtopo30":259,"timezone":"Europe/Bucharest","moddate":"2016-02-07T00:00:00.000Z"},{"geonameid":667629,"name":"Schitu-Zghiaburi","asciiname":"Schitu-Zghiaburi","alternatenames":"","latitude":"45.0666700","longitude":"24.2333300","fclass":"P","fcode":"PPLX","country":"RO","cc2":"","admin1":"39","admin2":"171325","admin3":"","admin4":"","population":0,"elevation":0,"gtopo30":259,"timezone":"Europe/Bucharest","moddate":"2016-02-07T00:00:00.000Z"},{"geonameid":665897,"name":"Stupărei","asciiname":"Stuparei","alternatenames":"Stuparai,Stuparei,Stupareni,Stupărai,Stupărei,Stupăreni","latitude":"45.0173600","longitude":"24.2800400","fclass":"P","fcode":"PPL","country":"RO","cc2":"RO","admin1":"39","admin2":"171325","admin3":"","admin4":"","population":614,"elevation":0,"gtopo30":211,"timezone":"Europe/Bucharest","moddate":"2013-04-21T00:00:00.000Z"},{"geonameid":662407,"name":"Vulpuești","asciiname":"Vulpuesti","alternatenames":"Vulpesti,Vulpeşti,Vulpuesti,Vulpueşti","latitude":"45.0651900","longitude":"24.2268500","fclass":"P","fcode":"PPL","country":"RO","cc2":"RO","admin1":"39","admin2":"171325","admin3":"","admin4":"","population":411,"elevation":0,"gtopo30":249,"timezone":"Europe/Bucharest","moddate":"2013-04-20T00:00:00.000Z"}],"admin3":[],"alternateNames":[]},"__N_SSG":true}