{"pageProps":{"locale":"ro","admin2":{"geonameid":664192,"name":"Comuna Unţeni","country":"RO","admin1":"07","admin2":"39532","admin3":"","latitude":"47.8116400","longitude":"26.7788600"},"admin1":{"geonameid":684038,"name":"Botoşani","admin1":"07"},"locations":[{"geonameid":683220,"name":"Burla","asciiname":"Burla","alternatenames":"","latitude":"47.7850000","longitude":"26.8007400","fclass":"P","fcode":"PPL","country":"RO","cc2":"","admin1":"07","admin2":"39532","admin3":"","admin4":"","population":122,"elevation":0,"gtopo30":120,"timezone":"Europe/Bucharest","moddate":"2013-04-21T00:00:00.000Z"},{"geonameid":683217,"name":"Burlești","asciiname":"Burlesti","alternatenames":"","latitude":"47.7575800","longitude":"26.8275300","fclass":"P","fcode":"PPL","country":"RO","cc2":"","admin1":"07","admin2":"39532","admin3":"","admin4":"","population":637,"elevation":0,"gtopo30":110,"timezone":"Europe/Bucharest","moddate":"2013-04-21T00:00:00.000Z"},{"geonameid":673229,"name":"Mânăstireni","asciiname":"Manastireni","alternatenames":"Manastireni,Minastireni,Mânăstireni,Mînăstireni","latitude":"47.8310100","longitude":"26.7636100","fclass":"P","fcode":"PPL","country":"RO","cc2":"RO","admin1":"07","admin2":"39532","admin3":"","admin4":"","population":765,"elevation":0,"gtopo30":113,"timezone":"Europe/Bucharest","moddate":"2013-04-21T00:00:00.000Z"},{"geonameid":672749,"name":"Movila","asciiname":"Movila","alternatenames":"","latitude":"47.8333300","longitude":"26.7666700","fclass":"P","fcode":"PPL","country":"RO","cc2":"","admin1":"07","admin2":"39532","admin3":"","admin4":"","population":0,"elevation":0,"gtopo30":142,"timezone":"Europe/Bucharest","moddate":"2016-02-07T00:00:00.000Z"},{"geonameid":670241,"name":"Poenari","asciiname":"Poenari","alternatenames":"","latitude":"47.8166700","longitude":"26.7666700","fclass":"P","fcode":"PPL","country":"RO","cc2":"","admin1":"07","admin2":"39532","admin3":"","admin4":"","population":0,"elevation":0,"gtopo30":113,"timezone":"Europe/Bucharest","moddate":"2016-02-07T00:00:00.000Z"},{"geonameid":666421,"name":"Soroceni","asciiname":"Soroceni","alternatenames":"","latitude":"47.7837600","longitude":"26.8221600","fclass":"P","fcode":"PPL","country":"RO","cc2":"","admin1":"07","admin2":"39532","admin3":"","admin4":"","population":202,"elevation":0,"gtopo30":145,"timezone":"Europe/Bucharest","moddate":"2013-04-21T00:00:00.000Z"},{"geonameid":664193,"name":"Unţeni","asciiname":"Unteni","alternatenames":"Unteni,Unţeni","latitude":"47.8000000","longitude":"26.7833300","fclass":"P","fcode":"PPLA2","country":"RO","cc2":"","admin1":"07","admin2":"39532","admin3":"","admin4":"","population":3022,"elevation":0,"gtopo30":107,"timezone":"Europe/Bucharest","moddate":"2012-06-12T00:00:00.000Z"},{"geonameid":663749,"name":"Valea Grajdului","asciiname":"Valea Grajdului","alternatenames":"","latitude":"47.8764600","longitude":"26.7457300","fclass":"P","fcode":"PPL","country":"RO","cc2":"","admin1":"07","admin2":"39532","admin3":"","admin4":"","population":0,"elevation":0,"gtopo30":206,"timezone":"Europe/Bucharest","moddate":"2013-04-20T00:00:00.000Z"},{"geonameid":662399,"name":"Vultureni","asciiname":"Vultureni","alternatenames":"","latitude":"47.8537800","longitude":"26.7126700","fclass":"P","fcode":"PPL","country":"RO","cc2":"","admin1":"07","admin2":"39532","admin3":"","admin4":"","population":0,"elevation":0,"gtopo30":205,"timezone":"Europe/Bucharest","moddate":"2013-04-20T00:00:00.000Z"}],"admin3":[],"alternateNames":[]},"__N_SSG":true}