{"pageProps":{"locale":"ro","admin2":{"geonameid":666599,"name":"Comuna Şoarş","country":"RO","admin1":"09","admin2":"41943","admin3":"","latitude":"45.9287100","longitude":"24.9276400"},"admin1":{"geonameid":683843,"name":"Braşov","admin1":"09"},"locations":[{"geonameid":685787,"name":"Băile Rodbav","asciiname":"Baile Rodbav","alternatenames":"","latitude":"45.9000000","longitude":"24.8500000","fclass":"P","fcode":"PPL","country":"RO","cc2":"","admin1":"09","admin2":"41943","admin3":"","admin4":"","population":0,"elevation":0,"gtopo30":495,"timezone":"Europe/Bucharest","moddate":"2016-02-07T00:00:00.000Z"},{"geonameid":685341,"name":"Bărcut","asciiname":"Barcut","alternatenames":"Barcut,Bareut,Bărcuţ,Băreut","latitude":"45.9981300","longitude":"24.9210300","fclass":"P","fcode":"PPL","country":"RO","cc2":"RO","admin1":"09","admin2":"41943","admin3":"","admin4":"","population":392,"elevation":0,"gtopo30":546,"timezone":"Europe/Bucharest","moddate":"2013-04-21T00:00:00.000Z"},{"geonameid":678350,"name":"Felmer","asciiname":"Felmer","alternatenames":"Felmer,Felmeru","latitude":"45.9287100","longitude":"25.0060800","fclass":"P","fcode":"PPL","country":"RO","cc2":"RO","admin1":"09","admin2":"41943","admin3":"","admin4":"","population":0,"elevation":0,"gtopo30":466,"timezone":"Europe/Bucharest","moddate":"2016-02-07T00:00:00.000Z"},{"geonameid":668774,"name":"Rodbav","asciiname":"Rodbav","alternatenames":"","latitude":"45.9117500","longitude":"24.8725300","fclass":"P","fcode":"PPL","country":"RO","cc2":"","admin1":"09","admin2":"41943","admin3":"","admin4":"","population":0,"elevation":0,"gtopo30":461,"timezone":"Europe/Bucharest","moddate":"2016-02-07T00:00:00.000Z"},{"geonameid":667418,"name":"Seliștat","asciiname":"Selistat","alternatenames":"","latitude":"45.9864500","longitude":"24.8630600","fclass":"P","fcode":"PPL","country":"RO","cc2":"","admin1":"09","admin2":"41943","admin3":"","admin4":"","population":217,"elevation":0,"gtopo30":563,"timezone":"Europe/Bucharest","moddate":"2013-04-21T00:00:00.000Z"},{"geonameid":666600,"name":"Şoarş","asciiname":"Soars","alternatenames":"Sears,Soars,Soarsu,Şoarş,Şoarşu","latitude":"45.9285900","longitude":"24.9286700","fclass":"P","fcode":"PPLA2","country":"RO","cc2":"","admin1":"09","admin2":"41943","admin3":"","admin4":"","population":1870,"elevation":0,"gtopo30":481,"timezone":"Europe/Bucharest","moddate":"2012-06-12T00:00:00.000Z"}],"admin3":[],"alternateNames":[]},"__N_SSG":true}