{"pageProps":{"locale":"ro","admin2":{"geonameid":674731,"name":"Comuna Lipova","country":"RO","admin1":"04","admin2":"23207","admin3":"","latitude":"46.7201600","longitude":"27.2323800"},"admin1":{"geonameid":685947,"name":"Bacău","admin1":"04"},"locations":[{"geonameid":674732,"name":"Lipova","asciiname":"Lipova","alternatenames":"Lipova,Popesti,Popeşti,Satu Nou,Липова","latitude":"46.7166700","longitude":"27.2333300","fclass":"P","fcode":"PPLA2","country":"RO","cc2":"","admin1":"04","admin2":"23207","admin3":"","admin4":"","population":2916,"elevation":0,"gtopo30":246,"timezone":"Europe/Bucharest","moddate":"2012-06-12T00:00:00.000Z"},{"geonameid":673296,"name":"Mâlosu","asciiname":"Malosu","alternatenames":"Malosu,Milosu,Mîlosu,Mălosu","latitude":"46.7380000","longitude":"27.1755200","fclass":"P","fcode":"PPL","country":"RO","cc2":"RO","admin1":"04","admin2":"23207","admin3":"","admin4":"","population":775,"elevation":0,"gtopo30":275,"timezone":"Europe/Bucharest","moddate":"2013-04-21T00:00:00.000Z"},{"geonameid":10941970,"name":"Satu Nou","asciiname":"Satu Nou","alternatenames":"","latitude":"46.6888800","longitude":"27.2992400","fclass":"P","fcode":"PPL","country":"RO","cc2":"","admin1":"04","admin2":"23207","admin3":"","admin4":"","population":556,"elevation":0,"gtopo30":195,"timezone":"Europe/Bucharest","moddate":"2015-11-15T00:00:00.000Z"},{"geonameid":664705,"name":"Tosa","asciiname":"Tosa","alternatenames":"","latitude":"46.7333300","longitude":"27.1833300","fclass":"P","fcode":"PPLX","country":"RO","cc2":"","admin1":"04","admin2":"23207","admin3":"","admin4":"","population":0,"elevation":0,"gtopo30":265,"timezone":"Europe/Bucharest","moddate":"2016-02-07T00:00:00.000Z"},{"geonameid":663851,"name":"Valea Caselor","asciiname":"Valea Caselor","alternatenames":"","latitude":"46.7203800","longitude":"27.2101100","fclass":"P","fcode":"PPL","country":"RO","cc2":"","admin1":"04","admin2":"23207","admin3":"","admin4":"","population":320,"elevation":0,"gtopo30":235,"timezone":"Europe/Bucharest","moddate":"2013-04-20T00:00:00.000Z"},{"geonameid":663743,"name":"Valea Hogei","asciiname":"Valea Hogei","alternatenames":"Valea Hogea,Valea Hogei","latitude":"46.7044600","longitude":"27.2745400","fclass":"P","fcode":"PPL","country":"RO","cc2":"RO","admin1":"04","admin2":"23207","admin3":"","admin4":"","population":319,"elevation":0,"gtopo30":215,"timezone":"Europe/Bucharest","moddate":"2013-04-20T00:00:00.000Z"},{"geonameid":663592,"name":"Valea Mărului","asciiname":"Valea Marului","alternatenames":"","latitude":"46.7396400","longitude":"27.2056700","fclass":"P","fcode":"PPL","country":"RO","cc2":"","admin1":"04","admin2":"23207","admin3":"","admin4":"","population":37,"elevation":0,"gtopo30":320,"timezone":"Europe/Bucharest","moddate":"2013-04-20T00:00:00.000Z"},{"geonameid":663568,"name":"Valea Moșneagului","asciiname":"Valea Mosneagului","alternatenames":"Valea Mosneag,Valea Mosneagului,Valea Moşneag,Valea Moşneagului","latitude":"46.7308100","longitude":"27.2193200","fclass":"P","fcode":"PPL","country":"RO","cc2":"RO","admin1":"04","admin2":"23207","admin3":"","admin4":"","population":25,"elevation":0,"gtopo30":275,"timezone":"Europe/Bucharest","moddate":"2013-04-20T00:00:00.000Z"}],"admin3":[],"alternateNames":[]},"__N_SSG":true}