{"pageProps":{"locale":"ro","admin2":{"geonameid":683251,"name":"Comuna Bunteşti","country":"RO","admin1":"05","admin2":"27971","admin3":"","latitude":"46.6070300","longitude":"22.5020200"},"admin1":{"geonameid":684878,"name":"Bihor","admin1":"05"},"locations":[{"geonameid":683950,"name":"Brădet","asciiname":"Bradet","alternatenames":"Biharfenyves,Bradet,Bragyet,Brădet","latitude":"46.5830200","longitude":"22.5321300","fclass":"P","fcode":"PPL","country":"RO","cc2":"","admin1":"05","admin2":"27971","admin3":"","admin4":"","population":739,"elevation":0,"gtopo30":321,"timezone":"Europe/Bucharest","moddate":"2013-04-21T00:00:00.000Z"},{"geonameid":683252,"name":"Bunteşti","asciiname":"Buntesti","alternatenames":"Bontesd,Buntesti,Buntești,Buntyesd","latitude":"46.6166700","longitude":"22.4666700","fclass":"P","fcode":"PPLA2","country":"RO","cc2":"","admin1":"05","admin2":"27971","admin3":"","admin4":"","population":4676,"elevation":0,"gtopo30":239,"timezone":"Europe/Bucharest","moddate":"2013-12-01T00:00:00.000Z"},{"geonameid":678717,"name":"Dumbrăvani","asciiname":"Dumbravani","alternatenames":"Dombrovany,Dombrovány,Dumbravani,Dumbraveni,Dumbrăvani,Dumbrăveni","latitude":"46.5863400","longitude":"22.5013800","fclass":"P","fcode":"PPL","country":"RO","cc2":"","admin1":"05","admin2":"27971","admin3":"","admin4":"","population":366,"elevation":0,"gtopo30":285,"timezone":"Europe/Bucharest","moddate":"2013-04-21T00:00:00.000Z"},{"geonameid":678323,"name":"Ferice","asciiname":"Ferice","alternatenames":"Ferice,Fericse","latitude":"46.6367100","longitude":"22.5258000","fclass":"P","fcode":"PPL","country":"RO","cc2":"","admin1":"05","admin2":"27971","admin3":"","admin4":"","population":623,"elevation":0,"gtopo30":372,"timezone":"Europe/Bucharest","moddate":"2013-04-21T00:00:00.000Z"},{"geonameid":674903,"name":"Lelești","asciiname":"Lelesti","alternatenames":"Lelesd,Lelesti,Lelești","latitude":"46.6201200","longitude":"22.4570900","fclass":"P","fcode":"PPL","country":"RO","cc2":"","admin1":"05","admin2":"27971","admin3":"","admin4":"","population":514,"elevation":0,"gtopo30":238,"timezone":"Europe/Bucharest","moddate":"2013-12-01T00:00:00.000Z"},{"geonameid":670001,"name":"Poienii de Jos","asciiname":"Poienii de Jos","alternatenames":"Alsopoeny,Alsopojeny,Alsópojény,Alsópoény,Poieni-de Jos,Poienii de Jos","latitude":"46.6084100","longitude":"22.5006400","fclass":"P","fcode":"PPL","country":"RO","cc2":"","admin1":"05","admin2":"27971","admin3":"","admin4":"","population":680,"elevation":0,"gtopo30":270,"timezone":"Europe/Bucharest","moddate":"2013-04-21T00:00:00.000Z"},{"geonameid":670000,"name":"Poienii de Sus","asciiname":"Poienii de Sus","alternatenames":"Felsopoeny,Felsopojeny,Felsőpojény,Felsőpoény,Poenii-de-Sus,Poieni-de-Sus,Poienii de Sus","latitude":"46.6080200","longitude":"22.5174200","fclass":"P","fcode":"PPL","country":"RO","cc2":"","admin1":"05","admin2":"27971","admin3":"","admin4":"","population":775,"elevation":0,"gtopo30":277,"timezone":"Europe/Bucharest","moddate":"2013-04-21T00:00:00.000Z"},{"geonameid":667776,"name":"Săud","asciiname":"Saud","alternatenames":"Saud,Szod,Szood,Szód,Szóod,Săud","latitude":"46.6197700","longitude":"22.4956400","fclass":"P","fcode":"PPL","country":"RO","cc2":"","admin1":"05","admin2":"27971","admin3":"","admin4":"","population":448,"elevation":0,"gtopo30":278,"timezone":"Europe/Bucharest","moddate":"2013-04-21T00:00:00.000Z"},{"geonameid":666123,"name":"Stânceşti","asciiname":"Stancesti","alternatenames":"Bekafalva,Broaste,Broaşte,Brost,Békafalva,Kisbekafalva,Kisbékafalva,Stancesti,Stincesti,Stânceşti,Stînceşti","latitude":"46.5833300","longitude":"22.5166700","fclass":"P","fcode":"PPL","country":"RO","cc2":"","admin1":"05","admin2":"27971","admin3":"","admin4":"","population":0,"elevation":0,"gtopo30":315,"timezone":"Europe/Bucharest","moddate":"2020-06-10T00:00:00.000Z"}],"admin3":[],"alternateNames":[]},"__N_SSG":true}