{"pageProps":{"locale":"ro","admin2":{"geonameid":670430,"name":"Comuna Plopşoru","country":"RO","admin1":"19","admin2":"81264","admin3":"","latitude":"44.7386900","longitude":"23.3905300"},"admin1":{"geonameid":676898,"name":"Gorj","admin1":"19"},"locations":[{"geonameid":683649,"name":"Broșteni","asciiname":"Brosteni","alternatenames":"","latitude":"44.6867600","longitude":"23.4180700","fclass":"P","fcode":"PPL","country":"RO","cc2":"","admin1":"19","admin2":"81264","admin3":"","admin4":"","population":219,"elevation":0,"gtopo30":132,"timezone":"Europe/Bucharest","moddate":"2013-04-21T00:00:00.000Z"},{"geonameid":683625,"name":"Broștenii de Sus","asciiname":"Brostenii de Sus","alternatenames":"Atarnati,Atirnati,Atârnati,Atîrnaţi,Brostenii de Sus,Broştenii de Sus","latitude":"44.6703500","longitude":"23.4419300","fclass":"P","fcode":"PPL","country":"RO","cc2":"RO","admin1":"19","admin2":"81264","admin3":"","admin4":"","population":67,"elevation":0,"gtopo30":141,"timezone":"Europe/Bucharest","moddate":"2013-04-21T00:00:00.000Z"},{"geonameid":682409,"name":"Ceplea","asciiname":"Ceplea","alternatenames":"","latitude":"44.6985600","longitude":"23.4088100","fclass":"P","fcode":"PPL","country":"RO","cc2":"","admin1":"19","admin2":"81264","admin3":"","admin4":"","population":493,"elevation":0,"gtopo30":142,"timezone":"Europe/Bucharest","moddate":"2013-04-21T00:00:00.000Z"},{"geonameid":679915,"name":"Cursaru","asciiname":"Cursaru","alternatenames":"","latitude":"44.6760200","longitude":"23.4319500","fclass":"P","fcode":"PPL","country":"RO","cc2":"","admin1":"19","admin2":"81264","admin3":"","admin4":"","population":265,"elevation":0,"gtopo30":132,"timezone":"Europe/Bucharest","moddate":"2013-04-21T00:00:00.000Z"},{"geonameid":679533,"name":"Deleni","asciiname":"Deleni","alternatenames":"Deleni,Delenii","latitude":"44.7910100","longitude":"23.3727000","fclass":"P","fcode":"PPL","country":"RO","cc2":"RO","admin1":"19","admin2":"81264","admin3":"","admin4":"","population":290,"elevation":0,"gtopo30":224,"timezone":"Europe/Bucharest","moddate":"2013-04-21T00:00:00.000Z"},{"geonameid":675521,"name":"Iosa","asciiname":"Iosa","alternatenames":"","latitude":"44.7666700","longitude":"23.4000000","fclass":"P","fcode":"PPL","country":"RO","cc2":"","admin1":"19","admin2":"81264","admin3":"","admin4":"","population":0,"elevation":0,"gtopo30":197,"timezone":"Europe/Bucharest","moddate":"2016-02-07T00:00:00.000Z"},{"geonameid":675386,"name":"Izvoarele","asciiname":"Izvoarele","alternatenames":"Isvoarele,Izvoarele","latitude":"44.7172300","longitude":"23.3988800","fclass":"P","fcode":"PPL","country":"RO","cc2":"RO","admin1":"19","admin2":"81264","admin3":"","admin4":"","population":749,"elevation":0,"gtopo30":137,"timezone":"Europe/Bucharest","moddate":"2013-04-21T00:00:00.000Z"},{"geonameid":671876,"name":"Olari","asciiname":"Olari","alternatenames":"","latitude":"44.8076100","longitude":"23.3322200","fclass":"P","fcode":"PPL","country":"RO","cc2":"","admin1":"19","admin2":"81264","admin3":"","admin4":"","population":888,"elevation":0,"gtopo30":157,"timezone":"Europe/Bucharest","moddate":"2013-04-21T00:00:00.000Z"},{"geonameid":670628,"name":"Piscuri","asciiname":"Piscuri","alternatenames":"Piscuri,Piscurile","latitude":"44.7764600","longitude":"23.3934200","fclass":"P","fcode":"PPL","country":"RO","cc2":"RO","admin1":"19","admin2":"81264","admin3":"","admin4":"","population":965,"elevation":0,"gtopo30":221,"timezone":"Europe/Bucharest","moddate":"2013-04-21T00:00:00.000Z"},{"geonameid":670432,"name":"Plopşoru","asciiname":"Plopsoru","alternatenames":"Plopsoru,Plopsorul,Plopşoru,Plopşorul","latitude":"44.7833300","longitude":"23.3500000","fclass":"P","fcode":"PPLA2","country":"RO","cc2":"","admin1":"19","admin2":"81264","admin3":"","admin4":"","population":6576,"elevation":0,"gtopo30":141,"timezone":"Europe/Bucharest","moddate":"2012-06-12T00:00:00.000Z"},{"geonameid":668002,"name":"Sărdănești","asciiname":"Sardanesti","alternatenames":"","latitude":"44.7708600","longitude":"23.3608700","fclass":"P","fcode":"PPL","country":"RO","cc2":"","admin1":"19","admin2":"81264","admin3":"","admin4":"","population":813,"elevation":0,"gtopo30":149,"timezone":"Europe/Bucharest","moddate":"2013-04-21T00:00:00.000Z"},{"geonameid":663844,"name":"Valea Ceplei","asciiname":"Valea Ceplei","alternatenames":"","latitude":"44.7000000","longitude":"23.4000000","fclass":"P","fcode":"PPLX","country":"RO","cc2":"","admin1":"19","admin2":"81264","admin3":"","admin4":"","population":0,"elevation":0,"gtopo30":119,"timezone":"Europe/Bucharest","moddate":"2016-02-07T00:00:00.000Z"},{"geonameid":663295,"name":"Văleni","asciiname":"Valeni","alternatenames":"Valeni,Valenii,Văleni","latitude":"44.7408800","longitude":"23.3867000","fclass":"P","fcode":"PPL","country":"RO","cc2":"RO","admin1":"19","admin2":"81264","admin3":"","admin4":"","population":965,"elevation":0,"gtopo30":140,"timezone":"Europe/Bucharest","moddate":"2013-04-20T00:00:00.000Z"},{"geonameid":663254,"name":"Vălenii de Sus","asciiname":"Valenii de Sus","alternatenames":"Valea Rea,Valenii de Sus,Vălenii de Sus","latitude":"44.7000000","longitude":"23.4000000","fclass":"P","fcode":"PPLX","country":"RO","cc2":"","admin1":"19","admin2":"81264","admin3":"","admin4":"","population":0,"elevation":0,"gtopo30":119,"timezone":"Europe/Bucharest","moddate":"2020-06-10T00:00:00.000Z"}],"admin3":[],"alternateNames":[]},"__N_SSG":true}