{"pageProps":{"locale":"ro","admin2":{"geonameid":662301,"name":"Comuna Zăpodeni","country":"RO","admin1":"38","admin2":"167071","admin3":"","latitude":"46.7664200","longitude":"27.6416000"},"admin1":{"geonameid":663116,"name":"Vaslui","admin1":"38"},"locations":[{"geonameid":683137,"name":"Butucăria","asciiname":"Butucaria","alternatenames":"","latitude":"46.7973800","longitude":"27.6255600","fclass":"P","fcode":"PPL","country":"RO","cc2":"","admin1":"38","admin2":"167071","admin3":"","admin4":"","population":210,"elevation":0,"gtopo30":231,"timezone":"Europe/Bucharest","moddate":"2013-04-21T00:00:00.000Z"},{"geonameid":681706,"name":"Ciofeni","asciiname":"Ciofeni","alternatenames":"","latitude":"46.7578100","longitude":"27.6336100","fclass":"P","fcode":"PPL","country":"RO","cc2":"","admin1":"38","admin2":"167071","admin3":"","admin4":"","population":166,"elevation":0,"gtopo30":179,"timezone":"Europe/Bucharest","moddate":"2013-04-21T00:00:00.000Z"},{"geonameid":679539,"name":"Delea","asciiname":"Delea","alternatenames":"Delea,Vasile Sasu,Zapodenii Noi,Zăpodenii Noi","latitude":"46.6974400","longitude":"27.7026000","fclass":"P","fcode":"PPL","country":"RO","cc2":"RO","admin1":"38","admin2":"167071","admin3":"","admin4":"","population":241,"elevation":0,"gtopo30":150,"timezone":"Europe/Bucharest","moddate":"2013-04-21T00:00:00.000Z"},{"geonameid":679211,"name":"Dobroslovești","asciiname":"Dobroslovesti","alternatenames":"Dobroslavesti,Dobroslovesti,Dobrosloveşti,Dobroslăveşti","latitude":"46.7690500","longitude":"27.6085900","fclass":"P","fcode":"PPL","country":"RO","cc2":"RO","admin1":"38","admin2":"167071","admin3":"","admin4":"","population":352,"elevation":0,"gtopo30":126,"timezone":"Europe/Bucharest","moddate":"2013-04-21T00:00:00.000Z"},{"geonameid":674222,"name":"Măcrești","asciiname":"Macresti","alternatenames":"Macresti,Macresti-Uncesti,Măcreşti,Măcreşti-Unceşti","latitude":"46.8106400","longitude":"27.5934200","fclass":"P","fcode":"PPL","country":"RO","cc2":"RO","admin1":"38","admin2":"167071","admin3":"","admin4":"","population":161,"elevation":0,"gtopo30":250,"timezone":"Europe/Bucharest","moddate":"2013-04-21T00:00:00.000Z"},{"geonameid":669827,"name":"Portari","asciiname":"Portari","alternatenames":"Portari,Portari de Mijloc,Portarii,Portarii-de Mijloc","latitude":"46.7384500","longitude":"27.6995100","fclass":"P","fcode":"PPL","country":"RO","cc2":"RO","admin1":"38","admin2":"167071","admin3":"","admin4":"","population":671,"elevation":0,"gtopo30":167,"timezone":"Europe/Bucharest","moddate":"2013-04-21T00:00:00.000Z"},{"geonameid":669826,"name":"Portari de Jos","asciiname":"Portari de Jos","alternatenames":"Portari de Jos,Portarii de Jos","latitude":"46.7333300","longitude":"27.7000000","fclass":"P","fcode":"PPLX","country":"RO","cc2":"","admin1":"38","admin2":"167071","admin3":"","admin4":"","population":0,"elevation":0,"gtopo30":193,"timezone":"Europe/Bucharest","moddate":"2016-02-07T00:00:00.000Z"},{"geonameid":669825,"name":"Portari de Sus","asciiname":"Portari de Sus","alternatenames":"Portari de Sus,Portarii-de Sus","latitude":"46.7500000","longitude":"27.7000000","fclass":"P","fcode":"PPLX","country":"RO","cc2":"","admin1":"38","admin2":"167071","admin3":"","admin4":"","population":0,"elevation":0,"gtopo30":246,"timezone":"Europe/Bucharest","moddate":"2016-02-07T00:00:00.000Z"},{"geonameid":665288,"name":"Telejna","asciiname":"Telejna","alternatenames":"","latitude":"46.7829500","longitude":"27.6483400","fclass":"P","fcode":"PPL","country":"RO","cc2":"","admin1":"38","admin2":"167071","admin3":"","admin4":"","population":347,"elevation":0,"gtopo30":138,"timezone":"Europe/Bucharest","moddate":"2013-04-21T00:00:00.000Z"},{"geonameid":665286,"name":"Telejna de Jos","asciiname":"Telejna de Jos","alternatenames":"","latitude":"46.7833300","longitude":"27.6500000","fclass":"P","fcode":"PPLX","country":"RO","cc2":"","admin1":"38","admin2":"167071","admin3":"","admin4":"","population":0,"elevation":0,"gtopo30":137,"timezone":"Europe/Bucharest","moddate":"2016-02-07T00:00:00.000Z"},{"geonameid":665285,"name":"Telejna de Sus","asciiname":"Telejna de Sus","alternatenames":"","latitude":"46.7833300","longitude":"27.6333300","fclass":"P","fcode":"PPLX","country":"RO","cc2":"","admin1":"38","admin2":"167071","admin3":"","admin4":"","population":0,"elevation":0,"gtopo30":197,"timezone":"Europe/Bucharest","moddate":"2016-02-07T00:00:00.000Z"},{"geonameid":664278,"name":"Uncești","asciiname":"Uncesti","alternatenames":"","latitude":"46.7988400","longitude":"27.6004700","fclass":"P","fcode":"PPL","country":"RO","cc2":"","admin1":"38","admin2":"167071","admin3":"","admin4":"","population":256,"elevation":0,"gtopo30":185,"timezone":"Europe/Bucharest","moddate":"2013-04-21T00:00:00.000Z"},{"geonameid":662302,"name":"Zăpodeni","asciiname":"Zapodeni","alternatenames":"Zapodeni,Zăpodeni","latitude":"46.7500000","longitude":"27.6500000","fclass":"P","fcode":"PPLA2","country":"RO","cc2":"","admin1":"38","admin2":"167071","admin3":"","admin4":"","population":4207,"elevation":0,"gtopo30":160,"timezone":"Europe/Bucharest","moddate":"2012-06-12T00:00:00.000Z"}],"admin3":[],"alternateNames":[]},"__N_SSG":true}