{"pageProps":{"locale":"ro","admin2":{"geonameid":683909,"name":"Comuna Brăhăşeşti","country":"RO","admin1":"18","admin2":"75766","admin3":"","latitude":"46.0616000","longitude":"27.3619600"},"admin1":{"geonameid":677692,"name":"Galaţi","admin1":"18"},"locations":[{"geonameid":683908,"name":"Brăhășești","asciiname":"Brahasesti","alternatenames":"","latitude":"46.0333300","longitude":"27.3666700","fclass":"P","fcode":"PPLA2","country":"RO","cc2":"","admin1":"18","admin2":"75766","admin3":"","admin4":"","population":2637,"elevation":0,"gtopo30":177,"timezone":"Europe/Bucharest","moddate":"2015-11-27T00:00:00.000Z"},{"geonameid":683907,"name":"Brăhăşeştii de Sus","asciiname":"Brahasestii de Sus","alternatenames":"Brahasesti,Brahasesti-de-Sus,Brahasestii de Sus,Brăhăşeşti,Brăhăşeşti-de-Sus,Brăhăşeştii de Sus","latitude":"46.0500000","longitude":"27.3500000","fclass":"P","fcode":"PPL","country":"RO","cc2":"","admin1":"18","admin2":"75766","admin3":"","admin4":"","population":7692,"elevation":0,"gtopo30":117,"timezone":"Europe/Bucharest","moddate":"2016-02-07T00:00:00.000Z"},{"geonameid":680845,"name":"Corcioveni","asciiname":"Corcioveni","alternatenames":"Corcioveni,Corciovenii","latitude":"46.0707100","longitude":"27.3673100","fclass":"P","fcode":"PPL","country":"RO","cc2":"RO","admin1":"18","admin2":"75766","admin3":"","admin4":"","population":111,"elevation":0,"gtopo30":140,"timezone":"Europe/Bucharest","moddate":"2013-04-21T00:00:00.000Z"},{"geonameid":680633,"name":"Cosițeni","asciiname":"Cositeni","alternatenames":"Cositeni,Cositenii,Cosiţeni,Cosiţenii","latitude":"46.0720400","longitude":"27.3762700","fclass":"P","fcode":"PPL","country":"RO","cc2":"RO","admin1":"18","admin2":"75766","admin3":"","admin4":"","population":236,"elevation":0,"gtopo30":109,"timezone":"Europe/Bucharest","moddate":"2013-04-21T00:00:00.000Z"},{"geonameid":671727,"name":"Orbu","asciiname":"Orbu","alternatenames":"","latitude":"46.0500000","longitude":"27.3833300","fclass":"P","fcode":"PPLX","country":"RO","cc2":"","admin1":"18","admin2":"75766","admin3":"","admin4":"","population":0,"elevation":0,"gtopo30":67,"timezone":"Europe/Bucharest","moddate":"2016-02-07T00:00:00.000Z"},{"geonameid":664852,"name":"Toflea","asciiname":"Toflea","alternatenames":"Toflea,Totlea","latitude":"46.0637200","longitude":"27.3341100","fclass":"P","fcode":"PPL","country":"RO","cc2":"RO","admin1":"18","admin2":"75766","admin3":"","admin4":"","population":3667,"elevation":0,"gtopo30":168,"timezone":"Europe/Bucharest","moddate":"2013-04-21T00:00:00.000Z"}],"admin3":[],"alternateNames":[]},"__N_SSG":true}