{"pageProps":{"locale":"ro","admin2":{"geonameid":676446,"name":"Comuna Gurbăneşti","country":"RO","admin1":"41","admin2":"103568","admin3":"","latitude":"44.3754000","longitude":"26.6927700"},"admin1":{"geonameid":683016,"name":"Călăraşi","admin1":"41"},"locations":[{"geonameid":681175,"name":"Codreni","asciiname":"Codreni","alternatenames":"","latitude":"44.3910900","longitude":"26.6516500","fclass":"P","fcode":"PPL","country":"RO","cc2":"","admin1":"41","admin2":"103568","admin3":"","admin4":"","population":0,"elevation":0,"gtopo30":31,"timezone":"Europe/Bucharest","moddate":"2013-04-21T00:00:00.000Z"},{"geonameid":680487,"name":"Coțofanca","asciiname":"Cotofanca","alternatenames":"","latitude":"44.3813600","longitude":"26.7023700","fclass":"P","fcode":"PPL","country":"RO","cc2":"","admin1":"41","admin2":"103568","admin3":"","admin4":"","population":526,"elevation":0,"gtopo30":32,"timezone":"Europe/Bucharest","moddate":"2013-04-21T00:00:00.000Z"},{"geonameid":676447,"name":"Gurbăneşti","asciiname":"Gurbanesti","alternatenames":"Gurbanesti,Gurbăneşti","latitude":"44.3833300","longitude":"26.7000000","fclass":"P","fcode":"PPLA2","country":"RO","cc2":"","admin1":"41","admin2":"103568","admin3":"","admin4":"","population":1640,"elevation":0,"gtopo30":27,"timezone":"Europe/Bucharest","moddate":"2012-06-12T00:00:00.000Z"},{"geonameid":676445,"name":"Gurbăneşti Noi","asciiname":"Gurbanesti Noi","alternatenames":"","latitude":"44.3833300","longitude":"26.7000000","fclass":"P","fcode":"PPL","country":"RO","cc2":"","admin1":"41","admin2":"103568","admin3":"","admin4":"","population":0,"elevation":0,"gtopo30":27,"timezone":"Europe/Bucharest","moddate":"2016-02-07T00:00:00.000Z"},{"geonameid":669709,"name":"Preasna","asciiname":"Preasna","alternatenames":"Preasna,Preazna","latitude":"44.3867700","longitude":"26.6695800","fclass":"P","fcode":"PPL","country":"RO","cc2":"RO","admin1":"41","admin2":"103568","admin3":"","admin4":"","population":253,"elevation":0,"gtopo30":46,"timezone":"Europe/Bucharest","moddate":"2013-04-21T00:00:00.000Z"},{"geonameid":669707,"name":"Preasna Veche","asciiname":"Preasna Veche","alternatenames":"","latitude":"44.3615400","longitude":"26.7183600","fclass":"P","fcode":"PPL","country":"RO","cc2":"","admin1":"41","admin2":"103568","admin3":"","admin4":"","population":0,"elevation":0,"gtopo30":38,"timezone":"Europe/Bucharest","moddate":"2013-04-21T00:00:00.000Z"},{"geonameid":663493,"name":"Valea Presnei","asciiname":"Valea Presnei","alternatenames":"","latitude":"44.3514500","longitude":"26.7197600","fclass":"P","fcode":"PPL","country":"RO","cc2":"","admin1":"41","admin2":"103568","admin3":"","admin4":"","population":354,"elevation":0,"gtopo30":49,"timezone":"Europe/Bucharest","moddate":"2013-04-20T00:00:00.000Z"}],"admin3":[],"alternateNames":[]},"__N_SSG":true}