{"pageProps":{"locale":"ro","admin2":{"geonameid":682406,"name":"Comuna Cepleniţa","country":"RO","admin1":"23","admin2":"96147","admin3":"","latitude":"47.3758100","longitude":"26.9259700"},"admin1":{"geonameid":675809,"name":"Iaşi","admin1":"23"},"locations":[{"geonameid":683371,"name":"Buhalnița","asciiname":"Buhalnita","alternatenames":"","latitude":"47.3789200","longitude":"26.9154700","fclass":"P","fcode":"PPL","country":"RO","cc2":"","admin1":"23","admin2":"96147","admin3":"","admin4":"","population":1686,"elevation":0,"gtopo30":184,"timezone":"Europe/Bucharest","moddate":"2013-04-21T00:00:00.000Z"},{"geonameid":682407,"name":"Cepleniţa","asciiname":"Ceplenita","alternatenames":"Ceplenita,Cepleniţa","latitude":"47.3833300","longitude":"27.0166700","fclass":"P","fcode":"PPLA2","country":"RO","cc2":"","admin1":"23","admin2":"96147","admin3":"","admin4":"","population":4533,"elevation":0,"gtopo30":160,"timezone":"Europe/Bucharest","moddate":"2012-06-12T00:00:00.000Z"},{"geonameid":670058,"name":"Poiana Mărului","asciiname":"Poiana Marului","alternatenames":"Poiana Marului,Poiana Mărului,Varati,Viriti,Vârâţi,Vîrîţi","latitude":"47.3795100","longitude":"26.8924300","fclass":"P","fcode":"PPL","country":"RO","cc2":"RO","admin1":"23","admin2":"96147","admin3":"","admin4":"","population":1067,"elevation":0,"gtopo30":239,"timezone":"Europe/Bucharest","moddate":"2013-04-21T00:00:00.000Z"},{"geonameid":662156,"name":"Zlodica","asciiname":"Zlodica","alternatenames":"","latitude":"47.3675400","longitude":"26.9366700","fclass":"P","fcode":"PPL","country":"RO","cc2":"","admin1":"23","admin2":"96147","admin3":"","admin4":"","population":339,"elevation":0,"gtopo30":141,"timezone":"Europe/Bucharest","moddate":"2013-04-20T00:00:00.000Z"}],"admin3":[],"alternateNames":[]},"__N_SSG":true}