{"pageProps":{"locale":"ro","admin2":{"geonameid":686379,"name":"Comuna Amaru","country":"RO","admin1":"11","admin2":"44863","admin3":"","latitude":"44.9377000","longitude":"26.5999100"},"admin1":{"geonameid":683121,"name":"Buzău","admin1":"11"},"locations":[{"geonameid":686380,"name":"Amaru","asciiname":"Amaru","alternatenames":"Amaru,Amarul","latitude":"44.9333300","longitude":"26.5833300","fclass":"P","fcode":"PPLA2","country":"RO","cc2":"","admin1":"11","admin2":"44863","admin3":"","admin4":"","population":2749,"elevation":0,"gtopo30":75,"timezone":"Europe/Bucharest","moddate":"2012-06-12T00:00:00.000Z"},{"geonameid":681877,"name":"Câmpeni","asciiname":"Campeni","alternatenames":"Badeni Miluiti,Badenii Miluitii,Bădeni Miluiţi,Bădenii Miluiţii,Cimpeni,Cîmpeni","latitude":"44.9680800","longitude":"26.6330000","fclass":"P","fcode":"PPL","country":"RO","cc2":"RO","admin1":"11","admin2":"44863","admin3":"","admin4":"","population":232,"elevation":0,"gtopo30":74,"timezone":"Europe/Bucharest","moddate":"2013-04-21T00:00:00.000Z"},{"geonameid":678775,"name":"Dulbanu","asciiname":"Dulbanu","alternatenames":"Dulbanu,Dulbanul","latitude":"44.9061800","longitude":"26.5973600","fclass":"P","fcode":"PPL","country":"RO","cc2":"RO","admin1":"11","admin2":"44863","admin3":"","admin4":"","population":539,"elevation":0,"gtopo30":73,"timezone":"Europe/Bucharest","moddate":"2013-04-21T00:00:00.000Z"},{"geonameid":675094,"name":"Lacu Sinaia","asciiname":"Lacu Sinaia","alternatenames":"Lacu Sinaia,Sinaia,Singia","latitude":"44.9284700","longitude":"26.5568300","fclass":"P","fcode":"PPL","country":"RO","cc2":"RO","admin1":"11","admin2":"44863","admin3":"","admin4":"","population":0,"elevation":0,"gtopo30":76,"timezone":"Europe/Bucharest","moddate":"2016-02-07T00:00:00.000Z"},{"geonameid":674491,"name":"Lunca","asciiname":"Lunca","alternatenames":"Lunca,Mirosi,Miroşi","latitude":"44.9579500","longitude":"26.6405200","fclass":"P","fcode":"PPL","country":"RO","cc2":"RO","admin1":"11","admin2":"44863","admin3":"","admin4":"","population":215,"elevation":0,"gtopo30":76,"timezone":"Europe/Bucharest","moddate":"2013-04-21T00:00:00.000Z"},{"geonameid":673099,"name":"Miroşi Miluiţi","asciiname":"Mirosi Miluiti","alternatenames":"","latitude":"44.9666700","longitude":"26.6166700","fclass":"P","fcode":"PPLX","country":"RO","cc2":"","admin1":"11","admin2":"44863","admin3":"","admin4":"","population":0,"elevation":0,"gtopo30":75,"timezone":"Europe/Bucharest","moddate":"2016-02-07T00:00:00.000Z"},{"geonameid":667583,"name":"Scorțeanca","asciiname":"Scorteanca","alternatenames":"","latitude":"44.9400200","longitude":"26.5787200","fclass":"P","fcode":"PPL","country":"RO","cc2":"","admin1":"11","admin2":"44863","admin3":"","admin4":"","population":164,"elevation":0,"gtopo30":77,"timezone":"Europe/Bucharest","moddate":"2015-11-19T00:00:00.000Z"}],"admin3":[],"alternateNames":[]},"__N_SSG":true}