{"pageProps":{"locale":"ro","admin2":{"geonameid":685829,"name":"Comuna Baia de Fier","country":"RO","admin1":"19","admin2":"78711","admin3":"","latitude":"45.1740200","longitude":"23.7415200"},"admin1":{"geonameid":676898,"name":"Gorj","admin1":"19"},"locations":[{"geonameid":685830,"name":"Baia de Fier","asciiname":"Baia de Fier","alternatenames":"Baia de Fier","latitude":"45.1666700","longitude":"23.7666700","fclass":"P","fcode":"PPLA2","country":"RO","cc2":"","admin1":"19","admin2":"78711","admin3":"","admin4":"","population":4328,"elevation":0,"gtopo30":557,"timezone":"Europe/Bucharest","moddate":"2012-06-12T00:00:00.000Z"},{"geonameid":683359,"name":"Buiceşti","asciiname":"Buicesti","alternatenames":"","latitude":"45.1833300","longitude":"23.7333300","fclass":"P","fcode":"PPL","country":"RO","cc2":"","admin1":"19","admin2":"78711","admin3":"","admin4":"","population":0,"elevation":0,"gtopo30":660,"timezone":"Europe/Bucharest","moddate":"2016-02-07T00:00:00.000Z"},{"geonameid":682337,"name":"Cernădia","asciiname":"Cernadia","alternatenames":"","latitude":"45.1766300","longitude":"23.7198800","fclass":"P","fcode":"PPL","country":"RO","cc2":"","admin1":"19","admin2":"78711","admin3":"","admin4":"","population":913,"elevation":0,"gtopo30":543,"timezone":"Europe/Bucharest","moddate":"2013-04-21T00:00:00.000Z"},{"geonameid":674292,"name":"Lupeşti","asciiname":"Lupesti","alternatenames":"","latitude":"45.1500000","longitude":"23.7166700","fclass":"P","fcode":"PPL","country":"RO","cc2":"","admin1":"19","admin2":"78711","admin3":"","admin4":"","population":0,"elevation":0,"gtopo30":467,"timezone":"Europe/Bucharest","moddate":"2016-02-07T00:00:00.000Z"},{"geonameid":7733097,"name":"Rânca","asciiname":"Ranca","alternatenames":"","latitude":"45.2913100","longitude":"23.6954500","fclass":"P","fcode":"PPL","country":"RO","cc2":"","admin1":"19","admin2":"78711","admin3":"","admin4":"","population":0,"elevation":0,"gtopo30":1543,"timezone":"Europe/Bucharest","moddate":"2016-02-07T00:00:00.000Z"},{"geonameid":666542,"name":"Sohodolu","asciiname":"Sohodolu","alternatenames":"Sohodolu,Sohodolul","latitude":"45.1666700","longitude":"23.7833300","fclass":"P","fcode":"PPL","country":"RO","cc2":"","admin1":"19","admin2":"78711","admin3":"","admin4":"","population":0,"elevation":0,"gtopo30":516,"timezone":"Europe/Bucharest","moddate":"2016-02-07T00:00:00.000Z"}],"admin3":[],"alternateNames":[]},"__N_SSG":true}