{"pageProps":{"locale":"ro","admin2":{"geonameid":684188,"name":"Comuna Borleşti","country":"RO","admin1":"28","admin2":"121732","admin3":"","latitude":"46.7893400","longitude":"26.4908000"},"admin1":{"geonameid":672460,"name":"Neamţ","admin1":"28"},"locations":[{"geonameid":685678,"name":"Bălanu","asciiname":"Balanu","alternatenames":"","latitude":"46.8000000","longitude":"26.5166700","fclass":"P","fcode":"PPL","country":"RO","cc2":"","admin1":"28","admin2":"121732","admin3":"","admin4":"","population":0,"elevation":0,"gtopo30":279,"timezone":"Europe/Bucharest","moddate":"2016-02-07T00:00:00.000Z"},{"geonameid":684190,"name":"Borleşti","asciiname":"Borlesti","alternatenames":"Borlesti,Borleşti","latitude":"46.7666700","longitude":"26.4833300","fclass":"P","fcode":"PPLA2","country":"RO","cc2":"","admin1":"28","admin2":"121732","admin3":"","admin4":"","population":8965,"elevation":0,"gtopo30":355,"timezone":"Europe/Bucharest","moddate":"2012-06-12T00:00:00.000Z"},{"geonameid":673704,"name":"Mastacăn","asciiname":"Mastacan","alternatenames":"Mastacan,Mastacanul,Mastacăn,Măstacănul","latitude":"46.7891800","longitude":"26.4867700","fclass":"P","fcode":"PPL","country":"RO","cc2":"RO","admin1":"28","admin2":"121732","admin3":"","admin4":"","population":1899,"elevation":0,"gtopo30":349,"timezone":"Europe/Bucharest","moddate":"2013-04-21T00:00:00.000Z"},{"geonameid":672454,"name":"Nechit","asciiname":"Nechit","alternatenames":"","latitude":"46.7730700","longitude":"26.4157900","fclass":"P","fcode":"PPL","country":"RO","cc2":"","admin1":"28","admin2":"121732","admin3":"","admin4":"","population":293,"elevation":0,"gtopo30":438,"timezone":"Europe/Bucharest","moddate":"2013-04-21T00:00:00.000Z"},{"geonameid":670056,"name":"Poiana Mărului","asciiname":"Poiana Marului","alternatenames":"Poiana Marului,Poiana Mărului,Puricei,Puriceni","latitude":"46.7666700","longitude":"26.5166700","fclass":"P","fcode":"PPLX","country":"RO","cc2":"","admin1":"28","admin2":"121732","admin3":"","admin4":"","population":0,"elevation":0,"gtopo30":321,"timezone":"Europe/Bucharest","moddate":"2020-06-10T00:00:00.000Z"},{"geonameid":668408,"name":"Ruseni","asciiname":"Ruseni","alternatenames":"","latitude":"46.7984100","longitude":"26.5394300","fclass":"P","fcode":"PPL","country":"RO","cc2":"","admin1":"28","admin2":"121732","admin3":"","admin4":"","population":3415,"elevation":0,"gtopo30":257,"timezone":"Europe/Bucharest","moddate":"2013-04-21T00:00:00.000Z"},{"geonameid":666400,"name":"Șovoaia","asciiname":"Sovoaia","alternatenames":"","latitude":"46.8000000","longitude":"26.5166700","fclass":"P","fcode":"PPL","country":"RO","cc2":"","admin1":"28","admin2":"121732","admin3":"","admin4":"","population":431,"elevation":0,"gtopo30":279,"timezone":"Europe/Bucharest","moddate":"2015-12-18T00:00:00.000Z"}],"admin3":[],"alternateNames":[]},"__N_SSG":true}