{"pageProps":{"locale":"ro","admin2":{"geonameid":680363,"name":"Comuna Crăciuneşti","country":"RO","admin1":"27","admin2":"116288","admin3":"","latitude":"46.4742700","longitude":"24.5711600"},"admin1":{"geonameid":672628,"name":"Mureş","admin1":"27"},"locations":[{"geonameid":683416,"name":"Budiu Mic","asciiname":"Budiu Mic","alternatenames":"Budiul-Mic,Hagymasbodon,Hagymàsbodon","latitude":"46.5092000","longitude":"24.5828500","fclass":"P","fcode":"PPL","country":"RO","cc2":"RO","admin1":"27","admin2":"116288","admin3":"","admin4":"","population":0,"elevation":0,"gtopo30":368,"timezone":"Europe/Bucharest","moddate":"2016-02-07T00:00:00.000Z"},{"geonameid":681963,"name":"Ciba","asciiname":"Ciba","alternatenames":"Ciba,Csiba","latitude":"46.4792300","longitude":"24.5680600","fclass":"P","fcode":"PPL","country":"RO","cc2":"RO","admin1":"27","admin2":"116288","admin3":"","admin4":"","population":0,"elevation":0,"gtopo30":313,"timezone":"Europe/Bucharest","moddate":"2013-04-21T00:00:00.000Z"},{"geonameid":681792,"name":"Cinta","asciiname":"Cinta","alternatenames":"Cinta,Cinta Halta,Fintahaza,Fintahàza","latitude":"46.4602200","longitude":"24.5510400","fclass":"P","fcode":"PPL","country":"RO","cc2":"RO","admin1":"27","admin2":"116288","admin3":"","admin4":"","population":386,"elevation":0,"gtopo30":308,"timezone":"Europe/Bucharest","moddate":"2013-04-21T00:00:00.000Z"},{"geonameid":680778,"name":"Cornești","asciiname":"Cornesti","alternatenames":"Somosd","latitude":"46.4547100","longitude":"24.5836300","fclass":"P","fcode":"PPL","country":"RO","cc2":"","admin1":"27","admin2":"116288","admin3":"","admin4":"","population":957,"elevation":0,"gtopo30":330,"timezone":"Europe/Bucharest","moddate":"2015-12-15T00:00:00.000Z"},{"geonameid":680368,"name":"Crăciuneşti","asciiname":"Craciunesti","alternatenames":"Nyaradkaracsonyfalva,Nyárádkarácsonyfalva","latitude":"46.4793000","longitude":"24.5823400","fclass":"P","fcode":"PPLA2","country":"RO","cc2":"","admin1":"27","admin2":"116288","admin3":"","admin4":"","population":4283,"elevation":0,"gtopo30":311,"timezone":"Europe/Bucharest","moddate":"2012-06-12T00:00:00.000Z"},{"geonameid":677997,"name":"Foi","asciiname":"Foi","alternatenames":"Fojfalva","latitude":"46.4796600","longitude":"24.5995900","fclass":"P","fcode":"PPL","country":"RO","cc2":"RO","admin1":"27","admin2":"116288","admin3":"","admin4":"","population":0,"elevation":0,"gtopo30":312,"timezone":"Europe/Bucharest","moddate":"2016-02-07T00:00:00.000Z"},{"geonameid":672254,"name":"Nicolești","asciiname":"Nicolesti","alternatenames":"Kaposztaszent,Kàposztászent,Nicolesii,Nicolesti,Nicoleşti","latitude":"46.4770600","longitude":"24.5557500","fclass":"P","fcode":"PPL","country":"RO","cc2":"RO","admin1":"27","admin2":"116288","admin3":"","admin4":"","population":0,"elevation":0,"gtopo30":307,"timezone":"Europe/Bucharest","moddate":"2013-04-21T00:00:00.000Z"},{"geonameid":664985,"name":"Tirimioara","asciiname":"Tirimioara","alternatenames":"Kistereme,Tirimioara","latitude":"46.4546300","longitude":"24.5478900","fclass":"P","fcode":"PPL","country":"RO","cc2":"RO","admin1":"27","admin2":"116288","admin3":"","admin4":"","population":167,"elevation":0,"gtopo30":314,"timezone":"Europe/Bucharest","moddate":"2013-04-21T00:00:00.000Z"}],"admin3":[],"alternateNames":[]},"__N_SSG":true}