{"pageProps":{"locale":"ro","admin2":{"geonameid":665468,"name":"Oraș Tăşnad","country":"RO","admin1":"32","admin2":"136642","admin3":"","latitude":"47.4833300","longitude":"22.5833300"},"admin1":{"geonameid":667869,"name":"Satu Mare","admin1":"32"},"locations":[{"geonameid":684611,"name":"Blaja","asciiname":"Blaja","alternatenames":"","latitude":"47.4589200","longitude":"22.5551100","fclass":"P","fcode":"PPL","country":"RO","cc2":"","admin1":"32","admin2":"136642","admin3":"","admin4":"","population":264,"elevation":0,"gtopo30":140,"timezone":"Europe/Bucharest","moddate":"2013-04-21T00:00:00.000Z"},{"geonameid":681934,"name":"Cig","asciiname":"Cig","alternatenames":"","latitude":"47.5285800","longitude":"22.6398200","fclass":"P","fcode":"PPL","country":"RO","cc2":"","admin1":"32","admin2":"136642","admin3":"","admin4":"","population":534,"elevation":0,"gtopo30":130,"timezone":"Europe/Bucharest","moddate":"2013-04-21T00:00:00.000Z"},{"geonameid":669106,"name":"Rațiu","asciiname":"Ratiu","alternatenames":"","latitude":"47.4398800","longitude":"22.6090600","fclass":"P","fcode":"PPL","country":"RO","cc2":"","admin1":"32","admin2":"136642","admin3":"","admin4":"","population":64,"elevation":0,"gtopo30":179,"timezone":"Europe/Bucharest","moddate":"2013-04-21T00:00:00.000Z"},{"geonameid":668014,"name":"Sărăuad","asciiname":"Sarauad","alternatenames":"","latitude":"47.4794400","longitude":"22.6255900","fclass":"P","fcode":"PPL","country":"RO","cc2":"","admin1":"32","admin2":"136642","admin3":"","admin4":"","population":1086,"elevation":0,"gtopo30":171,"timezone":"Europe/Bucharest","moddate":"2013-04-21T00:00:00.000Z"},{"geonameid":665469,"name":"Tăşnad","asciiname":"Tasnad","alternatenames":"Tasnad,Tăşnad","latitude":"47.4833300","longitude":"22.5833300","fclass":"P","fcode":"PPLA2","country":"RO","cc2":"","admin1":"32","admin2":"136642","admin3":"","admin4":"","population":9466,"elevation":0,"gtopo30":177,"timezone":"Europe/Bucharest","moddate":"2012-06-12T00:00:00.000Z"},{"geonameid":663571,"name":"Valea Morii","asciiname":"Valea Morii","alternatenames":"Moara Banffy,Moara Banfi,Valea Morii","latitude":"47.4962000","longitude":"22.5432300","fclass":"P","fcode":"PPL","country":"RO","cc2":"RO","admin1":"32","admin2":"136642","admin3":"","admin4":"","population":191,"elevation":0,"gtopo30":128,"timezone":"Europe/Bucharest","moddate":"2013-04-20T00:00:00.000Z"}],"admin3":[],"alternateNames":[]},"__N_SSG":true}