{"pageProps":{"locale":"ro","admin2":{"geonameid":686205,"name":"Oraș Ardud","country":"RO","admin1":"32","admin2":"136848","admin3":"","latitude":"47.6333300","longitude":"22.8833300"},"admin1":{"geonameid":667869,"name":"Satu Mare","admin1":"32"},"locations":[{"geonameid":686206,"name":"Ardud","asciiname":"Ardud","alternatenames":"Arded,Ardud,Erdeed,Erdod,Erdöd,Erdőd,Opstina Ardud,Opština Ardud,a er du de,ardwd,Ардуд,اردود,阿爾杜德","latitude":"47.6333300","longitude":"22.8833300","fclass":"P","fcode":"PPLA2","country":"RO","cc2":"","admin1":"32","admin2":"136848","admin3":"","admin4":"","population":6357,"elevation":0,"gtopo30":129,"timezone":"Europe/Bucharest","moddate":"2012-06-12T00:00:00.000Z"},{"geonameid":686204,"name":"Ardud-Vii","asciiname":"Ardud-Vii","alternatenames":"Ardud,Erdeed,Erdod,Erdőd","latitude":"47.6460800","longitude":"22.9361700","fclass":"P","fcode":"PPL","country":"RO","cc2":"","admin1":"32","admin2":"136848","admin3":"","admin4":"","population":123,"elevation":0,"gtopo30":173,"timezone":"Europe/Bucharest","moddate":"2019-02-10T00:00:00.000Z"},{"geonameid":685989,"name":"Baba Novac","asciiname":"Baba Novac","alternatenames":"","latitude":"47.6492200","longitude":"22.7930400","fclass":"P","fcode":"PPL","country":"RO","cc2":"","admin1":"32","admin2":"136848","admin3":"","admin4":"","population":648,"elevation":0,"gtopo30":127,"timezone":"Europe/Bucharest","moddate":"2013-04-21T00:00:00.000Z"},{"geonameid":677498,"name":"Gerăușa","asciiname":"Gerausa","alternatenames":"","latitude":"47.6083000","longitude":"22.9403800","fclass":"P","fcode":"PPL","country":"RO","cc2":"","admin1":"32","admin2":"136848","admin3":"","admin4":"","population":661,"elevation":0,"gtopo30":149,"timezone":"Europe/Bucharest","moddate":"2013-04-21T00:00:00.000Z"},{"geonameid":674213,"name":"Mădăras","asciiname":"Madaras","alternatenames":"","latitude":"47.6840300","longitude":"22.8655400","fclass":"P","fcode":"PPL","country":"RO","cc2":"","admin1":"32","admin2":"136848","admin3":"","admin4":"","population":1038,"elevation":0,"gtopo30":124,"timezone":"Europe/Bucharest","moddate":"2013-04-21T00:00:00.000Z"},{"geonameid":672159,"name":"Novăceni","asciiname":"Novaceni","alternatenames":"","latitude":"47.6333300","longitude":"22.8333300","fclass":"P","fcode":"PPL","country":"RO","cc2":"","admin1":"32","admin2":"136848","admin3":"","admin4":"","population":0,"elevation":0,"gtopo30":144,"timezone":"Europe/Bucharest","moddate":"2016-02-07T00:00:00.000Z"},{"geonameid":668016,"name":"Sărătura","asciiname":"Saratura","alternatenames":"","latitude":"47.6252800","longitude":"22.9427700","fclass":"P","fcode":"PPL","country":"RO","cc2":"","admin1":"32","admin2":"136848","admin3":"","admin4":"","population":0,"elevation":0,"gtopo30":157,"timezone":"Europe/Bucharest","moddate":"2013-04-21T00:00:00.000Z"}],"admin3":[],"alternateNames":[]},"__N_SSG":true}