{"pageProps":{"locale":"ro","admin2":{"geonameid":677916,"name":"Comuna Frăteşti","country":"RO","admin1":"42","admin2":"102909","admin3":"","latitude":"43.9549500","longitude":"25.9621200"},"admin1":{"geonameid":677104,"name":"Giurgiu","admin1":"42"},"locations":[{"geonameid":685680,"name":"Bălănoaia","asciiname":"Balanoaia","alternatenames":"","latitude":"43.9500000","longitude":"25.9333300","fclass":"P","fcode":"PPL","country":"RO","cc2":"","admin1":"42","admin2":"102909","admin3":"","admin4":"","population":0,"elevation":0,"gtopo30":28,"timezone":"Europe/Bucharest","moddate":"2016-02-07T00:00:00.000Z"},{"geonameid":682264,"name":"Cetatea","asciiname":"Cetatea","alternatenames":"Cetatea,Turbatu,Turbatul","latitude":"43.9510500","longitude":"25.9345000","fclass":"P","fcode":"PPL","country":"RO","cc2":"RO","admin1":"42","admin2":"102909","admin3":"","admin4":"","population":1039,"elevation":0,"gtopo30":27,"timezone":"Europe/Bucharest","moddate":"2013-04-21T00:00:00.000Z"},{"geonameid":677918,"name":"Frăteşti","asciiname":"Fratesti","alternatenames":"","latitude":"43.9666700","longitude":"25.9666700","fclass":"P","fcode":"PPLA2","country":"RO","cc2":"","admin1":"42","admin2":"102909","admin3":"","admin4":"","population":5527,"elevation":0,"gtopo30":23,"timezone":"Europe/Bucharest","moddate":"2012-06-12T00:00:00.000Z"},{"geonameid":668968,"name":"Remuș","asciiname":"Remus","alternatenames":"Remus,Remuş,Vasile Epurescu","latitude":"43.9429500","longitude":"25.9803900","fclass":"P","fcode":"PPL","country":"RO","cc2":"RO","admin1":"42","admin2":"102909","admin3":"","admin4":"","population":1996,"elevation":0,"gtopo30":24,"timezone":"Europe/Bucharest","moddate":"2013-04-21T00:00:00.000Z"}],"admin3":[],"alternateNames":[]},"__N_SSG":true}