{"pageProps":{"locale":"ro","admin2":{"geonameid":668609,"name":"Comuna Roşiori","country":"RO","admin1":"04","admin2":"24999","admin3":"","latitude":"46.7262000","longitude":"27.1044600"},"admin1":{"geonameid":685947,"name":"Bacău","admin1":"04"},"locations":[{"geonameid":673067,"name":"Misihănești","asciiname":"Misihanesti","alternatenames":"","latitude":"46.7291300","longitude":"27.1381400","fclass":"P","fcode":"PPL","country":"RO","cc2":"","admin1":"04","admin2":"24999","admin3":"","admin4":"","population":22,"elevation":0,"gtopo30":292,"timezone":"Europe/Bucharest","moddate":"2013-04-21T00:00:00.000Z"},{"geonameid":672334,"name":"Negușeni","asciiname":"Neguseni","alternatenames":"Neguseni,Negusenii,Neguşeni,Neguşenii","latitude":"46.7123100","longitude":"27.0695800","fclass":"P","fcode":"PPL","country":"RO","cc2":"RO","admin1":"04","admin2":"24999","admin3":"","admin4":"","population":76,"elevation":0,"gtopo30":222,"timezone":"Europe/Bucharest","moddate":"2013-04-21T00:00:00.000Z"},{"geonameid":670002,"name":"Poieni","asciiname":"Poieni","alternatenames":"Poenile de Jos,Poieni","latitude":"46.7527800","longitude":"27.0768100","fclass":"P","fcode":"PPL","country":"RO","cc2":"RO","admin1":"04","admin2":"24999","admin3":"","admin4":"","population":362,"elevation":0,"gtopo30":277,"timezone":"Europe/Bucharest","moddate":"2013-04-21T00:00:00.000Z"},{"geonameid":668618,"name":"Roşiori","asciiname":"Rosiori","alternatenames":"","latitude":"46.7166700","longitude":"27.0833300","fclass":"P","fcode":"PPLA2","country":"RO","cc2":"","admin1":"04","admin2":"24999","admin3":"","admin4":"","population":2137,"elevation":0,"gtopo30":232,"timezone":"Europe/Bucharest","moddate":"2012-06-12T00:00:00.000Z"},{"geonameid":663614,"name":"Valea Mare","asciiname":"Valea Mare","alternatenames":"Rusii,Valea Mare,Valea Mare Rusi,Valea Mare Ruşi","latitude":"46.7258000","longitude":"27.1188600","fclass":"P","fcode":"PPL","country":"RO","cc2":"RO","admin1":"04","admin2":"24999","admin3":"","admin4":"","population":349,"elevation":0,"gtopo30":236,"timezone":"Europe/Bucharest","moddate":"2013-04-20T00:00:00.000Z"},{"geonameid":663583,"name":"Valea Mică","asciiname":"Valea Mica","alternatenames":"Stramba,Strimba,Strâmba,Strîmba,Valea Mica,Valea Mică","latitude":"46.7143900","longitude":"27.1372200","fclass":"P","fcode":"PPL","country":"RO","cc2":"RO","admin1":"04","admin2":"24999","admin3":"","admin4":"","population":56,"elevation":0,"gtopo30":271,"timezone":"Europe/Bucharest","moddate":"2013-04-20T00:00:00.000Z"}],"admin3":[],"alternateNames":[]},"__N_SSG":true}