{"pageProps":{"locale":"ro","admin2":{"geonameid":680260,"name":"Comuna Crevedia","country":"RO","admin1":"16","admin2":"102286","admin3":"","latitude":"44.5978700","longitude":"25.9226000"},"admin1":{"geonameid":679385,"name":"Dâmboviţa","admin1":"16"},"locations":[{"geonameid":685387,"name":"Bărbătescu","asciiname":"Barbatescu","alternatenames":"Barbatescu,Bărbătescu,Cocani-Barbatescu,Cocani-Bărbătescu","latitude":"44.6333300","longitude":"25.9000000","fclass":"P","fcode":"PPLX","country":"RO","cc2":"","admin1":"16","admin2":"102286","admin3":"","admin4":"","population":0,"elevation":0,"gtopo30":117,"timezone":"Europe/Bucharest","moddate":"2016-02-07T00:00:00.000Z"},{"geonameid":681242,"name":"Cocani","asciiname":"Cocani","alternatenames":"Ciocani,Cocani","latitude":"44.6286100","longitude":"25.8950100","fclass":"P","fcode":"PPL","country":"RO","cc2":"RO","admin1":"16","admin2":"102286","admin3":"","admin4":"","population":585,"elevation":0,"gtopo30":115,"timezone":"Europe/Bucharest","moddate":"2013-04-21T00:00:00.000Z"},{"geonameid":680263,"name":"Creţuleşti","asciiname":"Cretulesti","alternatenames":"","latitude":"44.6000000","longitude":"25.9500000","fclass":"P","fcode":"PPLX","country":"RO","cc2":"","admin1":"16","admin2":"102286","admin3":"","admin4":"","population":0,"elevation":0,"gtopo30":109,"timezone":"Europe/Bucharest","moddate":"2016-02-07T00:00:00.000Z"},{"geonameid":680262,"name":"Crevedia","asciiname":"Crevedia","alternatenames":"Crevedia","latitude":"44.6000000","longitude":"25.9333300","fclass":"P","fcode":"PPLA2","country":"RO","cc2":"","admin1":"16","admin2":"102286","admin3":"","admin4":"","population":6674,"elevation":0,"gtopo30":110,"timezone":"Europe/Bucharest","moddate":"2012-06-12T00:00:00.000Z"},{"geonameid":680259,"name":"Crevedia de Jos","asciiname":"Crevedia de Jos","alternatenames":"","latitude":"44.6000000","longitude":"25.9166700","fclass":"P","fcode":"PPLX","country":"RO","cc2":"","admin1":"16","admin2":"102286","admin3":"","admin4":"","population":0,"elevation":0,"gtopo30":110,"timezone":"Europe/Bucharest","moddate":"2016-02-07T00:00:00.000Z"},{"geonameid":680258,"name":"Crevedia de Sus","asciiname":"Crevedia de Sus","alternatenames":"","latitude":"44.6166700","longitude":"25.9000000","fclass":"P","fcode":"PPLX","country":"RO","cc2":"","admin1":"16","admin2":"102286","admin3":"","admin4":"","population":0,"elevation":0,"gtopo30":113,"timezone":"Europe/Bucharest","moddate":"2016-02-07T00:00:00.000Z"},{"geonameid":680257,"name":"Crevedia-Lac","asciiname":"Crevedia-Lac","alternatenames":"Cretulesti-Falcoianu,Crevedia-Lac,Creţuleşti-Fălcoianu,Falcoianu,Falcoianul,Fălcoianu,Fălcoianul","latitude":"44.5833300","longitude":"25.9000000","fclass":"P","fcode":"PPLX","country":"RO","cc2":"","admin1":"16","admin2":"102286","admin3":"","admin4":"","population":0,"elevation":0,"gtopo30":112,"timezone":"Europe/Bucharest","moddate":"2016-02-07T00:00:00.000Z"},{"geonameid":679314,"name":"Dârza","asciiname":"Darza","alternatenames":"Darza,Darzea,Dirza,Dârza,Dârzea,Dîrza","latitude":"44.6017500","longitude":"25.9495600","fclass":"P","fcode":"PPL","country":"RO","cc2":"RO","admin1":"16","admin2":"102286","admin3":"","admin4":"","population":1869,"elevation":0,"gtopo30":109,"timezone":"Europe/Bucharest","moddate":"2013-04-21T00:00:00.000Z"},{"geonameid":673274,"name":"Mânăstirea","asciiname":"Manastirea","alternatenames":"Cretulesti-Minastire,Creţuleşti-Mînăstire,Manastirea,Minastirea,Minastirea Cretulesti,Mânastirea,Mînăstirea,Mînăstirea Creţuleşti","latitude":"44.5819100","longitude":"25.9310800","fclass":"P","fcode":"PPL","country":"RO","cc2":"RO","admin1":"16","admin2":"102286","admin3":"","admin4":"","population":633,"elevation":0,"gtopo30":107,"timezone":"Europe/Bucharest","moddate":"2013-04-21T00:00:00.000Z"},{"geonameid":668114,"name":"Samurcași","asciiname":"Samurcasi","alternatenames":"Cretulesti-Samurcasi,Creţuleşti-Samurcaşi,Samurcas,Samurcasi,Samurcaş,Samurcaşi","latitude":"44.5754800","longitude":"25.9205100","fclass":"P","fcode":"PPL","country":"RO","cc2":"RO","admin1":"16","admin2":"102286","admin3":"","admin4":"","population":961,"elevation":0,"gtopo30":101,"timezone":"Europe/Bucharest","moddate":"2013-04-21T00:00:00.000Z"}],"admin3":[],"alternateNames":[]},"__N_SSG":true}