{"pageProps":{"locale":"ro","admin2":{"geonameid":8334749,"name":"Comuna Cãpuşu Mare","country":"RO","admin1":"13","admin2":"56568","admin3":"","latitude":"46.7874600","longitude":"23.2346200"},"admin1":{"geonameid":681291,"name":"Cluj","admin1":"13"},"locations":[{"geonameid":686619,"name":"Agârbiciu","asciiname":"Agarbiciu","alternatenames":"Agarbiciu,Agarbiciul,Agirbiciu,Agârbiciu,Agârbiciul,Agîrbiciu","latitude":"46.7702100","longitude":"23.2788700","fclass":"P","fcode":"PPL","country":"RO","cc2":"RO","admin1":"13","admin2":"56568","admin3":"","admin4":"","population":564,"elevation":0,"gtopo30":544,"timezone":"Europe/Bucharest","moddate":"2013-04-21T00:00:00.000Z"},{"geonameid":685653,"name":"Bălcești","asciiname":"Balcesti","alternatenames":"","latitude":"46.7718700","longitude":"23.1937400","fclass":"P","fcode":"PPL","country":"RO","cc2":"","admin1":"13","admin2":"56568","admin3":"","admin4":"","population":114,"elevation":0,"gtopo30":840,"timezone":"Europe/Bucharest","moddate":"2013-04-21T00:00:00.000Z"},{"geonameid":682750,"name":"Căpuşu Mare","asciiname":"Capusu Mare","alternatenames":"Capusu Mare,Capusul-Mare,Căpuşu Mare,Căpuşul-Mare","latitude":"46.7833300","longitude":"23.3000000","fclass":"P","fcode":"PPLA2","country":"RO","cc2":"","admin1":"13","admin2":"56568","admin3":"","admin4":"","population":3645,"elevation":0,"gtopo30":454,"timezone":"Europe/Bucharest","moddate":"2012-06-12T00:00:00.000Z"},{"geonameid":682749,"name":"Căpușu Mic","asciiname":"Capusu Mic","alternatenames":"Capusu Mic,Capusul-Mic,Căpuşu Mic,Căpuşul-Mic","latitude":"46.7973200","longitude":"23.2544800","fclass":"P","fcode":"PPL","country":"RO","cc2":"RO","admin1":"13","admin2":"56568","admin3":"","admin4":"","population":907,"elevation":0,"gtopo30":488,"timezone":"Europe/Bucharest","moddate":"2013-04-21T00:00:00.000Z"},{"geonameid":679353,"name":"Dângău Mare","asciiname":"Dangau Mare","alternatenames":"Dangau,Dangaul-Mare,Dingau Mare,Dângău,Dângăul-Mare,Dîngău Mare","latitude":"46.7570500","longitude":"23.2025100","fclass":"P","fcode":"PPL","country":"RO","cc2":"RO","admin1":"13","admin2":"56568","admin3":"","admin4":"","population":382,"elevation":0,"gtopo30":949,"timezone":"Europe/Bucharest","moddate":"2013-04-21T00:00:00.000Z"},{"geonameid":679352,"name":"Dângău Mic","asciiname":"Dangau Mic","alternatenames":"Dangaul Mic,Dingau Mic,Dângăul Mic,Dîngău Mic","latitude":"46.7551800","longitude":"23.1919100","fclass":"P","fcode":"PPL","country":"RO","cc2":"RO","admin1":"13","admin2":"56568","admin3":"","admin4":"","population":327,"elevation":0,"gtopo30":950,"timezone":"Europe/Bucharest","moddate":"2013-04-21T00:00:00.000Z"},{"geonameid":678742,"name":"Dumbrava","asciiname":"Dumbrava","alternatenames":"Dumbrava,Dumbravu,Dumbrăvu","latitude":"46.8250200","longitude":"23.2176300","fclass":"P","fcode":"PPL","country":"RO","cc2":"RO","admin1":"13","admin2":"56568","admin3":"","admin4":"","population":419,"elevation":0,"gtopo30":639,"timezone":"Europe/Bucharest","moddate":"2013-04-21T00:00:00.000Z"},{"geonameid":671387,"name":"Păniceni","asciiname":"Paniceni","alternatenames":"","latitude":"46.8113300","longitude":"23.1874500","fclass":"P","fcode":"PPL","country":"RO","cc2":"","admin1":"13","admin2":"56568","admin3":"","admin4":"","population":413,"elevation":0,"gtopo30":641,"timezone":"Europe/Bucharest","moddate":"2013-04-21T00:00:00.000Z"},{"geonameid":666014,"name":"Straja","asciiname":"Straja","alternatenames":"","latitude":"46.8073300","longitude":"23.2952300","fclass":"P","fcode":"PPL","country":"RO","cc2":"","admin1":"13","admin2":"56568","admin3":"","admin4":"","population":112,"elevation":0,"gtopo30":547,"timezone":"Europe/Bucharest","moddate":"2013-04-21T00:00:00.000Z"}],"admin3":[],"alternateNames":[]},"__N_SSG":true}