{"pageProps":{"locale":"ro","admin2":{"geonameid":676454,"name":"Comuna Gura Vitioarei","country":"RO","admin1":"30","admin2":"131835","admin3":"","latitude":"45.1495100","longitude":"26.0330800"},"admin1":{"geonameid":669737,"name":"Prahova","admin1":"30"},"locations":[{"geonameid":683387,"name":"Bughea de Jos","asciiname":"Bughea de Jos","alternatenames":"Bughea de Jos,Bughile de Jos","latitude":"45.1798500","longitude":"26.0204400","fclass":"P","fcode":"PPL","country":"RO","cc2":"RO","admin1":"30","admin2":"131835","admin3":"","admin4":"","population":1021,"elevation":0,"gtopo30":373,"timezone":"Europe/Bucharest","moddate":"2013-04-21T00:00:00.000Z"},{"geonameid":678476,"name":"Făgetu","asciiname":"Fagetu","alternatenames":"Fagetu,Făgetu,Scaioi,Scaiosi,Scăioi,Scăioşi","latitude":"45.1366800","longitude":"26.0201800","fclass":"P","fcode":"PPL","country":"RO","cc2":"RO","admin1":"30","admin2":"131835","admin3":"","admin4":"","population":1269,"elevation":0,"gtopo30":293,"timezone":"Europe/Bucharest","moddate":"2013-04-21T00:00:00.000Z"},{"geonameid":677810,"name":"Fundeni","asciiname":"Fundeni","alternatenames":"","latitude":"45.1168500","longitude":"26.0238300","fclass":"P","fcode":"PPL","country":"RO","cc2":"","admin1":"30","admin2":"131835","admin3":"","admin4":"","population":794,"elevation":0,"gtopo30":294,"timezone":"Europe/Bucharest","moddate":"2013-04-21T00:00:00.000Z"},{"geonameid":676455,"name":"Gura Viţioarei","asciiname":"Gura Vitioarei","alternatenames":"","latitude":"45.1500000","longitude":"26.0333300","fclass":"P","fcode":"PPLA2","country":"RO","cc2":"","admin1":"30","admin2":"131835","admin3":"","admin4":"","population":5947,"elevation":0,"gtopo30":302,"timezone":"Europe/Bucharest","moddate":"2012-06-12T00:00:00.000Z"},{"geonameid":670094,"name":"Poiana Copăceni","asciiname":"Poiana Copaceni","alternatenames":"Copaceni,Copăceni,Poeana Copaciului,Poiana Copaceni,Poiana Copăceni","latitude":"45.1639200","longitude":"26.0691800","fclass":"P","fcode":"PPL","country":"RO","cc2":"RO","admin1":"30","admin2":"131835","admin3":"","admin4":"","population":1015,"elevation":0,"gtopo30":337,"timezone":"Europe/Bucharest","moddate":"2013-04-21T00:00:00.000Z"}],"admin3":[],"alternateNames":[{"alternatenameId":8326236,"geonameid":669737,"isoLanguage":"en","alternateName":"Prahova","isPreferredName":true,"isShortName":true,"isColloquial":false,"isHistoric":false}]},"__N_SSG":true}