{"pageProps":{"locale":"ro","admin2":{"geonameid":680621,"name":"Comuna Cosmeşti","country":"RO","admin1":"18","admin2":"76040","admin3":"","latitude":"45.8492600","longitude":"27.3160500"},"admin1":{"geonameid":677692,"name":"Galaţi","admin1":"18"},"locations":[{"geonameid":685560,"name":"Băltăreţi","asciiname":"Baltareti","alternatenames":"Baltaret,Baltareti,Baltaretu,Băltăreţ,Băltăreţi,Băltăreţu","latitude":"45.8546300","longitude":"27.3247100","fclass":"P","fcode":"PPL","country":"RO","cc2":"","admin1":"18","admin2":"76040","admin3":"","admin4":"","population":0,"elevation":0,"gtopo30":72,"timezone":"Europe/Bucharest","moddate":"2016-02-07T00:00:00.000Z"},{"geonameid":680623,"name":"Cosmeşti","asciiname":"Cosmesti","alternatenames":"Cosmesti,Cosmesti din Deal,Cosmesti-Deal,Cosmestii din Deal,Cosmeşti,Cosmeşti din Deal,Cosmeşti-Deal,Cosmeştii din Deal,Cozmesti-Deal,Cozmeşti-Deal","latitude":"45.8701700","longitude":"27.3111500","fclass":"P","fcode":"PPLA2","country":"RO","cc2":"","admin1":"18","admin2":"76040","admin3":"","admin4":"","population":6526,"elevation":0,"gtopo30":81,"timezone":"Europe/Bucharest","moddate":"2012-06-12T00:00:00.000Z"},{"geonameid":680620,"name":"Cosmeștii-Vale","asciiname":"Cosmestii-Vale","alternatenames":"Cosmesti din Vale,Cosmesti-Vale,Cosmestii din Vale,Cosmeşti din Vale,Cosmeşti-Vale,Cosmeştii din Vale,Cozmesti-Vale,Cozmeşti-Vale","latitude":"45.8693100","longitude":"27.2877100","fclass":"P","fcode":"PPL","country":"RO","cc2":"RO","admin1":"18","admin2":"76040","admin3":"","admin4":"","population":1297,"elevation":0,"gtopo30":52,"timezone":"Europe/Bucharest","moddate":"2013-04-21T00:00:00.000Z"},{"geonameid":677773,"name":"Furcenii Noi","asciiname":"Furcenii Noi","alternatenames":"","latitude":"45.8111800","longitude":"27.3395400","fclass":"P","fcode":"PPL","country":"RO","cc2":"","admin1":"18","admin2":"76040","admin3":"","admin4":"","population":1465,"elevation":0,"gtopo30":62,"timezone":"Europe/Bucharest","moddate":"2013-04-21T00:00:00.000Z"},{"geonameid":677772,"name":"Furcenii Vechi","asciiname":"Furcenii Vechi","alternatenames":"Furceni,Furceni-Vechi,Furcenii Vechi","latitude":"45.8360400","longitude":"27.3280600","fclass":"P","fcode":"PPL","country":"RO","cc2":"RO","admin1":"18","admin2":"76040","admin3":"","admin4":"","population":0,"elevation":0,"gtopo30":67,"timezone":"Europe/Bucharest","moddate":"2016-02-07T00:00:00.000Z"},{"geonameid":667832,"name":"Satu Nou","asciiname":"Satu Nou","alternatenames":"","latitude":"45.8447700","longitude":"27.3182800","fclass":"P","fcode":"PPL","country":"RO","cc2":"","admin1":"18","admin2":"76040","admin3":"","admin4":"","population":162,"elevation":0,"gtopo30":50,"timezone":"Europe/Bucharest","moddate":"2016-01-30T00:00:00.000Z"}],"admin3":[],"alternateNames":[]},"__N_SSG":true}