{"pageProps":{"locale":"ro","admin2":{"geonameid":668630,"name":"Comuna Roşieşti","country":"RO","admin1":"38","admin2":"165817","admin3":"","latitude":"46.4510700","longitude":"27.8920200"},"admin1":{"geonameid":663116,"name":"Vaslui","admin1":"38"},"locations":[{"geonameid":681174,"name":"Codreni","asciiname":"Codreni","alternatenames":"Codreni,Talharesti,Tilharesti,Tîlhăreşti,Tălhăreşti","latitude":"46.4808900","longitude":"27.9054400","fclass":"P","fcode":"PPL","country":"RO","cc2":"RO","admin1":"38","admin2":"165817","admin3":"","admin4":"","population":131,"elevation":0,"gtopo30":182,"timezone":"Europe/Bucharest","moddate":"2013-04-21T00:00:00.000Z"},{"geonameid":679144,"name":"Dolheni","asciiname":"Dolheni","alternatenames":"","latitude":"46.4666700","longitude":"27.9000000","fclass":"P","fcode":"PPL","country":"RO","cc2":"","admin1":"38","admin2":"165817","admin3":"","admin4":"","population":0,"elevation":0,"gtopo30":153,"timezone":"Europe/Bucharest","moddate":"2016-02-07T00:00:00.000Z"},{"geonameid":668629,"name":"Gara Roșiești","asciiname":"Gara Rosiesti","alternatenames":"","latitude":"46.4166700","longitude":"27.8333300","fclass":"P","fcode":"PPL","country":"RO","cc2":"","admin1":"38","admin2":"165817","admin3":"","admin4":"","population":339,"elevation":0,"gtopo30":80,"timezone":"Europe/Bucharest","moddate":"2016-01-08T00:00:00.000Z"},{"geonameid":676524,"name":"Gura Idrici","asciiname":"Gura Idrici","alternatenames":"","latitude":"46.4141700","longitude":"27.8832500","fclass":"P","fcode":"PPL","country":"RO","cc2":"","admin1":"38","admin2":"165817","admin3":"","admin4":"","population":510,"elevation":0,"gtopo30":114,"timezone":"Europe/Bucharest","moddate":"2013-04-21T00:00:00.000Z"},{"geonameid":675742,"name":"Idrici","asciiname":"Idrici","alternatenames":"","latitude":"46.4670200","longitude":"27.9005200","fclass":"P","fcode":"PPL","country":"RO","cc2":"","admin1":"38","admin2":"165817","admin3":"","admin4":"","population":409,"elevation":0,"gtopo30":150,"timezone":"Europe/Bucharest","moddate":"2013-04-21T00:00:00.000Z"},{"geonameid":669021,"name":"Rediu","asciiname":"Rediu","alternatenames":"Radiul,Rediu,Rădiul","latitude":"46.4740900","longitude":"27.8741300","fclass":"P","fcode":"PPL","country":"RO","cc2":"RO","admin1":"38","admin2":"165817","admin3":"","admin4":"","population":177,"elevation":0,"gtopo30":235,"timezone":"Europe/Bucharest","moddate":"2013-04-21T00:00:00.000Z"},{"geonameid":668631,"name":"Roşieşti","asciiname":"Rosiesti","alternatenames":"Rosiesti,Roşieşti","latitude":"46.4333300","longitude":"27.8833300","fclass":"P","fcode":"PPLA2","country":"RO","cc2":"","admin1":"38","admin2":"165817","admin3":"","admin4":"","population":3769,"elevation":0,"gtopo30":185,"timezone":"Europe/Bucharest","moddate":"2012-06-12T00:00:00.000Z"},{"geonameid":663701,"name":"Valea lui Darie","asciiname":"Valea lui Darie","alternatenames":"","latitude":"46.4492600","longitude":"27.9429600","fclass":"P","fcode":"PPL","country":"RO","cc2":"","admin1":"38","admin2":"165817","admin3":"","admin4":"","population":708,"elevation":0,"gtopo30":207,"timezone":"Europe/Bucharest","moddate":"2013-04-20T00:00:00.000Z"}],"admin3":[],"alternateNames":[]},"__N_SSG":true}