{"pageProps":{"locale":"ro","admin2":{"geonameid":678259,"name":"Oraş Filiaşi","country":"RO","admin1":"17","admin2":"70414","admin3":"","latitude":"44.5684700","longitude":"23.5516400"},"admin1":{"geonameid":679134,"name":"jud. Dolj","admin1":"17"},"locations":[{"geonameid":686464,"name":"Almăjel","asciiname":"Almajel","alternatenames":"","latitude":"44.5561000","longitude":"23.5943200","fclass":"P","fcode":"PPL","country":"RO","cc2":"","admin1":"17","admin2":"70414","admin3":"","admin4":"","population":117,"elevation":0,"gtopo30":205,"timezone":"Europe/Bucharest","moddate":"2013-04-21T00:00:00.000Z"},{"geonameid":684849,"name":"Bâlta","asciiname":"Balta","alternatenames":"Balta,Bilta,Bâlta,Bîlta","latitude":"44.5356400","longitude":"23.4701900","fclass":"P","fcode":"PPL","country":"RO","cc2":"RO","admin1":"17","admin2":"70414","admin3":"","admin4":"","population":1203,"elevation":0,"gtopo30":105,"timezone":"Europe/Bucharest","moddate":"2013-04-21T00:00:00.000Z"},{"geonameid":683864,"name":"Braniște","asciiname":"Braniste","alternatenames":"Braniste,Branistea,Braniştea","latitude":"44.6036800","longitude":"23.5574000","fclass":"P","fcode":"PPL","country":"RO","cc2":"RO","admin1":"17","admin2":"70414","admin3":"","admin4":"","population":112,"elevation":0,"gtopo30":188,"timezone":"Europe/Bucharest","moddate":"2013-04-21T00:00:00.000Z"},{"geonameid":678261,"name":"Filiaşi","asciiname":"Filiasi","alternatenames":"Filias,Filiasi,Filiaş,Filiaşi","latitude":"44.5500000","longitude":"23.5166700","fclass":"P","fcode":"PPLA2","country":"RO","cc2":"","admin1":"17","admin2":"70414","admin3":"","admin4":"","population":18995,"elevation":0,"gtopo30":106,"timezone":"Europe/Bucharest","moddate":"2020-02-12T00:00:00.000Z"},{"geonameid":677908,"name":"Fratoștița","asciiname":"Fratostita","alternatenames":"","latitude":"44.5867100","longitude":"23.5704400","fclass":"P","fcode":"PPL","country":"RO","cc2":"","admin1":"17","admin2":"70414","admin3":"","admin4":"","population":2381,"elevation":0,"gtopo30":174,"timezone":"Europe/Bucharest","moddate":"2013-04-21T00:00:00.000Z"},{"geonameid":669400,"name":"Răcarii de Sus","asciiname":"Racarii de Sus","alternatenames":"","latitude":"44.5353900","longitude":"23.5574600","fclass":"P","fcode":"PPL","country":"RO","cc2":"","admin1":"17","admin2":"70414","admin3":"","admin4":"","population":1187,"elevation":0,"gtopo30":137,"timezone":"Europe/Bucharest","moddate":"2013-04-21T00:00:00.000Z"},{"geonameid":669313,"name":"Racoviţa de Jos","asciiname":"Racovita de Jos","alternatenames":"","latitude":"44.5333300","longitude":"23.4666700","fclass":"P","fcode":"PPLX","country":"RO","cc2":"","admin1":"17","admin2":"70414","admin3":"","admin4":"","population":0,"elevation":0,"gtopo30":135,"timezone":"Europe/Bucharest","moddate":"2016-02-07T00:00:00.000Z"},{"geonameid":669312,"name":"Racoviţa de Sus","asciiname":"Racovita de Sus","alternatenames":"","latitude":"44.5333300","longitude":"23.4666700","fclass":"P","fcode":"PPLX","country":"RO","cc2":"","admin1":"17","admin2":"70414","admin3":"","admin4":"","population":0,"elevation":0,"gtopo30":135,"timezone":"Europe/Bucharest","moddate":"2016-02-07T00:00:00.000Z"},{"geonameid":664066,"name":"Uscăci","asciiname":"Uscaci","alternatenames":"","latitude":"44.6084600","longitude":"23.5882400","fclass":"P","fcode":"PPL","country":"RO","cc2":"","admin1":"17","admin2":"70414","admin3":"","admin4":"","population":168,"elevation":0,"gtopo30":269,"timezone":"Europe/Bucharest","moddate":"2013-04-20T00:00:00.000Z"}],"admin3":[],"alternateNames":[]},"__N_SSG":true}