{"pageProps":{"locale":"ro","admin2":{"geonameid":670369,"name":"Comuna Pochidia","country":"RO","admin1":"38","admin2":"167311","admin3":"","latitude":"46.0523300","longitude":"27.5845000"},"admin1":{"geonameid":663116,"name":"Vaslui","admin1":"38"},"locations":[{"geonameid":684177,"name":"Borodești","asciiname":"Borodesti","alternatenames":"","latitude":"46.0569700","longitude":"27.5848500","fclass":"P","fcode":"PPL","country":"RO","cc2":"","admin1":"38","admin2":"167311","admin3":"","admin4":"","population":304,"elevation":0,"gtopo30":107,"timezone":"Europe/Bucharest","moddate":"2013-04-21T00:00:00.000Z"},{"geonameid":670370,"name":"Pochidia","asciiname":"Pochidia","alternatenames":"Pochidia","latitude":"46.0431800","longitude":"27.5874600","fclass":"P","fcode":"PPLA2","country":"RO","cc2":"","admin1":"38","admin2":"167311","admin3":"","admin4":"","population":229,"elevation":0,"gtopo30":108,"timezone":"Europe/Bucharest","moddate":"2013-04-21T00:00:00.000Z"},{"geonameid":668216,"name":"Sălceni","asciiname":"Salceni","alternatenames":"","latitude":"46.0649900","longitude":"27.5690700","fclass":"P","fcode":"PPL","country":"RO","cc2":"","admin1":"38","admin2":"167311","admin3":"","admin4":"","population":875,"elevation":0,"gtopo30":96,"timezone":"Europe/Bucharest","moddate":"2013-04-21T00:00:00.000Z"},{"geonameid":667831,"name":"Satu Nou","asciiname":"Satu Nou","alternatenames":"","latitude":"46.0441900","longitude":"27.5966100","fclass":"P","fcode":"PPL","country":"RO","cc2":"","admin1":"38","admin2":"167311","admin3":"","admin4":"","population":217,"elevation":0,"gtopo30":109,"timezone":"Europe/Bucharest","moddate":"2013-04-21T00:00:00.000Z"}],"admin3":[],"alternateNames":[]},"__N_SSG":true}