{"pageProps":{"locale":"ro","admin2":{"geonameid":666063,"name":"Comuna Stoeneşti","country":"RO","admin1":"39","admin2":"173230","admin3":"","latitude":"45.1471500","longitude":"24.1633700"},"admin1":{"geonameid":662892,"name":"Vâlcea","admin1":"39"},"locations":[{"geonameid":684786,"name":"Bârlogu","asciiname":"Barlogu","alternatenames":"Barlogu,Barlogul,Birlogu,Bârlogu,Bârlogul,Bîrlogu","latitude":"45.1060700","longitude":"24.1502000","fclass":"P","fcode":"PPL","country":"RO","cc2":"RO","admin1":"39","admin2":"173230","admin3":"","admin4":"","population":453,"elevation":0,"gtopo30":338,"timezone":"Europe/Bucharest","moddate":"2013-04-21T00:00:00.000Z"},{"geonameid":683460,"name":"Budurăști","asciiname":"Budurasti","alternatenames":"Budarasti,Budurasti,Budurăşti,Budărăşti","latitude":"45.1393400","longitude":"24.1480000","fclass":"P","fcode":"PPL","country":"RO","cc2":"RO","admin1":"39","admin2":"173230","admin3":"","admin4":"","population":230,"elevation":0,"gtopo30":361,"timezone":"Europe/Bucharest","moddate":"2013-04-21T00:00:00.000Z"},{"geonameid":679532,"name":"Deleni","asciiname":"Deleni","alternatenames":"Deleni,Ovreesti,Ovreeşti,Ovreiesti,Ovreiesţi","latitude":"45.1589500","longitude":"24.1697000","fclass":"P","fcode":"PPL","country":"RO","cc2":"RO","admin1":"39","admin2":"173230","admin3":"","admin4":"","population":84,"elevation":0,"gtopo30":462,"timezone":"Europe/Bucharest","moddate":"2013-04-21T00:00:00.000Z"},{"geonameid":679235,"name":"Dobriceni","asciiname":"Dobriceni","alternatenames":"Dobriceni,Dooriceni","latitude":"45.1500000","longitude":"24.1333300","fclass":"P","fcode":"PPL","country":"RO","cc2":"","admin1":"39","admin2":"173230","admin3":"","admin4":"","population":0,"elevation":0,"gtopo30":445,"timezone":"Europe/Bucharest","moddate":"2016-02-07T00:00:00.000Z"},{"geonameid":676629,"name":"Gruieri","asciiname":"Gruieri","alternatenames":"","latitude":"45.1500000","longitude":"24.1833300","fclass":"P","fcode":"PPL","country":"RO","cc2":"","admin1":"39","admin2":"173230","admin3":"","admin4":"","population":207,"elevation":0,"gtopo30":476,"timezone":"Europe/Bucharest","moddate":"2016-01-10T00:00:00.000Z"},{"geonameid":676614,"name":"Gruiu","asciiname":"Gruiu","alternatenames":"Gruiu,Gruiul","latitude":"45.1480600","longitude":"24.1698700","fclass":"P","fcode":"PPL","country":"RO","cc2":"","admin1":"39","admin2":"173230","admin3":"","admin4":"","population":0,"elevation":0,"gtopo30":378,"timezone":"Europe/Bucharest","moddate":"2016-02-07T00:00:00.000Z"},{"geonameid":674787,"name":"Liliacu","asciiname":"Liliacu","alternatenames":"","latitude":"45.1000000","longitude":"24.1500000","fclass":"P","fcode":"PPLX","country":"RO","cc2":"","admin1":"39","admin2":"173230","admin3":"","admin4":"","population":0,"elevation":0,"gtopo30":372,"timezone":"Europe/Bucharest","moddate":"2016-02-07T00:00:00.000Z"},{"geonameid":673774,"name":"Marineşti","asciiname":"Marinesti","alternatenames":"","latitude":"45.1500000","longitude":"24.1500000","fclass":"P","fcode":"PPLX","country":"RO","cc2":"","admin1":"39","admin2":"173230","admin3":"","admin4":"","population":0,"elevation":0,"gtopo30":416,"timezone":"Europe/Bucharest","moddate":"2016-02-07T00:00:00.000Z"},{"geonameid":672944,"name":"Mogoșești","asciiname":"Mogosesti","alternatenames":"","latitude":"45.1280800","longitude":"24.1544600","fclass":"P","fcode":"PPL","country":"RO","cc2":"","admin1":"39","admin2":"173230","admin3":"","admin4":"","population":421,"elevation":0,"gtopo30":338,"timezone":"Europe/Bucharest","moddate":"2013-04-21T00:00:00.000Z"},{"geonameid":672432,"name":"Neghinești","asciiname":"Neghinesti","alternatenames":"","latitude":"45.1568100","longitude":"24.1838600","fclass":"P","fcode":"PPL","country":"RO","cc2":"","admin1":"39","admin2":"173230","admin3":"","admin4":"","population":172,"elevation":0,"gtopo30":511,"timezone":"Europe/Bucharest","moddate":"2013-04-21T00:00:00.000Z"},{"geonameid":670636,"name":"Piscu Mare","asciiname":"Piscu Mare","alternatenames":"Cacova,Piscu Mare","latitude":"45.1500000","longitude":"24.1833300","fclass":"P","fcode":"PPL","country":"RO","cc2":"","admin1":"39","admin2":"173230","admin3":"","admin4":"","population":0,"elevation":0,"gtopo30":476,"timezone":"Europe/Bucharest","moddate":"2016-02-07T00:00:00.000Z"},{"geonameid":669893,"name":"Popești","asciiname":"Popesti","alternatenames":"","latitude":"45.1540200","longitude":"24.1731400","fclass":"P","fcode":"PPL","country":"RO","cc2":"","admin1":"39","admin2":"173230","admin3":"","admin4":"","population":195,"elevation":0,"gtopo30":434,"timezone":"Europe/Bucharest","moddate":"2013-04-21T00:00:00.000Z"},{"geonameid":668917,"name":"Richiţeşti","asciiname":"Richitesti","alternatenames":"","latitude":"45.1166700","longitude":"24.1666700","fclass":"P","fcode":"PPLX","country":"RO","cc2":"","admin1":"39","admin2":"173230","admin3":"","admin4":"","population":0,"elevation":0,"gtopo30":307,"timezone":"Europe/Bucharest","moddate":"2016-02-07T00:00:00.000Z"},{"geonameid":666069,"name":"Stoeneşti","asciiname":"Stoenesti","alternatenames":"","latitude":"45.1166700","longitude":"24.1666700","fclass":"P","fcode":"PPLA2","country":"RO","cc2":"","admin1":"39","admin2":"173230","admin3":"","admin4":"","population":3863,"elevation":0,"gtopo30":307,"timezone":"Europe/Bucharest","moddate":"2012-06-12T00:00:00.000Z"},{"geonameid":665697,"name":"Suseni","asciiname":"Suseni","alternatenames":"","latitude":"45.1687200","longitude":"24.1383200","fclass":"P","fcode":"PPL","country":"RO","cc2":"","admin1":"39","admin2":"173230","admin3":"","admin4":"","population":393,"elevation":0,"gtopo30":491,"timezone":"Europe/Bucharest","moddate":"2013-04-21T00:00:00.000Z"},{"geonameid":665668,"name":"Susuri","asciiname":"Susuri","alternatenames":"","latitude":"45.1500000","longitude":"24.1500000","fclass":"P","fcode":"PPLX","country":"RO","cc2":"","admin1":"39","admin2":"173230","admin3":"","admin4":"","population":0,"elevation":0,"gtopo30":416,"timezone":"Europe/Bucharest","moddate":"2016-02-07T00:00:00.000Z"},{"geonameid":665127,"name":"Ţigănia","asciiname":"Tigania","alternatenames":"","latitude":"45.1666700","longitude":"24.1333300","fclass":"P","fcode":"PPLX","country":"RO","cc2":"","admin1":"39","admin2":"173230","admin3":"","admin4":"","population":0,"elevation":0,"gtopo30":438,"timezone":"Europe/Bucharest","moddate":"2016-02-07T00:00:00.000Z"},{"geonameid":663044,"name":"Vereşti","asciiname":"Veresti","alternatenames":"","latitude":"45.1166700","longitude":"24.1666700","fclass":"P","fcode":"PPLX","country":"RO","cc2":"","admin1":"39","admin2":"173230","admin3":"","admin4":"","population":0,"elevation":0,"gtopo30":307,"timezone":"Europe/Bucharest","moddate":"2016-02-07T00:00:00.000Z"},{"geonameid":662151,"name":"Zmeurătu","asciiname":"Zmeuratu","alternatenames":"Zmeurat,Zmeuratu,Zmeuratul,Zmeurăt,Zmeurătu","latitude":"45.1500000","longitude":"24.1833300","fclass":"P","fcode":"PPL","country":"RO","cc2":"","admin1":"39","admin2":"173230","admin3":"","admin4":"","population":0,"elevation":0,"gtopo30":476,"timezone":"Europe/Bucharest","moddate":"2020-06-10T00:00:00.000Z"}],"admin3":[],"alternateNames":[]},"__N_SSG":true}