{"pageProps":{"locale":"ro","admin2":{"geonameid":667529,"name":"Comuna Seaca de Pădure","country":"RO","admin1":"17","admin2":"74135","admin3":"","latitude":"44.3710800","longitude":"23.3235900"},"admin1":{"geonameid":679134,"name":"jud. Dolj","admin1":"17"},"locations":[{"geonameid":669378,"name":"Răchita de Sus","asciiname":"Rachita de Sus","alternatenames":"","latitude":"44.3647900","longitude":"23.3589100","fclass":"P","fcode":"PPL","country":"RO","cc2":"","admin1":"17","admin2":"74135","admin3":"","admin4":"","population":285,"elevation":0,"gtopo30":184,"timezone":"Europe/Bucharest","moddate":"2013-04-21T00:00:00.000Z"},{"geonameid":667856,"name":"Satu Nou","asciiname":"Satu Nou","alternatenames":"Satu Nou,Satul Nou","latitude":"44.3833300","longitude":"23.2833300","fclass":"P","fcode":"PPL","country":"RO","cc2":"","admin1":"17","admin2":"74135","admin3":"","admin4":"","population":0,"elevation":0,"gtopo30":209,"timezone":"Europe/Bucharest","moddate":"2016-02-07T00:00:00.000Z"},{"geonameid":667530,"name":"Seaca de Pădure","asciiname":"Seaca de Padure","alternatenames":"Seaca de Padure,Seaca de Pădure","latitude":"44.3661100","longitude":"23.3058700","fclass":"P","fcode":"PPLA2","country":"RO","cc2":"","admin1":"17","admin2":"74135","admin3":"","admin4":"","population":699,"elevation":0,"gtopo30":219,"timezone":"Europe/Bucharest","moddate":"2013-04-21T00:00:00.000Z"},{"geonameid":663074,"name":"Veleni","asciiname":"Veleni","alternatenames":"Seaca Batrinu,Seaca Bătrînu,Veleni","latitude":"44.3823400","longitude":"23.3059900","fclass":"P","fcode":"PPL","country":"RO","cc2":"RO","admin1":"17","admin2":"74135","admin3":"","admin4":"","population":721,"elevation":0,"gtopo30":196,"timezone":"Europe/Bucharest","moddate":"2013-04-20T00:00:00.000Z"}],"admin3":[],"alternateNames":[]},"__N_SSG":true}