{"pageProps":{"locale":"ro","admin2":{"geonameid":677805,"name":"Comuna Fundeni","country":"RO","admin1":"18","admin2":"76353","admin3":"","latitude":"45.5673600","longitude":"27.5510400"},"admin1":{"geonameid":677692,"name":"Gala≈£i","admin1":"18"},"locations":[{"geonameid":680076,"name":"Cruceru","asciiname":"Cruceru","alternatenames":"Cluceru,Cruceru","latitude":"45.5500000","longitude":"27.5666700","fclass":"P","fcode":"PPL","country":"RO","cc2":"","admin1":"18","admin2":"76353","admin3":"","admin4":"","population":0,"elevation":0,"gtopo30":12,"timezone":"Europe/Bucharest","moddate":"2016-02-07T00:00:00.000Z"},{"geonameid":677808,"name":"Fundeni","asciiname":"Fundeni","alternatenames":"Fundeni,Ion C. Bratianu","latitude":"45.5412300","longitude":"27.5405600","fclass":"P","fcode":"PPLA2","country":"RO","cc2":"","admin1":"18","admin2":"76353","admin3":"","admin4":"","population":3954,"elevation":0,"gtopo30":12,"timezone":"Europe/Bucharest","moddate":"2013-04-21T00:00:00.000Z"},{"geonameid":677803,"name":"Fundenii Noi","asciiname":"Fundenii Noi","alternatenames":"","latitude":"45.5752900","longitude":"27.5495500","fclass":"P","fcode":"PPL","country":"RO","cc2":"","admin1":"18","admin2":"76353","admin3":"","admin4":"","population":840,"elevation":0,"gtopo30":16,"timezone":"Europe/Bucharest","moddate":"2013-04-21T00:00:00.000Z"},{"geonameid":677802,"name":"Fundenii Vechi","asciiname":"Fundenii Vechi","alternatenames":"","latitude":"45.5333300","longitude":"27.5333300","fclass":"P","fcode":"PPLX","country":"RO","cc2":"","admin1":"18","admin2":"76353","admin3":"","admin4":"","population":0,"elevation":0,"gtopo30":14,"timezone":"Europe/Bucharest","moddate":"2016-02-07T00:00:00.000Z"},{"geonameid":676323,"name":"Hanu Conachi","asciiname":"Hanu Conachi","alternatenames":"","latitude":"45.5865000","longitude":"27.5948100","fclass":"P","fcode":"PPL","country":"RO","cc2":"","admin1":"18","admin2":"76353","admin3":"","admin4":"","population":2484,"elevation":0,"gtopo30":21,"timezone":"Europe/Bucharest","moddate":"2013-04-21T00:00:00.000Z"},{"geonameid":674311,"name":"Lungoci","asciiname":"Lungoci","alternatenames":"Lungoci,Lungociu","latitude":"45.5664400","longitude":"27.5192400","fclass":"P","fcode":"PPL","country":"RO","cc2":"RO","admin1":"18","admin2":"76353","admin3":"","admin4":"","population":629,"elevation":0,"gtopo30":20,"timezone":"Europe/Bucharest","moddate":"2013-04-21T00:00:00.000Z"}],"admin3":[],"alternateNames":[]},"__N_SSG":true}