{"pageProps":{"locale":"ro","admin2":{"geonameid":674266,"name":"Comuna Lupşanu","country":"RO","admin1":"41","admin2":"93931","admin3":"","latitude":"44.3807500","longitude":"26.9484200"},"admin1":{"geonameid":683016,"name":"Călăraşi","admin1":"41"},"locations":[{"geonameid":674267,"name":"Lupşanu","asciiname":"Lupsanu","alternatenames":"Lupsanu,Lupsanul,Lupşanu,Lupşanul","latitude":"44.3833300","longitude":"26.9000000","fclass":"P","fcode":"PPLA2","country":"RO","cc2":"","admin1":"41","admin2":"93931","admin3":"","admin4":"","population":3797,"elevation":0,"gtopo30":48,"timezone":"Europe/Bucharest","moddate":"2012-06-12T00:00:00.000Z"},{"geonameid":672138,"name":"Nucetu","asciiname":"Nucetu","alternatenames":"Nucet,Nucetu,Nucetul","latitude":"44.3948700","longitude":"26.9003400","fclass":"P","fcode":"PPL","country":"RO","cc2":"RO","admin1":"41","admin2":"93931","admin3":"","admin4":"","population":796,"elevation":0,"gtopo30":46,"timezone":"Europe/Bucharest","moddate":"2013-04-21T00:00:00.000Z"},{"geonameid":670485,"name":"Plevna","asciiname":"Plevna","alternatenames":"","latitude":"44.3636800","longitude":"26.9943800","fclass":"P","fcode":"PPL","country":"RO","cc2":"","admin1":"41","admin2":"93931","admin3":"","admin4":"","population":801,"elevation":0,"gtopo30":40,"timezone":"Europe/Bucharest","moddate":"2013-04-21T00:00:00.000Z"},{"geonameid":669222,"name":"Radu Vodă","asciiname":"Radu Voda","alternatenames":"Radu Voda,Radu Vodă,Rodu Voda,Rodu Vodă","latitude":"44.3856300","longitude":"26.9254100","fclass":"P","fcode":"PPL","country":"RO","cc2":"RO","admin1":"41","admin2":"93931","admin3":"","admin4":"","population":1367,"elevation":0,"gtopo30":48,"timezone":"Europe/Bucharest","moddate":"2013-04-21T00:00:00.000Z"},{"geonameid":668949,"name":"Rest","asciiname":"Rest","alternatenames":"","latitude":"44.3833300","longitude":"26.9000000","fclass":"P","fcode":"PPL","country":"RO","cc2":"","admin1":"41","admin2":"93931","admin3":"","admin4":"","population":0,"elevation":0,"gtopo30":48,"timezone":"Europe/Bucharest","moddate":"2016-02-07T00:00:00.000Z"},{"geonameid":663456,"name":"Valea Rusului","asciiname":"Valea Rusului","alternatenames":"","latitude":"44.3717300","longitude":"27.0070800","fclass":"P","fcode":"PPL","country":"RO","cc2":"","admin1":"41","admin2":"93931","admin3":"","admin4":"","population":51,"elevation":0,"gtopo30":42,"timezone":"Europe/Bucharest","moddate":"2013-04-20T00:00:00.000Z"}],"admin3":[],"alternateNames":[]},"__N_SSG":true}