{"pageProps":{"locale":"ro","admin2":{"geonameid":672189,"name":"Comuna Nistoreşti","country":"RO","admin1":"40","admin2":"177003","admin3":"","latitude":"45.8157800","longitude":"26.6772800"},"admin1":{"geonameid":662447,"name":"Vrancea","admin1":"40","localeAltName":"Vrancea"},"locations":[{"geonameid":684643,"name":"Bâtcari","asciiname":"Batcari","alternatenames":"Batcari,Bitcari,Bâtcari,Bîtcari","latitude":"45.8271100","longitude":"26.7166900","fclass":"P","fcode":"PPL","country":"RO","cc2":"RO","admin1":"40","admin2":"177003","admin3":"","admin4":"","population":291,"elevation":0,"gtopo30":409,"timezone":"Europe/Bucharest","moddate":"2013-04-21T00:00:00.000Z"},{"geonameid":683943,"name":"Brădetu","asciiname":"Bradetu","alternatenames":"Bradetu,Brădetu,Vacaria,Vetrestii,Văcăria","latitude":"45.8019300","longitude":"26.6238500","fclass":"P","fcode":"PPL","country":"RO","cc2":"RO","admin1":"40","admin2":"177003","admin3":"","admin4":"","population":215,"elevation":0,"gtopo30":610,"timezone":"Europe/Bucharest","moddate":"2013-04-21T00:00:00.000Z"},{"geonameid":682056,"name":"Chiriac","asciiname":"Chiriac","alternatenames":"","latitude":"45.8000000","longitude":"26.6333300","fclass":"P","fcode":"PPLX","country":"RO","cc2":"","admin1":"40","admin2":"177003","admin3":"","admin4":"","population":0,"elevation":0,"gtopo30":589,"timezone":"Europe/Bucharest","moddate":"2016-02-07T00:00:00.000Z"},{"geonameid":679728,"name":"Dărieşti","asciiname":"Dariesti","alternatenames":"","latitude":"45.8166700","longitude":"26.6666700","fclass":"P","fcode":"PPLX","country":"RO","cc2":"","admin1":"40","admin2":"177003","admin3":"","admin4":"","population":0,"elevation":0,"gtopo30":612,"timezone":"Europe/Bucharest","moddate":"2016-02-07T00:00:00.000Z"},{"geonameid":678475,"name":"Făgetu","asciiname":"Fagetu","alternatenames":"Fagetu,Făgetu,Gainari,Găinari","latitude":"45.8200600","longitude":"26.7000000","fclass":"P","fcode":"PPL","country":"RO","cc2":"RO","admin1":"40","admin2":"177003","admin3":"","admin4":"","population":174,"elevation":0,"gtopo30":433,"timezone":"Europe/Bucharest","moddate":"2013-04-21T00:00:00.000Z"},{"geonameid":673711,"name":"Masa Bâra","asciiname":"Masa Bara","alternatenames":"Masa Bara,Masa Bira,Masa Bâra,Masa Bîra","latitude":"45.8166700","longitude":"26.6500000","fclass":"P","fcode":"PPLX","country":"RO","cc2":"","admin1":"40","admin2":"177003","admin3":"","admin4":"","population":0,"elevation":0,"gtopo30":625,"timezone":"Europe/Bucharest","moddate":"2020-03-08T00:00:00.000Z"},{"geonameid":672192,"name":"Nistoreşti","asciiname":"Nistoresti","alternatenames":"","latitude":"45.8333300","longitude":"26.7333300","fclass":"P","fcode":"PPLA2","country":"RO","cc2":"","admin1":"40","admin2":"177003","admin3":"","admin4":"","population":2335,"elevation":0,"gtopo30":503,"timezone":"Europe/Bucharest","moddate":"2012-06-12T00:00:00.000Z"},{"geonameid":671950,"name":"Ogoarele","asciiname":"Ogoarele","alternatenames":"","latitude":"45.8333300","longitude":"26.7166700","fclass":"P","fcode":"PPL","country":"RO","cc2":"","admin1":"40","admin2":"177003","admin3":"","admin4":"","population":0,"elevation":0,"gtopo30":522,"timezone":"Europe/Bucharest","moddate":"2016-02-07T00:00:00.000Z"},{"geonameid":671879,"name":"Olăreşti","asciiname":"Olaresti","alternatenames":"","latitude":"45.8166700","longitude":"26.6833300","fclass":"P","fcode":"PPLX","country":"RO","cc2":"","admin1":"40","admin2":"177003","admin3":"","admin4":"","population":0,"elevation":0,"gtopo30":468,"timezone":"Europe/Bucharest","moddate":"2016-02-07T00:00:00.000Z"},{"geonameid":670261,"name":"Podu Șchiopului","asciiname":"Podu Schiopului","alternatenames":"Podu Schiopului,Podu Şchiopului,Podul Schiopului","latitude":"45.8121000","longitude":"26.6595400","fclass":"P","fcode":"PPL","country":"RO","cc2":"RO","admin1":"40","admin2":"177003","admin3":"","admin4":"","population":314,"elevation":0,"gtopo30":499,"timezone":"Europe/Bucharest","moddate":"2013-04-21T00:00:00.000Z"},{"geonameid":670258,"name":"Podu Ţârdei","asciiname":"Podu Tardei","alternatenames":"Podu Tardei,Podu Tirdei,Podu Ţârdei,Podu Ţîrdei","latitude":"45.8166700","longitude":"26.6500000","fclass":"P","fcode":"PPLX","country":"RO","cc2":"","admin1":"40","admin2":"177003","admin3":"","admin4":"","population":0,"elevation":0,"gtopo30":625,"timezone":"Europe/Bucharest","moddate":"2020-03-08T00:00:00.000Z"},{"geonameid":668712,"name":"Românești","asciiname":"Romanesti","alternatenames":"Rominesti,Romîneşti,Rumanesti,Rumăneşti","latitude":"45.8166700","longitude":"26.6833300","fclass":"P","fcode":"PPL","country":"RO","cc2":"","admin1":"40","admin2":"177003","admin3":"","admin4":"","population":264,"elevation":0,"gtopo30":468,"timezone":"Europe/Bucharest","moddate":"2015-11-12T00:00:00.000Z"},{"geonameid":664232,"name":"Ungureni","asciiname":"Ungureni","alternatenames":"","latitude":"45.8134700","longitude":"26.6742200","fclass":"P","fcode":"PPL","country":"RO","cc2":"","admin1":"40","admin2":"177003","admin3":"","admin4":"","population":236,"elevation":0,"gtopo30":487,"timezone":"Europe/Bucharest","moddate":"2013-04-20T00:00:00.000Z"},{"geonameid":663556,"name":"Valea Neagră","asciiname":"Valea Neagra","alternatenames":"","latitude":"45.8131200","longitude":"26.6364300","fclass":"P","fcode":"PPL","country":"RO","cc2":"","admin1":"40","admin2":"177003","admin3":"","admin4":"","population":27,"elevation":0,"gtopo30":631,"timezone":"Europe/Bucharest","moddate":"2013-04-20T00:00:00.000Z"},{"geonameid":663011,"name":"Vetreşti","asciiname":"Vetresti","alternatenames":"","latitude":"45.8000000","longitude":"26.6500000","fclass":"P","fcode":"PPLX","country":"RO","cc2":"","admin1":"40","admin2":"177003","admin3":"","admin4":"","population":0,"elevation":0,"gtopo30":706,"timezone":"Europe/Bucharest","moddate":"2016-02-07T00:00:00.000Z"},{"geonameid":663010,"name":"Vetrești-Herăstrău","asciiname":"Vetresti-Herastrau","alternatenames":"Herastrau,Herestrau,Herăstrău,Vetresti-Herastrau,Vetreşti-Herăstrău","latitude":"45.8094000","longitude":"26.6623000","fclass":"P","fcode":"PPL","country":"RO","cc2":"RO","admin1":"40","admin2":"177003","admin3":"","admin4":"","population":353,"elevation":0,"gtopo30":508,"timezone":"Europe/Bucharest","moddate":"2013-04-20T00:00:00.000Z"}],"admin3":[],"alternateNames":[{"alternatenameId":391637,"geonameid":662447,"isoLanguage":"ro","alternateName":"Vrancea","isPreferredName":true,"isShortName":true,"isColloquial":false,"isHistoric":false}]},"__N_SSG":true}