{"pageProps":{"locale":"en","admin2":{"geonameid":11353071,"name":"Fermanagh and Omagh","country":"GB","admin1":"NIR","admin2":"N09000006","admin3":"","latitude":"54.4425700","longitude":"-7.5029900"},"admin1":{"geonameid":2641364,"name":"Northern Ireland","admin1":"NIR"},"locations":[{"geonameid":2657423,"name":"Altamuskin","asciiname":"Altamuskin","alternatenames":"Altamuskin","latitude":"54.5166700","longitude":"-7.0833300","fclass":"P","fcode":"PPL","country":"GB","cc2":"","admin1":"NIR","admin2":"N09000006","admin3":"","admin4":"","population":0,"elevation":0,"gtopo30":206,"timezone":"Europe/London","moddate":"2016-12-04T00:00:00.000Z"},{"geonameid":2657186,"name":"Ardess","asciiname":"Ardess","alternatenames":"","latitude":"54.5166700","longitude":"-7.6666700","fclass":"P","fcode":"PPL","country":"GB","cc2":"","admin1":"NIR","admin2":"N09000006","admin3":"","admin4":"","population":0,"elevation":0,"gtopo30":111,"timezone":"Europe/London","moddate":"2016-12-04T00:00:00.000Z"},{"geonameid":2657152,"name":"Ardmoney","asciiname":"Ardmoney","alternatenames":"","latitude":"54.3000000","longitude":"-7.3500000","fclass":"P","fcode":"PPL","country":"GB","cc2":"","admin1":"NIR","admin2":"N09000006","admin3":"","admin4":"","population":0,"elevation":0,"gtopo30":211,"timezone":"Europe/London","moddate":"2016-12-04T00:00:00.000Z"},{"geonameid":2657044,"name":"Arney","asciiname":"Arney","alternatenames":"Arney","latitude":"54.2833300","longitude":"-7.6833300","fclass":"P","fcode":"PPL","country":"GB","cc2":"","admin1":"NIR","admin2":"N09000006","admin3":"","admin4":"","population":0,"elevation":0,"gtopo30":61,"timezone":"Europe/London","moddate":"2016-12-04T00:00:00.000Z"},{"geonameid":2656568,"name":"Ballagh Cross Roads","asciiname":"Ballagh Cross Roads","alternatenames":"Ballagh,Ballagh Cross Roads","latitude":"54.2166700","longitude":"-7.3333300","fclass":"P","fcode":"PPL","country":"GB","cc2":"GB","admin1":"NIR","admin2":"N09000006","admin3":"","admin4":"","population":0,"elevation":0,"gtopo30":88,"timezone":"Europe/London","moddate":"2016-12-04T00:00:00.000Z"},{"geonameid":2656557,"name":"Ballinamallard","asciiname":"Ballinamallard","alternatenames":"Ballanamallard,Ballinamallard","latitude":"54.4000000","longitude":"-7.5833300","fclass":"P","fcode":"PPL","country":"GB","cc2":"","admin1":"NIR","admin2":"N09000006","admin3":"","admin4":"","population":1365,"elevation":0,"gtopo30":109,"timezone":"Europe/London","moddate":"2016-12-04T00:00:00.000Z"},{"geonameid":2656532,"name":"Ballycassidy","asciiname":"Ballycassidy","alternatenames":"Ballycassidy","latitude":"54.4035200","longitude":"-7.6475600","fclass":"P","fcode":"PPL","country":"GB","cc2":"","admin1":"NIR","admin2":"N09000006","admin3":"","admin4":"","population":0,"elevation":0,"gtopo30":50,"timezone":"Europe/London","moddate":"2016-12-04T00:00:00.000Z"},{"geonameid":2656471,"name":"Ballyreagh","asciiname":"Ballyreagh","alternatenames":"","latitude":"54.3833300","longitude":"-7.5166700","fclass":"P","fcode":"PPL","country":"GB","cc2":"","admin1":"NIR","admin2":"N09000006","admin3":"","admin4":"","population":0,"elevation":0,"gtopo30":150,"timezone":"Europe/London","moddate":"2016-12-04T00:00:00.000Z"},{"geonameid":2656270,"name":"Barr","asciiname":"Barr","alternatenames":"Barr,Barr of Fintona","latitude":"54.4500000","longitude":"-7.3666700","fclass":"P","fcode":"PPL","country":"GB","cc2":"GB","admin1":"NIR","admin2":"N09000006","admin3":"","admin4":"","population":0,"elevation":0,"gtopo30":199,"timezone":"Europe/London","moddate":"2016-12-04T00:00:00.000Z"},{"geonameid":2655988,"name":"Belcoo","asciiname":"Belcoo","alternatenames":"Belcoo","latitude":"54.2969900","longitude":"-7.8710200","fclass":"P","fcode":"PPL","country":"GB","cc2":"","admin1":"NIR","admin2":"N09000006","admin3":"","admin4":"","population":0,"elevation":0,"gtopo30":58,"timezone":"Europe/London","moddate":"2016-12-04T00:00:00.000Z"},{"geonameid":2655971,"name":"Bellanaleck","asciiname":"Bellanaleck","alternatenames":"Bellanaleck","latitude":"54.2833300","longitude":"-7.6333300","fclass":"P","fcode":"PPL","country":"GB","cc2":"","admin1":"NIR","admin2":"N09000006","admin3":"","admin4":"","population":0,"elevation":0,"gtopo30":48,"timezone":"Europe/London","moddate":"2016-12-04T00:00:00.000Z"},{"geonameid":2966225,"name":"Belleek","asciiname":"Belleek","alternatenames":"Beal Liche,Beleek,Belleek,Béal Liche,bellika,बेल्लीक","latitude":"54.4801600","longitude":"-8.0942800","fclass":"P","fcode":"PPL","country":"GB","cc2":"","admin1":"NIR","admin2":"N09000006","admin3":"","admin4":"","population":0,"elevation":0,"gtopo30":49,"timezone":"Europe/London","moddate":"2016-12-05T00:00:00.000Z"},{"geonameid":2655964,"name":"Belleek","asciiname":"Belleek","alternatenames":"","latitude":"54.4666700","longitude":"-8.1000000","fclass":"P","fcode":"PPL","country":"GB","cc2":"","admin1":"NIR","admin2":"N09000006","admin3":"","admin4":"","population":0,"elevation":0,"gtopo30":72,"timezone":"Europe/London","moddate":"2016-12-04T00:00:00.000Z"},{"geonameid":2655867,"name":"Beragh","asciiname":"Beragh","alternatenames":"Beragh","latitude":"54.5500000","longitude":"-7.1666700","fclass":"P","fcode":"PPL","country":"GB","cc2":"","admin1":"NIR","admin2":"N09000006","admin3":"","admin4":"","population":0,"elevation":0,"gtopo30":103,"timezone":"Europe/London","moddate":"2016-12-04T00:00:00.000Z"},{"geonameid":2655493,"name":"Blackfort","asciiname":"Blackfort","alternatenames":"","latitude":"54.5333300","longitude":"-7.3000000","fclass":"P","fcode":"PPL","country":"GB","cc2":"","admin1":"NIR","admin2":"N09000006","admin3":"","admin4":"","population":0,"elevation":0,"gtopo30":85,"timezone":"Europe/London","moddate":"2016-12-04T00:00:00.000Z"},{"geonameid":2655374,"name":"Blaney","asciiname":"Blaney","alternatenames":"Blaney","latitude":"54.4166700","longitude":"-7.7500000","fclass":"P","fcode":"PPL","country":"GB","cc2":"","admin1":"NIR","admin2":"N09000006","admin3":"","admin4":"","population":0,"elevation":0,"gtopo30":127,"timezone":"Europe/London","moddate":"2016-12-04T00:00:00.000Z"},{"geonameid":2655256,"name":"Boho","asciiname":"Boho","alternatenames":"","latitude":"54.3333300","longitude":"-7.8000000","fclass":"P","fcode":"PPL","country":"GB","cc2":"","admin1":"NIR","admin2":"N09000006","admin3":"","admin4":"","population":0,"elevation":0,"gtopo30":281,"timezone":"Europe/London","moddate":"2016-12-04T00:00:00.000Z"},{"geonameid":2655008,"name":"Bracky","asciiname":"Bracky","alternatenames":"","latitude":"54.5833300","longitude":"-7.1666700","fclass":"P","fcode":"PPL","country":"GB","cc2":"","admin1":"NIR","admin2":"N09000006","admin3":"","admin4":"","population":0,"elevation":0,"gtopo30":98,"timezone":"Europe/London","moddate":"2016-12-04T00:00:00.000Z"},{"geonameid":2654565,"name":"Brookeborough","asciiname":"Brookeborough","alternatenames":"Brookeborough","latitude":"54.3166700","longitude":"-7.4000000","fclass":"P","fcode":"PPL","country":"GB","cc2":"","admin1":"NIR","admin2":"N09000006","admin3":"","admin4":"","population":0,"elevation":0,"gtopo30":104,"timezone":"Europe/London","moddate":"2016-12-04T00:00:00.000Z"},{"geonameid":2653676,"name":"Carrickmore","asciiname":"Carrickmore","alternatenames":"Carrickmore,Termon Rock","latitude":"54.6000000","longitude":"-7.0500000","fclass":"P","fcode":"PPL","country":"GB","cc2":"GB","admin1":"NIR","admin2":"N09000006","admin3":"","admin4":"","population":0,"elevation":0,"gtopo30":182,"timezone":"Europe/London","moddate":"2016-12-04T00:00:00.000Z"},{"geonameid":2653037,"name":"Church Hill","asciiname":"Church Hill","alternatenames":"","latitude":"54.4500000","longitude":"-7.8166700","fclass":"P","fcode":"PPL","country":"GB","cc2":"","admin1":"NIR","admin2":"N09000006","admin3":"","admin4":"","population":0,"elevation":0,"gtopo30":72,"timezone":"Europe/London","moddate":"2016-12-04T00:00:00.000Z"},{"geonameid":2652991,"name":"Clabby","asciiname":"Clabby","alternatenames":"Clabby","latitude":"54.4000000","longitude":"-7.3833300","fclass":"P","fcode":"PPL","country":"GB","cc2":"","admin1":"NIR","admin2":"N09000006","admin3":"","admin4":"","population":0,"elevation":0,"gtopo30":124,"timezone":"Europe/London","moddate":"2016-12-04T00:00:00.000Z"},{"geonameid":2652959,"name":"Clanabogan","asciiname":"Clanabogan","alternatenames":"Clanabogan","latitude":"54.5500000","longitude":"-7.3666700","fclass":"P","fcode":"PPL","country":"GB","cc2":"","admin1":"NIR","admin2":"N09000006","admin3":"","admin4":"","population":0,"elevation":0,"gtopo30":98,"timezone":"Europe/London","moddate":"2016-12-04T00:00:00.000Z"},{"geonameid":2652935,"name":"Clareview","asciiname":"Clareview","alternatenames":"","latitude":"54.5000000","longitude":"-7.7333300","fclass":"P","fcode":"PPL","country":"GB","cc2":"","admin1":"NIR","admin2":"N09000006","admin3":"","admin4":"","population":0,"elevation":0,"gtopo30":70,"timezone":"Europe/London","moddate":"2016-12-04T00:00:00.000Z"},{"geonameid":2652710,"name":"Coa","asciiname":"Coa","alternatenames":"","latitude":"54.4000000","longitude":"-7.5666700","fclass":"P","fcode":"PPL","country":"GB","cc2":"","admin1":"NIR","admin2":"N09000006","admin3":"","admin4":"","population":0,"elevation":0,"gtopo30":124,"timezone":"Europe/London","moddate":"2016-12-04T00:00:00.000Z"},{"geonameid":2652409,"name":"Cooneen","asciiname":"Cooneen","alternatenames":"","latitude":"54.3333300","longitude":"-7.3000000","fclass":"P","fcode":"PPL","country":"GB","cc2":"","admin1":"NIR","admin2":"N09000006","admin3":"","admin4":"","population":0,"elevation":0,"gtopo30":97,"timezone":"Europe/London","moddate":"2016-12-04T00:00:00.000Z"},{"geonameid":2652345,"name":"Corranny","asciiname":"Corranny","alternatenames":"","latitude":"54.2500000","longitude":"-7.2666700","fclass":"P","fcode":"PPL","country":"GB","cc2":"","admin1":"NIR","admin2":"N09000006","admin3":"","admin4":"","population":0,"elevation":0,"gtopo30":151,"timezone":"Europe/London","moddate":"2016-12-04T00:00:00.000Z"},{"geonameid":2652039,"name":"Creagh","asciiname":"Creagh","alternatenames":"Creagh","latitude":"54.3666700","longitude":"-7.4000000","fclass":"P","fcode":"PPL","country":"GB","cc2":"","admin1":"NIR","admin2":"N09000006","admin3":"","admin4":"","population":0,"elevation":0,"gtopo30":104,"timezone":"Europe/London","moddate":"2016-12-04T00:00:00.000Z"},{"geonameid":2651756,"name":"Culky","asciiname":"Culky","alternatenames":"Culkey,Culky","latitude":"54.3166700","longitude":"-7.6333300","fclass":"P","fcode":"PPL","country":"GB","cc2":"GB","admin1":"NIR","admin2":"N09000006","admin3":"","admin4":"","population":0,"elevation":0,"gtopo30":45,"timezone":"Europe/London","moddate":"2016-12-04T00:00:00.000Z"},{"geonameid":2651689,"name":"Curr","asciiname":"Curr","alternatenames":"","latitude":"54.5000000","longitude":"-7.1833300","fclass":"P","fcode":"PPL","country":"GB","cc2":"","admin1":"NIR","admin2":"N09000006","admin3":"","admin4":"","population":0,"elevation":0,"gtopo30":124,"timezone":"Europe/London","moddate":"2016-12-04T00:00:00.000Z"},{"geonameid":2651334,"name":"Derrygonnelly","asciiname":"Derrygonnelly","alternatenames":"Derrygonnelly","latitude":"54.4333300","longitude":"-7.8000000","fclass":"P","fcode":"PPL","country":"GB","cc2":"","admin1":"NIR","admin2":"N09000006","admin3":"","admin4":"","population":0,"elevation":0,"gtopo30":74,"timezone":"Europe/London","moddate":"2016-12-04T00:00:00.000Z"},{"geonameid":2651332,"name":"Derrylin","asciiname":"Derrylin","alternatenames":"Derryglin,Derrylin","latitude":"54.1833300","longitude":"-7.5666700","fclass":"P","fcode":"PPL","country":"GB","cc2":"GB","admin1":"NIR","admin2":"N09000006","admin3":"","admin4":"","population":0,"elevation":0,"gtopo30":63,"timezone":"Europe/London","moddate":"2016-12-04T00:00:00.000Z"},{"geonameid":2651134,"name":"Donagh","asciiname":"Donagh","alternatenames":"Donagh","latitude":"54.2166700","longitude":"-7.3833300","fclass":"P","fcode":"PPL","country":"GB","cc2":"","admin1":"NIR","admin2":"N09000006","admin3":"","admin4":"","population":0,"elevation":0,"gtopo30":65,"timezone":"Europe/London","moddate":"2016-12-04T00:00:00.000Z"},{"geonameid":2651110,"name":"Dooish","asciiname":"Dooish","alternatenames":"Dooish","latitude":"54.5833300","longitude":"-7.4833300","fclass":"P","fcode":"PPL","country":"GB","cc2":"","admin1":"NIR","admin2":"N09000006","admin3":"","admin4":"","population":0,"elevation":0,"gtopo30":131,"timezone":"Europe/London","moddate":"2016-12-04T00:00:00.000Z"},{"geonameid":2650976,"name":"Dromore","asciiname":"Dromore","alternatenames":"","latitude":"54.5133100","longitude":"-7.4588600","fclass":"P","fcode":"PPL","country":"GB","cc2":"","admin1":"NIR","admin2":"N09000006","admin3":"","admin4":"","population":5641,"elevation":0,"gtopo30":104,"timezone":"Europe/London","moddate":"2016-12-04T00:00:00.000Z"},{"geonameid":2650955,"name":"Drumard","asciiname":"Drumard","alternatenames":"Dromard,Drumard","latitude":"54.4833300","longitude":"-7.7166700","fclass":"P","fcode":"PPL","country":"GB","cc2":"GB","admin1":"NIR","admin2":"N09000006","admin3":"","admin4":"","population":0,"elevation":0,"gtopo30":74,"timezone":"Europe/London","moddate":"2016-12-04T00:00:00.000Z"},{"geonameid":2650948,"name":"Drumboy","asciiname":"Drumboy","alternatenames":"","latitude":"54.3500000","longitude":"-7.7666700","fclass":"P","fcode":"PPL","country":"GB","cc2":"","admin1":"NIR","admin2":"N09000006","admin3":"","admin4":"","population":0,"elevation":0,"gtopo30":57,"timezone":"Europe/London","moddate":"2016-12-04T00:00:00.000Z"},{"geonameid":2650945,"name":"Drumcard","asciiname":"Drumcard","alternatenames":"","latitude":"54.2500000","longitude":"-7.7000000","fclass":"P","fcode":"PPL","country":"GB","cc2":"","admin1":"NIR","admin2":"N09000006","admin3":"","admin4":"","population":0,"elevation":0,"gtopo30":66,"timezone":"Europe/London","moddate":"2016-12-04T00:00:00.000Z"},{"geonameid":2650913,"name":"Drumquin","asciiname":"Drumquin","alternatenames":"Drumquin","latitude":"54.6166700","longitude":"-7.5000000","fclass":"P","fcode":"PPL","country":"GB","cc2":"","admin1":"NIR","admin2":"N09000006","admin3":"","admin4":"","population":0,"elevation":0,"gtopo30":81,"timezone":"Europe/London","moddate":"2016-12-04T00:00:00.000Z"},{"geonameid":2650811,"name":"Dullaghan","asciiname":"Dullaghan","alternatenames":"","latitude":"54.5333300","longitude":"-7.5166700","fclass":"P","fcode":"PPL","country":"GB","cc2":"","admin1":"NIR","admin2":"N09000006","admin3":"","admin4":"","population":0,"elevation":0,"gtopo30":97,"timezone":"Europe/London","moddate":"2016-12-04T00:00:00.000Z"},{"geonameid":2650697,"name":"Dunmoyle","asciiname":"Dunmoyle","alternatenames":"","latitude":"54.5166700","longitude":"-7.0666700","fclass":"P","fcode":"PPL","country":"GB","cc2":"","admin1":"NIR","admin2":"N09000006","admin3":"","admin4":"","population":0,"elevation":0,"gtopo30":162,"timezone":"Europe/London","moddate":"2016-12-04T00:00:00.000Z"},{"geonameid":2650635,"name":"Dunwish","asciiname":"Dunwish","alternatenames":"","latitude":"54.6166700","longitude":"-7.3666700","fclass":"P","fcode":"PPL","country":"GB","cc2":"","admin1":"NIR","admin2":"N09000006","admin3":"","admin4":"","population":0,"elevation":0,"gtopo30":72,"timezone":"Europe/London","moddate":"2016-12-04T00:00:00.000Z"},{"geonameid":2650270,"name":"Ecclesville","asciiname":"Ecclesville","alternatenames":"","latitude":"54.4833300","longitude":"-7.3166700","fclass":"P","fcode":"PPL","country":"GB","cc2":"","admin1":"NIR","admin2":"N09000006","admin3":"","admin4":"","population":0,"elevation":0,"gtopo30":107,"timezone":"Europe/London","moddate":"2016-12-04T00:00:00.000Z"},{"geonameid":2650238,"name":"Ederny","asciiname":"Ederny","alternatenames":"Ederny","latitude":"54.5500000","longitude":"-7.6666700","fclass":"P","fcode":"PPL","country":"GB","cc2":"","admin1":"NIR","admin2":"N09000006","admin3":"","admin4":"","population":0,"elevation":0,"gtopo30":116,"timezone":"Europe/London","moddate":"2016-12-04T00:00:00.000Z"},{"geonameid":2649984,"name":"Enniskillen","asciiname":"Enniskillen","alternatenames":"ENK,Ehnniskillen,Eniskilen,Eniskilun,Enniskillen,Inis Ceithlann,Inis Ceithleann,en ni si ji lin,eniseukillin,enisukiren,Ενισκίλεν,Енискилън,Эннискиллен,エニスキレン,恩尼斯基林,에니스킬린","latitude":"54.3461500","longitude":"-7.6413300","fclass":"P","fcode":"PPLA2","country":"GB","cc2":"","admin1":"NIR","admin2":"N09000006","admin3":"","admin4":"","population":14472,"elevation":0,"gtopo30":52,"timezone":"Europe/London","moddate":"2016-12-04T00:00:00.000Z"},{"geonameid":2649895,"name":"Eskragh","asciiname":"Eskragh","alternatenames":"Eskra,Eskragh","latitude":"54.4666700","longitude":"-7.2166700","fclass":"P","fcode":"PPL","country":"GB","cc2":"GB","admin1":"NIR","admin2":"N09000006","admin3":"","admin4":"","population":0,"elevation":0,"gtopo30":133,"timezone":"Europe/London","moddate":"2016-12-04T00:00:00.000Z"},{"geonameid":2649742,"name":"Fairfield","asciiname":"Fairfield","alternatenames":"","latitude":"54.2000000","longitude":"-7.5666700","fclass":"P","fcode":"PPL","country":"GB","cc2":"","admin1":"NIR","admin2":"N09000006","admin3":"","admin4":"","population":0,"elevation":0,"gtopo30":62,"timezone":"Europe/London","moddate":"2016-12-04T00:00:00.000Z"},{"geonameid":2649733,"name":"Fairy Hill","asciiname":"Fairy Hill","alternatenames":"","latitude":"54.5166700","longitude":"-7.4833300","fclass":"P","fcode":"PPL","country":"GB","cc2":"","admin1":"NIR","admin2":"N09000006","admin3":"","admin4":"","population":0,"elevation":0,"gtopo30":122,"timezone":"Europe/London","moddate":"2016-12-04T00:00:00.000Z"},{"geonameid":2649398,"name":"Fintona","asciiname":"Fintona","alternatenames":"Fintona,Fintona Tramway,Fionntamhnach,phintona,फिन्तोना","latitude":"54.5000000","longitude":"-7.3166700","fclass":"P","fcode":"PPL","country":"GB","cc2":"","admin1":"NIR","admin2":"N09000006","admin3":"","admin4":"","population":1373,"elevation":0,"gtopo30":117,"timezone":"Europe/London","moddate":"2016-12-04T00:00:00.000Z"},{"geonameid":11048598,"name":"Florencecourt","asciiname":"Florencecourt","alternatenames":"","latitude":"54.2580100","longitude":"-7.7309200","fclass":"P","fcode":"PPL","country":"GB","cc2":"","admin1":"NIR","admin2":"N09000006","admin3":"","admin4":"","population":0,"elevation":0,"gtopo30":92,"timezone":"Europe/London","moddate":"2016-12-04T00:00:00.000Z"},{"geonameid":2648850,"name":"Garrison","asciiname":"Garrison","alternatenames":"Garrison","latitude":"54.4166700","longitude":"-8.0833300","fclass":"P","fcode":"PPL","country":"GB","cc2":"","admin1":"NIR","admin2":"N09000006","admin3":"","admin4":"","population":0,"elevation":0,"gtopo30":47,"timezone":"Europe/London","moddate":"2019-02-21T00:00:00.000Z"},{"geonameid":2648801,"name":"Garvaghy","asciiname":"Garvaghy","alternatenames":"","latitude":"54.4833300","longitude":"-7.1333300","fclass":"P","fcode":"PPL","country":"GB","cc2":"","admin1":"NIR","admin2":"N09000006","admin3":"","admin4":"","population":0,"elevation":0,"gtopo30":177,"timezone":"Europe/London","moddate":"2016-12-04T00:00:00.000Z"},{"geonameid":2648488,"name":"Glenfern","asciiname":"Glenfern","alternatenames":"","latitude":"54.5666700","longitude":"-7.3833300","fclass":"P","fcode":"PPL","country":"GB","cc2":"","admin1":"NIR","admin2":"N09000006","admin3":"","admin4":"","population":0,"elevation":0,"gtopo30":120,"timezone":"Europe/London","moddate":"2016-12-04T00:00:00.000Z"},{"geonameid":2648440,"name":"Glenross","asciiname":"Glenross","alternatenames":"","latitude":"54.4500000","longitude":"-7.7166700","fclass":"P","fcode":"PPL","country":"GB","cc2":"","admin1":"NIR","admin2":"N09000006","admin3":"","admin4":"","population":0,"elevation":0,"gtopo30":47,"timezone":"Europe/London","moddate":"2016-12-04T00:00:00.000Z"},{"geonameid":6951050,"name":"Gortaclare","asciiname":"Gortaclare","alternatenames":"","latitude":"54.5265000","longitude":"-7.1963100","fclass":"P","fcode":"PPL","country":"GB","cc2":"","admin1":"NIR","admin2":"N09000006","admin3":"","admin4":"","population":0,"elevation":0,"gtopo30":128,"timezone":"Europe/London","moddate":"2016-12-04T00:00:00.000Z"},{"geonameid":2648286,"name":"Gortin","asciiname":"Gortin","alternatenames":"","latitude":"54.7179800","longitude":"-7.2351400","fclass":"P","fcode":"PPL","country":"GB","cc2":"","admin1":"NIR","admin2":"N09000006","admin3":"","admin4":"","population":0,"elevation":0,"gtopo30":104,"timezone":"Europe/London","moddate":"2016-12-04T00:00:00.000Z"},{"geonameid":2648282,"name":"Gortnalee","asciiname":"Gortnalee","alternatenames":"","latitude":"54.4500000","longitude":"-8.0500000","fclass":"P","fcode":"PPL","country":"GB","cc2":"","admin1":"NIR","admin2":"N09000006","admin3":"","admin4":"","population":0,"elevation":0,"gtopo30":118,"timezone":"Europe/London","moddate":"2016-12-04T00:00:00.000Z"},{"geonameid":2647976,"name":"Greencastle","asciiname":"Greencastle","alternatenames":"","latitude":"54.6893100","longitude":"-7.0775100","fclass":"P","fcode":"PPL","country":"GB","cc2":"","admin1":"NIR","admin2":"N09000006","admin3":"","admin4":"","population":0,"elevation":0,"gtopo30":187,"timezone":"Europe/London","moddate":"2016-12-04T00:00:00.000Z"},{"geonameid":2646672,"name":"Holywell","asciiname":"Holywell","alternatenames":"","latitude":"54.3055600","longitude":"-7.8829500","fclass":"P","fcode":"PPL","country":"GB","cc2":"","admin1":"NIR","admin2":"N09000006","admin3":"","admin4":"","population":0,"elevation":0,"gtopo30":63,"timezone":"Europe/London","moddate":"2016-12-04T00:00:00.000Z"},{"geonameid":2646193,"name":"Inishmore","asciiname":"Inishmore","alternatenames":"","latitude":"54.2666700","longitude":"-7.5833300","fclass":"P","fcode":"PPL","country":"GB","cc2":"","admin1":"NIR","admin2":"N09000006","admin3":"","admin4":"","population":0,"elevation":0,"gtopo30":51,"timezone":"Europe/London","moddate":"2016-12-04T00:00:00.000Z"},{"geonameid":2646044,"name":"Irish Town","asciiname":"Irish Town","alternatenames":"","latitude":"54.7166700","longitude":"-7.1333300","fclass":"P","fcode":"PPL","country":"GB","cc2":"","admin1":"NIR","admin2":"N09000006","admin3":"","admin4":"","population":0,"elevation":0,"gtopo30":273,"timezone":"Europe/London","moddate":"2016-12-04T00:00:00.000Z"},{"geonameid":2646029,"name":"Irvinestown","asciiname":"Irvinestown","alternatenames":"Irvinestown,Lowtherstown","latitude":"54.4666700","longitude":"-7.6333300","fclass":"P","fcode":"PPL","country":"GB","cc2":"","admin1":"NIR","admin2":"N09000006","admin3":"","admin4":"","population":1765,"elevation":0,"gtopo30":89,"timezone":"Europe/London","moddate":"2016-12-04T00:00:00.000Z"},{"geonameid":2645893,"name":"Keeran","asciiname":"Keeran","alternatenames":"","latitude":"54.5500000","longitude":"-7.6000000","fclass":"P","fcode":"PPL","country":"GB","cc2":"","admin1":"NIR","admin2":"N09000006","admin3":"","admin4":"","population":0,"elevation":0,"gtopo30":78,"timezone":"Europe/London","moddate":"2016-12-04T00:00:00.000Z"},{"geonameid":2645763,"name":"Kesh","asciiname":"Kesh","alternatenames":"Kesh","latitude":"54.5333300","longitude":"-7.7166700","fclass":"P","fcode":"PPL","country":"GB","cc2":"","admin1":"NIR","admin2":"N09000006","admin3":"","admin4":"","population":0,"elevation":0,"gtopo30":68,"timezone":"Europe/London","moddate":"2016-12-04T00:00:00.000Z"},{"geonameid":2645616,"name":"Killybane","asciiname":"Killybane","alternatenames":"","latitude":"54.3666700","longitude":"-7.2833300","fclass":"P","fcode":"PPL","country":"GB","cc2":"","admin1":"NIR","admin2":"N09000006","admin3":"","admin4":"","population":0,"elevation":0,"gtopo30":96,"timezone":"Europe/London","moddate":"2016-12-04T00:00:00.000Z"},{"geonameid":2645550,"name":"Kilskeery","asciiname":"Kilskeery","alternatenames":"Kilskeery","latitude":"54.4333300","longitude":"-7.5333300","fclass":"P","fcode":"PPL","country":"GB","cc2":"","admin1":"NIR","admin2":"N09000006","admin3":"","admin4":"","population":0,"elevation":0,"gtopo30":107,"timezone":"Europe/London","moddate":"2016-12-04T00:00:00.000Z"},{"geonameid":2645529,"name":"Kinawley","asciiname":"Kinawley","alternatenames":"Kinawley","latitude":"54.2166700","longitude":"-7.6333300","fclass":"P","fcode":"PPL","country":"GB","cc2":"","admin1":"NIR","admin2":"N09000006","admin3":"","admin4":"","population":0,"elevation":0,"gtopo30":48,"timezone":"Europe/London","moddate":"2016-12-04T00:00:00.000Z"},{"geonameid":2645136,"name":"Knockarevan","asciiname":"Knockarevan","alternatenames":"Knockaraven,Knockarevan","latitude":"54.1500000","longitude":"-7.5000000","fclass":"P","fcode":"PPL","country":"GB","cc2":"GB","admin1":"NIR","admin2":"N09000006","admin3":"","admin4":"","population":0,"elevation":0,"gtopo30":53,"timezone":"Europe/London","moddate":"2016-12-04T00:00:00.000Z"},{"geonameid":2645112,"name":"Knockmanoul","asciiname":"Knockmanoul","alternatenames":"","latitude":"54.4000000","longitude":"-7.6166700","fclass":"P","fcode":"PPL","country":"GB","cc2":"","admin1":"NIR","admin2":"N09000006","admin3":"","admin4":"","population":0,"elevation":0,"gtopo30":65,"timezone":"Europe/London","moddate":"2016-12-04T00:00:00.000Z"},{"geonameid":2645110,"name":"Knockmoyle","asciiname":"Knockmoyle","alternatenames":"Knockmoyle","latitude":"54.6500000","longitude":"-7.3333300","fclass":"P","fcode":"PPL","country":"GB","cc2":"","admin1":"NIR","admin2":"N09000006","admin3":"","admin4":"","population":0,"elevation":0,"gtopo30":62,"timezone":"Europe/London","moddate":"2016-12-04T00:00:00.000Z"},{"geonameid":2645079,"name":"Lack","asciiname":"Lack","alternatenames":"Lack","latitude":"54.5666700","longitude":"-7.5666700","fclass":"P","fcode":"PPL","country":"GB","cc2":"","admin1":"NIR","admin2":"N09000006","admin3":"","admin4":"","population":0,"elevation":0,"gtopo30":288,"timezone":"Europe/London","moddate":"2019-02-21T00:00:00.000Z"},{"geonameid":2645077,"name":"Lackagh","asciiname":"Lackagh","alternatenames":"","latitude":"54.6000000","longitude":"-7.5166700","fclass":"P","fcode":"PPL","country":"GB","cc2":"","admin1":"NIR","admin2":"N09000006","admin3":"","admin4":"","population":0,"elevation":0,"gtopo30":185,"timezone":"Europe/London","moddate":"2016-12-04T00:00:00.000Z"},{"geonameid":2644630,"name":"Leitrim","asciiname":"Leitrim","alternatenames":"","latitude":"54.1666700","longitude":"-7.3166700","fclass":"P","fcode":"PPL","country":"GB","cc2":"","admin1":"NIR","admin2":"N09000006","admin3":"","admin4":"","population":0,"elevation":0,"gtopo30":52,"timezone":"Europe/London","moddate":"2016-12-04T00:00:00.000Z"},{"geonameid":2644590,"name":"Letterbreen","asciiname":"Letterbreen","alternatenames":"Letterbrean,Letterbreen","latitude":"54.3000000","longitude":"-7.7333300","fclass":"P","fcode":"PPL","country":"GB","cc2":"GB","admin1":"NIR","admin2":"N09000006","admin3":"","admin4":"","population":0,"elevation":0,"gtopo30":55,"timezone":"Europe/London","moddate":"2016-12-04T00:00:00.000Z"},{"geonameid":2644414,"name":"Lisbellaw","asciiname":"Lisbellaw","alternatenames":"Lisbellaw","latitude":"54.3166700","longitude":"-7.5333300","fclass":"P","fcode":"PPL","country":"GB","cc2":"","admin1":"NIR","admin2":"N09000006","admin3":"","admin4":"","population":0,"elevation":0,"gtopo30":71,"timezone":"Europe/London","moddate":"2016-12-04T00:00:00.000Z"},{"geonameid":2644407,"name":"Lislap","asciiname":"Lislap","alternatenames":"","latitude":"54.6666700","longitude":"-7.2666700","fclass":"P","fcode":"PPL","country":"GB","cc2":"","admin1":"NIR","admin2":"N09000006","admin3":"","admin4":"","population":0,"elevation":0,"gtopo30":253,"timezone":"Europe/London","moddate":"2016-12-04T00:00:00.000Z"},{"geonameid":2644401,"name":"Lisnarrick","asciiname":"Lisnarrick","alternatenames":"Lisnarick,Lisnarrick","latitude":"54.4666700","longitude":"-7.7000000","fclass":"P","fcode":"PPL","country":"GB","cc2":"GB","admin1":"NIR","admin2":"N09000006","admin3":"","admin4":"","population":0,"elevation":0,"gtopo30":63,"timezone":"Europe/London","moddate":"2016-12-04T00:00:00.000Z"},{"geonameid":2644400,"name":"Lisnaskea","asciiname":"Lisnaskea","alternatenames":"Lisnaskea","latitude":"54.2500000","longitude":"-7.4500000","fclass":"P","fcode":"PPL","country":"GB","cc2":"","admin1":"NIR","admin2":"N09000006","admin3":"","admin4":"","population":2895,"elevation":0,"gtopo30":56,"timezone":"Europe/London","moddate":"2016-12-04T00:00:00.000Z"},{"geonameid":2643535,"name":"Lower Bracky","asciiname":"Lower Bracky","alternatenames":"","latitude":"54.6000000","longitude":"-7.1666700","fclass":"P","fcode":"PPL","country":"GB","cc2":"","admin1":"NIR","admin2":"N09000006","admin3":"","admin4":"","population":0,"elevation":0,"gtopo30":112,"timezone":"Europe/London","moddate":"2016-12-04T00:00:00.000Z"},{"geonameid":2643200,"name":"Magheraveely","asciiname":"Magheraveely","alternatenames":"Magheraveely","latitude":"54.1833300","longitude":"-7.2833300","fclass":"P","fcode":"PPL","country":"GB","cc2":"","admin1":"NIR","admin2":"N09000006","admin3":"","admin4":"","population":0,"elevation":0,"gtopo30":59,"timezone":"Europe/London","moddate":"2016-12-04T00:00:00.000Z"},{"geonameid":2643195,"name":"Maguires Bridge","asciiname":"Maguires Bridge","alternatenames":"","latitude":"54.3000000","longitude":"-7.4666700","fclass":"P","fcode":"PPL","country":"GB","cc2":"","admin1":"NIR","admin2":"N09000006","admin3":"","admin4":"","population":0,"elevation":0,"gtopo30":64,"timezone":"Europe/London","moddate":"2016-12-04T00:00:00.000Z"},{"geonameid":2642492,"name":"Milltown","asciiname":"Milltown","alternatenames":"","latitude":"54.5000000","longitude":"-7.4000000","fclass":"P","fcode":"PPL","country":"GB","cc2":"","admin1":"NIR","admin2":"N09000006","admin3":"","admin4":"","population":0,"elevation":0,"gtopo30":101,"timezone":"Europe/London","moddate":"2016-12-04T00:00:00.000Z"},{"geonameid":2642356,"name":"Monea","asciiname":"Monea","alternatenames":"Monea","latitude":"54.4000000","longitude":"-7.7500000","fclass":"P","fcode":"PPL","country":"GB","cc2":"","admin1":"NIR","admin2":"N09000006","admin3":"","admin4":"","population":0,"elevation":0,"gtopo30":134,"timezone":"Europe/London","moddate":"2016-12-04T00:00:00.000Z"},{"geonameid":2642100,"name":"Mount Pleasant","asciiname":"Mount Pleasant","alternatenames":"","latitude":"54.6166700","longitude":"-7.3333300","fclass":"P","fcode":"PPL","country":"GB","cc2":"","admin1":"NIR","admin2":"N09000006","admin3":"","admin4":"","population":0,"elevation":0,"gtopo30":61,"timezone":"Europe/London","moddate":"2016-12-04T00:00:00.000Z"},{"geonameid":2642109,"name":"Mountfield","asciiname":"Mountfield","alternatenames":"Mountfield","latitude":"54.6500000","longitude":"-7.1666700","fclass":"P","fcode":"PPL","country":"GB","cc2":"","admin1":"NIR","admin2":"N09000006","admin3":"","admin4":"","population":0,"elevation":0,"gtopo30":223,"timezone":"Europe/London","moddate":"2019-02-21T00:00:00.000Z"},{"geonameid":2642104,"name":"Mountjoy","asciiname":"Mountjoy","alternatenames":"Mountjoy","latitude":"54.6500000","longitude":"-7.3500000","fclass":"P","fcode":"PPL","country":"GB","cc2":"","admin1":"NIR","admin2":"N09000006","admin3":"","admin4":"","population":0,"elevation":0,"gtopo30":84,"timezone":"Europe/London","moddate":"2016-12-04T00:00:00.000Z"},{"geonameid":2641982,"name":"Mullans Town","asciiname":"Mullans Town","alternatenames":"","latitude":"54.5333300","longitude":"-7.0500000","fclass":"P","fcode":"PPL","country":"GB","cc2":"","admin1":"NIR","admin2":"N09000006","admin3":"","admin4":"","population":0,"elevation":0,"gtopo30":165,"timezone":"Europe/London","moddate":"2016-12-04T00:00:00.000Z"},{"geonameid":2641831,"name":"Nedsherry","asciiname":"Nedsherry","alternatenames":"","latitude":"54.5166700","longitude":"-7.5833300","fclass":"P","fcode":"PPL","country":"GB","cc2":"","admin1":"NIR","admin2":"N09000006","admin3":"","admin4":"","population":0,"elevation":0,"gtopo30":145,"timezone":"Europe/London","moddate":"2016-12-04T00:00:00.000Z"},{"geonameid":2641512,"name":"Newtown Saville","asciiname":"Newtown Saville","alternatenames":"","latitude":"54.4833300","longitude":"-7.1833300","fclass":"P","fcode":"PPL","country":"GB","cc2":"","admin1":"NIR","admin2":"N09000006","admin3":"","admin4":"","population":0,"elevation":0,"gtopo30":124,"timezone":"Europe/London","moddate":"2016-12-04T00:00:00.000Z"},{"geonameid":2641517,"name":"Newtownbutler","asciiname":"Newtownbutler","alternatenames":"An Baile Nua","latitude":"54.1827300","longitude":"-7.3591200","fclass":"P","fcode":"PPL","country":"GB","cc2":"","admin1":"NIR","admin2":"N09000006","admin3":"","admin4":"","population":943,"elevation":0,"gtopo30":57,"timezone":"Europe/London","moddate":"2016-12-04T00:00:00.000Z"},{"geonameid":2640967,"name":"Omagh","asciiname":"Omagh","alternatenames":"An Oghmagh,An Omaigh,An Ómaigh,Oma,Omey,Ouma,ao ma,awmah,oma,Ома,Оума,أوماه,オマー,奧馬,오마","latitude":"54.6000000","longitude":"-7.3000000","fclass":"P","fcode":"PPLA2","country":"GB","cc2":"","admin1":"NIR","admin2":"N09000006","admin3":"","admin4":"","population":21056,"elevation":0,"gtopo30":72,"timezone":"Europe/London","moddate":"2016-12-04T00:00:00.000Z"},{"geonameid":8050895,"name":"Portinode","asciiname":"Portinode","alternatenames":"","latitude":"54.5286900","longitude":"-7.7743300","fclass":"P","fcode":"PPL","country":"GB","cc2":"","admin1":"NIR","admin2":"N09000006","admin3":"","admin4":"","population":0,"elevation":0,"gtopo30":55,"timezone":"Europe/London","moddate":"2016-12-04T00:00:00.000Z"},{"geonameid":2639697,"name":"Rahony","asciiname":"Rahony","alternatenames":"","latitude":"54.4666700","longitude":"-7.4166700","fclass":"P","fcode":"PPL","country":"GB","cc2":"","admin1":"NIR","admin2":"N09000006","admin3":"","admin4":"","population":0,"elevation":0,"gtopo30":152,"timezone":"Europe/London","moddate":"2016-12-04T00:00:00.000Z"},{"geonameid":2639651,"name":"Ranelly","asciiname":"Ranelly","alternatenames":"","latitude":"54.5500000","longitude":"-7.2500000","fclass":"P","fcode":"PPL","country":"GB","cc2":"","admin1":"NIR","admin2":"N09000006","admin3":"","admin4":"","population":0,"elevation":0,"gtopo30":89,"timezone":"Europe/London","moddate":"2016-12-04T00:00:00.000Z"},{"geonameid":2639153,"name":"Roscavey","asciiname":"Roscavey","alternatenames":"","latitude":"54.5166700","longitude":"-7.1666700","fclass":"P","fcode":"PPL","country":"GB","cc2":"","admin1":"NIR","admin2":"N09000006","admin3":"","admin4":"","population":0,"elevation":0,"gtopo30":147,"timezone":"Europe/London","moddate":"2016-12-04T00:00:00.000Z"},{"geonameid":2639127,"name":"Rosscor","asciiname":"Rosscor","alternatenames":"Roscor,Rosscor","latitude":"54.4666700","longitude":"-8.0166700","fclass":"P","fcode":"PPL","country":"GB","cc2":"GB","admin1":"NIR","admin2":"N09000006","admin3":"","admin4":"","population":0,"elevation":0,"gtopo30":64,"timezone":"Europe/London","moddate":"2016-12-04T00:00:00.000Z"},{"geonameid":2639116,"name":"Rosslea","asciiname":"Rosslea","alternatenames":"Roslea,Rosslea","latitude":"54.2333300","longitude":"-7.1833300","fclass":"P","fcode":"PPL","country":"GB","cc2":"GB","admin1":"NIR","admin2":"N09000006","admin3":"","admin4":"","population":0,"elevation":0,"gtopo30":63,"timezone":"Europe/London","moddate":"2016-12-04T00:00:00.000Z"},{"geonameid":2639054,"name":"Rousky","asciiname":"Rousky","alternatenames":"Rousky","latitude":"54.7166700","longitude":"-7.1500000","fclass":"P","fcode":"PPL","country":"GB","cc2":"","admin1":"NIR","admin2":"N09000006","admin3":"","admin4":"","population":0,"elevation":0,"gtopo30":154,"timezone":"Europe/London","moddate":"2016-12-04T00:00:00.000Z"},{"geonameid":2638416,"name":"Scardans","asciiname":"Scardans","alternatenames":"","latitude":"54.5166700","longitude":"-7.9833300","fclass":"P","fcode":"PPL","country":"GB","cc2":"","admin1":"NIR","admin2":"N09000006","admin3":"","admin4":"","population":0,"elevation":0,"gtopo30":86,"timezone":"Europe/London","moddate":"2016-12-04T00:00:00.000Z"},{"geonameid":2638415,"name":"Scardans Lower","asciiname":"Scardans Lower","alternatenames":"","latitude":"54.5166700","longitude":"-7.9833300","fclass":"P","fcode":"PPL","country":"GB","cc2":"","admin1":"NIR","admin2":"N09000006","admin3":"","admin4":"","population":0,"elevation":0,"gtopo30":86,"timezone":"Europe/London","moddate":"2016-12-04T00:00:00.000Z"},{"geonameid":2638414,"name":"Scardans Upper","asciiname":"Scardans Upper","alternatenames":"","latitude":"54.5333300","longitude":"-7.9833300","fclass":"P","fcode":"PPL","country":"GB","cc2":"","admin1":"NIR","admin2":"N09000006","admin3":"","admin4":"","population":0,"elevation":0,"gtopo30":105,"timezone":"Europe/London","moddate":"2016-12-04T00:00:00.000Z"},{"geonameid":2638363,"name":"Scotch Town","asciiname":"Scotch Town","alternatenames":"","latitude":"54.7333300","longitude":"-7.1500000","fclass":"P","fcode":"PPL","country":"GB","cc2":"","admin1":"NIR","admin2":"N09000006","admin3":"","admin4":"","population":0,"elevation":0,"gtopo30":159,"timezone":"Europe/London","moddate":"2016-12-04T00:00:00.000Z"},{"geonameid":2638332,"name":"Scribbagh","asciiname":"Scribbagh","alternatenames":"","latitude":"54.3833300","longitude":"-8.0000000","fclass":"P","fcode":"PPL","country":"GB","cc2":"","admin1":"NIR","admin2":"N09000006","admin3":"","admin4":"","population":0,"elevation":0,"gtopo30":129,"timezone":"Europe/London","moddate":"2016-12-04T00:00:00.000Z"},{"geonameid":2638199,"name":"Seskinore","asciiname":"Seskinore","alternatenames":"Seskanore,Seskinore","latitude":"54.5166700","longitude":"-7.2500000","fclass":"P","fcode":"PPL","country":"GB","cc2":"GB","admin1":"NIR","admin2":"N09000006","admin3":"","admin4":"","population":0,"elevation":0,"gtopo30":110,"timezone":"Europe/London","moddate":"2016-12-04T00:00:00.000Z"},{"geonameid":2637799,"name":"Sixmilecross","asciiname":"Sixmilecross","alternatenames":"Na Coracha Mora,Na Coracha Móra","latitude":"54.5565400","longitude":"-7.1183700","fclass":"P","fcode":"PPL","country":"GB","cc2":"","admin1":"NIR","admin2":"N09000006","admin3":"","admin4":"","population":0,"elevation":0,"gtopo30":117,"timezone":"Europe/London","moddate":"2016-12-04T00:00:00.000Z"},{"geonameid":2636817,"name":"Stonefort","asciiname":"Stonefort","alternatenames":"","latitude":"54.5000000","longitude":"-7.9000000","fclass":"P","fcode":"PPL","country":"GB","cc2":"","admin1":"NIR","admin2":"N09000006","admin3":"","admin4":"","population":0,"elevation":0,"gtopo30":41,"timezone":"Europe/London","moddate":"2016-12-04T00:00:00.000Z"},{"geonameid":2636727,"name":"Stralongford","asciiname":"Stralongford","alternatenames":"","latitude":"54.4833300","longitude":"-7.5666700","fclass":"P","fcode":"PPL","country":"GB","cc2":"","admin1":"NIR","admin2":"N09000006","admin3":"","admin4":"","population":0,"elevation":0,"gtopo30":95,"timezone":"Europe/London","moddate":"2016-12-04T00:00:00.000Z"},{"geonameid":2636279,"name":"Tamlaght","asciiname":"Tamlaght","alternatenames":"Tamlaght","latitude":"54.3166700","longitude":"-7.5666700","fclass":"P","fcode":"PPL","country":"GB","cc2":"","admin1":"NIR","admin2":"N09000006","admin3":"","admin4":"","population":0,"elevation":0,"gtopo30":73,"timezone":"Europe/London","moddate":"2019-02-21T00:00:00.000Z"},{"geonameid":2636109,"name":"Tempo","asciiname":"Tempo","alternatenames":"Tempo","latitude":"54.3833300","longitude":"-7.4666700","fclass":"P","fcode":"PPL","country":"GB","cc2":"","admin1":"NIR","admin2":"N09000006","admin3":"","admin4":"","population":0,"elevation":0,"gtopo30":156,"timezone":"Europe/London","moddate":"2019-02-21T00:00:00.000Z"},{"geonameid":2635466,"name":"Trillick","asciiname":"Trillick","alternatenames":"Trillick","latitude":"54.4500000","longitude":"-7.5000000","fclass":"P","fcode":"PPL","country":"GB","cc2":"","admin1":"NIR","admin2":"N09000006","admin3":"","admin4":"","population":0,"elevation":0,"gtopo30":112,"timezone":"Europe/London","moddate":"2016-12-04T00:00:00.000Z"},{"geonameid":2635376,"name":"Tully","asciiname":"Tully","alternatenames":"","latitude":"54.4500000","longitude":"-7.7833300","fclass":"P","fcode":"PPL","country":"GB","cc2":"","admin1":"NIR","admin2":"N09000006","admin3":"","admin4":"","population":0,"elevation":0,"gtopo30":41,"timezone":"Europe/London","moddate":"2016-12-04T00:00:00.000Z"},{"geonameid":2635377,"name":"Tully","asciiname":"Tully","alternatenames":"","latitude":"54.1833300","longitude":"-7.6333300","fclass":"P","fcode":"PPL","country":"GB","cc2":"","admin1":"NIR","admin2":"N09000006","admin3":"","admin4":"","population":0,"elevation":0,"gtopo30":200,"timezone":"Europe/London","moddate":"2016-12-04T00:00:00.000Z"},{"geonameid":2635143,"name":"Upper Bracky","asciiname":"Upper Bracky","alternatenames":"","latitude":"54.5833300","longitude":"-7.1500000","fclass":"P","fcode":"PPL","country":"GB","cc2":"","admin1":"NIR","admin2":"N09000006","admin3":"","admin4":"","population":0,"elevation":0,"gtopo30":109,"timezone":"Europe/London","moddate":"2016-12-04T00:00:00.000Z"}],"admin3":[],"alternateNames":[]},"__N_SSG":true}