{"pageProps":{"locale":"ro","admin2":{"geonameid":684178,"name":"Comuna Borod","country":"RO","admin1":"05","admin2":"27560","admin3":"","latitude":"47.0050300","longitude":"22.6090700"},"admin1":{"geonameid":684878,"name":"Bihor","admin1":"05"},"locations":[{"geonameid":684179,"name":"Borod","asciiname":"Borod","alternatenames":"Borod","latitude":"46.9833300","longitude":"22.6333300","fclass":"P","fcode":"PPLA2","country":"RO","cc2":"","admin1":"05","admin2":"27560","admin3":"","admin4":"","population":4076,"elevation":0,"gtopo30":379,"timezone":"Europe/Bucharest","moddate":"2012-06-12T00:00:00.000Z"},{"geonameid":684162,"name":"Borozel","asciiname":"Borozel","alternatenames":"","latitude":"47.0059700","longitude":"22.5621500","fclass":"P","fcode":"PPL","country":"RO","cc2":"","admin1":"05","admin2":"27560","admin3":"","admin4":"","population":671,"elevation":0,"gtopo30":287,"timezone":"Europe/Bucharest","moddate":"2013-04-21T00:00:00.000Z"},{"geonameid":682237,"name":"Cetea","asciiname":"Cetea","alternatenames":"","latitude":"47.0168100","longitude":"22.5781600","fclass":"P","fcode":"PPL","country":"RO","cc2":"","admin1":"05","admin2":"27560","admin3":"","admin4":"","population":408,"elevation":0,"gtopo30":331,"timezone":"Europe/Bucharest","moddate":"2013-04-21T00:00:00.000Z"},{"geonameid":680802,"name":"Corn","asciiname":"Corn","alternatenames":"Corn,Corni","latitude":"47.0166700","longitude":"22.6166700","fclass":"P","fcode":"PPLX","country":"RO","cc2":"","admin1":"05","admin2":"27560","admin3":"","admin4":"","population":0,"elevation":0,"gtopo30":504,"timezone":"Europe/Bucharest","moddate":"2016-02-07T00:00:00.000Z"},{"geonameid":680730,"name":"Cornițel","asciiname":"Cornitel","alternatenames":"","latitude":"46.9842600","longitude":"22.6434400","fclass":"P","fcode":"PPL","country":"RO","cc2":"","admin1":"05","admin2":"27560","admin3":"","admin4":"","population":631,"elevation":0,"gtopo30":368,"timezone":"Europe/Bucharest","moddate":"2013-04-21T00:00:00.000Z"},{"geonameid":674122,"name":"Măguran","asciiname":"Maguran","alternatenames":"","latitude":"46.9833300","longitude":"22.6000000","fclass":"P","fcode":"PPLX","country":"RO","cc2":"","admin1":"05","admin2":"27560","admin3":"","admin4":"","population":0,"elevation":0,"gtopo30":377,"timezone":"Europe/Bucharest","moddate":"2016-02-07T00:00:00.000Z"},{"geonameid":667385,"name":"Șerani","asciiname":"Serani","alternatenames":"Seran,Serani,Şerani","latitude":"47.0384100","longitude":"22.6809800","fclass":"P","fcode":"PPL","country":"RO","cc2":"RO","admin1":"05","admin2":"27560","admin3":"","admin4":"","population":767,"elevation":0,"gtopo30":528,"timezone":"Europe/Bucharest","moddate":"2013-04-21T00:00:00.000Z"},{"geonameid":663599,"name":"Valea Mare de Criș","asciiname":"Valea Mare de Cris","alternatenames":"","latitude":"46.9930200","longitude":"22.5741000","fclass":"P","fcode":"PPL","country":"RO","cc2":"","admin1":"05","admin2":"27560","admin3":"","admin4":"","population":547,"elevation":0,"gtopo30":319,"timezone":"Europe/Bucharest","moddate":"2013-04-20T00:00:00.000Z"},{"geonameid":662241,"name":"Zborişte","asciiname":"Zboriste","alternatenames":"","latitude":"46.9833300","longitude":"22.6000000","fclass":"P","fcode":"PPLX","country":"RO","cc2":"","admin1":"05","admin2":"27560","admin3":"","admin4":"","population":0,"elevation":0,"gtopo30":377,"timezone":"Europe/Bucharest","moddate":"2016-02-07T00:00:00.000Z"}],"admin3":[],"alternateNames":[]},"__N_SSG":true}