{"pageProps":{"locale":"ro","admin2":{"geonameid":682286,"name":"Comuna Certeju de Sus","country":"RO","admin1":"21","admin2":"89240","admin3":"","latitude":"45.9743700","longitude":"22.9886300"},"admin1":{"geonameid":675917,"name":"Hunedoara","admin1":"21"},"locations":[{"geonameid":684487,"name":"Bocșa Mare","asciiname":"Bocsa Mare","alternatenames":"Bocsa,Bocsa Mare,Bocşa Mare","latitude":"45.9993600","longitude":"23.0190300","fclass":"P","fcode":"PPL","country":"RO","cc2":"RO","admin1":"21","admin2":"89240","admin3":"","admin4":"","population":33,"elevation":0,"gtopo30":614,"timezone":"Europe/Bucharest","moddate":"2013-04-21T00:00:00.000Z"},{"geonameid":684486,"name":"Bocșa Mică","asciiname":"Bocsa Mica","alternatenames":"","latitude":"45.9855500","longitude":"23.0142400","fclass":"P","fcode":"PPL","country":"RO","cc2":"","admin1":"21","admin2":"89240","admin3":"","admin4":"","population":121,"elevation":0,"gtopo30":582,"timezone":"Europe/Bucharest","moddate":"2013-04-21T00:00:00.000Z"},{"geonameid":682287,"name":"Certeju de Sus","asciiname":"Certeju de Sus","alternatenames":"Certeju de Sus,Certejul-de Sus,Felsocsertes,Felsőcsertés","latitude":"45.9666700","longitude":"22.9666700","fclass":"P","fcode":"PPLA2","country":"RO","cc2":"","admin1":"21","admin2":"89240","admin3":"","admin4":"","population":3422,"elevation":0,"gtopo30":279,"timezone":"Europe/Bucharest","moddate":"2014-06-04T00:00:00.000Z"},{"geonameid":681169,"name":"Codru","asciiname":"Codru","alternatenames":"","latitude":"45.9333300","longitude":"23.0166700","fclass":"P","fcode":"PPL","country":"RO","cc2":"","admin1":"21","admin2":"89240","admin3":"","admin4":"","population":0,"elevation":0,"gtopo30":406,"timezone":"Europe/Bucharest","moddate":"2016-02-07T00:00:00.000Z"},{"geonameid":676041,"name":"Hondol","asciiname":"Hondol","alternatenames":"","latitude":"45.9867500","longitude":"22.9862600","fclass":"P","fcode":"PPL","country":"RO","cc2":"","admin1":"21","admin2":"89240","admin3":"","admin4":"","population":598,"elevation":0,"gtopo30":342,"timezone":"Europe/Bucharest","moddate":"2013-04-21T00:00:00.000Z"},{"geonameid":674121,"name":"Măgura-Toplița","asciiname":"Magura-Toplita","alternatenames":"","latitude":"45.9795100","longitude":"22.9386100","fclass":"P","fcode":"PPL","country":"RO","cc2":"","admin1":"21","admin2":"89240","admin3":"","admin4":"","population":178,"elevation":0,"gtopo30":489,"timezone":"Europe/Bucharest","moddate":"2013-04-21T00:00:00.000Z"},{"geonameid":672172,"name":"Nojag","asciiname":"Nojag","alternatenames":"","latitude":"45.9551200","longitude":"22.9945700","fclass":"P","fcode":"PPL","country":"RO","cc2":"","admin1":"21","admin2":"89240","admin3":"","admin4":"","population":349,"elevation":0,"gtopo30":296,"timezone":"Europe/Bucharest","moddate":"2013-04-21T00:00:00.000Z"},{"geonameid":668331,"name":"Săcărâmb","asciiname":"Sacaramb","alternatenames":"Sacaramb,Sacarambu,Sacarambul,Sacarimbu,Săcărâmb,Săcărâmbu,Săcărâmbul,Săcărîmbu","latitude":"45.9666700","longitude":"23.0500000","fclass":"P","fcode":"PPL","country":"RO","cc2":"","admin1":"21","admin2":"89240","admin3":"","admin4":"","population":0,"elevation":0,"gtopo30":822,"timezone":"Europe/Bucharest","moddate":"2016-02-07T00:00:00.000Z"},{"geonameid":664744,"name":"Toplița Mureșului","asciiname":"Toplita Muresului","alternatenames":"","latitude":"45.9743400","longitude":"22.9214700","fclass":"P","fcode":"PPL","country":"RO","cc2":"","admin1":"21","admin2":"89240","admin3":"","admin4":"","population":113,"elevation":0,"gtopo30":341,"timezone":"Europe/Bucharest","moddate":"2013-04-21T00:00:00.000Z"},{"geonameid":663165,"name":"Vărmaga","asciiname":"Varmaga","alternatenames":"","latitude":"45.9424300","longitude":"23.0130700","fclass":"P","fcode":"PPL","country":"RO","cc2":"","admin1":"21","admin2":"89240","admin3":"","admin4":"","population":473,"elevation":0,"gtopo30":334,"timezone":"Europe/Bucharest","moddate":"2013-04-20T00:00:00.000Z"}],"admin3":[],"alternateNames":[]},"__N_SSG":true}