{"pageProps":{"locale":"ro","admin2":{"geonameid":8334947,"name":"Comuna Viişoara","country":"RO","admin1":"38","admin2":"166707","admin3":"","latitude":"46.3799200","longitude":"27.8607000"},"admin1":{"geonameid":663116,"name":"Vaslui","admin1":"38"},"locations":[{"geonameid":676346,"name":"Halta Dodești","asciiname":"Halta Dodesti","alternatenames":"","latitude":"46.3758400","longitude":"27.8230300","fclass":"P","fcode":"PPL","country":"RO","cc2":"","admin1":"38","admin2":"166707","admin3":"","admin4":"","population":233,"elevation":0,"gtopo30":92,"timezone":"Europe/Bucharest","moddate":"2013-04-21T00:00:00.000Z"},{"geonameid":663279,"name":"Văleni","asciiname":"Valeni","alternatenames":"Dodesti Valeni,Dodeşti Văleni,Valeni,Văleni","latitude":"46.3845400","longitude":"27.8450100","fclass":"P","fcode":"PPL","country":"RO","cc2":"RO","admin1":"38","admin2":"166707","admin3":"","admin4":"","population":180,"elevation":0,"gtopo30":111,"timezone":"Europe/Bucharest","moddate":"2013-04-20T00:00:00.000Z"},{"geonameid":662921,"name":"Viişoara","asciiname":"Viisoara","alternatenames":"Basesti,Băseşti,Viisoara,Viişoara","latitude":"46.3833300","longitude":"27.8833300","fclass":"P","fcode":"PPLA2","country":"RO","cc2":"","admin1":"38","admin2":"166707","admin3":"","admin4":"","population":3894,"elevation":0,"gtopo30":253,"timezone":"Europe/Bucharest","moddate":"2012-06-12T00:00:00.000Z"},{"geonameid":662854,"name":"Viltotești","asciiname":"Viltotesti","alternatenames":"","latitude":"46.3795100","longitude":"27.8771600","fclass":"P","fcode":"PPL","country":"RO","cc2":"","admin1":"38","admin2":"166707","admin3":"","admin4":"","population":277,"elevation":0,"gtopo30":226,"timezone":"Europe/Bucharest","moddate":"2013-04-20T00:00:00.000Z"}],"admin3":[],"alternateNames":[]},"__N_SSG":true}