{"pageProps":{"locale":"ro","admin2":{"geonameid":673650,"name":"Comuna Măxineni","country":"RO","admin1":"08","admin2":"43563","admin3":"","latitude":"45.4180300","longitude":"27.6647000"},"admin1":{"geonameid":683901,"name":"Brăila","admin1":"08"},"locations":[{"geonameid":682072,"name":"Chioveanu","asciiname":"Chioveanu","alternatenames":"Cheoveni,Chioveanu","latitude":"45.4166700","longitude":"27.5666700","fclass":"P","fcode":"PPLX","country":"RO","cc2":"","admin1":"08","admin2":"43563","admin3":"","admin4":"","population":0,"elevation":0,"gtopo30":11,"timezone":"Europe/Bucharest","moddate":"2016-02-07T00:00:00.000Z"},{"geonameid":680848,"name":"Corbu Nou","asciiname":"Corbu Nou","alternatenames":"Corbu,Corbu Nou,Corbul-Nou","latitude":"45.4099600","longitude":"27.5919100","fclass":"P","fcode":"PPL","country":"RO","cc2":"RO","admin1":"08","admin2":"43563","admin3":"","admin4":"","population":1058,"elevation":0,"gtopo30":14,"timezone":"Europe/Bucharest","moddate":"2013-04-21T00:00:00.000Z"},{"geonameid":680847,"name":"Corbu Vechi","asciiname":"Corbu Vechi","alternatenames":"Corbu,Corbu Vechi,Corbu-Vechiu,Corbul Vechiu","latitude":"45.4716700","longitude":"27.6758100","fclass":"P","fcode":"PPL","country":"RO","cc2":"RO","admin1":"08","admin2":"43563","admin3":"","admin4":"","population":336,"elevation":0,"gtopo30":13,"timezone":"Europe/Bucharest","moddate":"2013-04-21T00:00:00.000Z"},{"geonameid":674996,"name":"Latinu","asciiname":"Latinu","alternatenames":"Latinu,Latinu Vechi,Latinu-Nou,Latinul","latitude":"45.3911400","longitude":"27.6994200","fclass":"P","fcode":"PPL","country":"RO","cc2":"RO","admin1":"08","admin2":"43563","admin3":"","admin4":"","population":703,"elevation":0,"gtopo30":9,"timezone":"Europe/Bucharest","moddate":"2013-04-21T00:00:00.000Z"},{"geonameid":673652,"name":"Măxineni","asciiname":"Maxineni","alternatenames":"Maxineni,Măxineni","latitude":"45.4000000","longitude":"27.6333300","fclass":"P","fcode":"PPLA2","country":"RO","cc2":"","admin1":"08","admin2":"43563","admin3":"","admin4":"","population":3758,"elevation":0,"gtopo30":11,"timezone":"Europe/Bucharest","moddate":"2012-06-12T00:00:00.000Z"},{"geonameid":662519,"name":"Voinești","asciiname":"Voinesti","alternatenames":"","latitude":"45.4076400","longitude":"27.7209400","fclass":"P","fcode":"PPL","country":"RO","cc2":"","admin1":"08","admin2":"43563","admin3":"","admin4":"","population":125,"elevation":0,"gtopo30":8,"timezone":"Europe/Bucharest","moddate":"2013-04-20T00:00:00.000Z"}],"admin3":[],"alternateNames":[]},"__N_SSG":true}