{"pageProps":{"locale":"ro","admin2":{"geonameid":8334832,"name":"Comuna Santa Mare","country":"RO","admin1":"07","admin2":"38893","admin3":"","latitude":"47.6330800","longitude":"27.3026000"},"admin1":{"geonameid":684038,"name":"Botoşani","admin1":"07"},"locations":[{"geonameid":685915,"name":"Bădărăi","asciiname":"Badarai","alternatenames":"","latitude":"47.5900700","longitude":"27.3819700","fclass":"P","fcode":"PPL","country":"RO","cc2":"","admin1":"07","admin2":"38893","admin3":"","admin4":"","population":111,"elevation":0,"gtopo30":64,"timezone":"Europe/Bucharest","moddate":"2013-04-21T00:00:00.000Z"},{"geonameid":684977,"name":"Berza","asciiname":"Berza","alternatenames":"","latitude":"47.6434000","longitude":"27.3093800","fclass":"P","fcode":"PPL","country":"RO","cc2":"","admin1":"07","admin2":"38893","admin3":"","admin4":"","population":230,"elevation":0,"gtopo30":87,"timezone":"Europe/Bucharest","moddate":"2013-04-21T00:00:00.000Z"},{"geonameid":684390,"name":"Bogdănești","asciiname":"Bogdanesti","alternatenames":"","latitude":"47.6472100","longitude":"27.2554000","fclass":"P","fcode":"PPL","country":"RO","cc2":"","admin1":"07","admin2":"38893","admin3":"","admin4":"","population":416,"elevation":0,"gtopo30":81,"timezone":"Europe/Bucharest","moddate":"2013-04-21T00:00:00.000Z"},{"geonameid":678606,"name":"Durnești","asciiname":"Durnesti","alternatenames":"","latitude":"47.5957200","longitude":"27.3705800","fclass":"P","fcode":"PPL","country":"RO","cc2":"","admin1":"07","admin2":"38893","admin3":"","admin4":"","population":103,"elevation":0,"gtopo30":64,"timezone":"Europe/Bucharest","moddate":"2013-04-21T00:00:00.000Z"},{"geonameid":676773,"name":"Greaca","asciiname":"Greaca","alternatenames":"","latitude":"47.6166700","longitude":"27.3500000","fclass":"P","fcode":"PPLX","country":"RO","cc2":"","admin1":"07","admin2":"38893","admin3":"","admin4":"","population":0,"elevation":0,"gtopo30":102,"timezone":"Europe/Bucharest","moddate":"2016-02-07T00:00:00.000Z"},{"geonameid":675653,"name":"Ilișeni","asciiname":"Iliseni","alternatenames":"","latitude":"47.6715500","longitude":"27.2615000","fclass":"P","fcode":"PPL","country":"RO","cc2":"","admin1":"07","admin2":"38893","admin3":"","admin4":"","population":208,"elevation":0,"gtopo30":69,"timezone":"Europe/Bucharest","moddate":"2013-04-21T00:00:00.000Z"},{"geonameid":668863,"name":"Rânghileşti","asciiname":"Ranghilesti","alternatenames":"Fabrica Ranghilesti,Fabrica Ringhilesti,Fabrica Rînghileşti,Fabrică Ranghilesti,Odaia,Odaia Ringhilesti,Odaia Rînghileşti,Ranghilesti,Ringhilesti,Ringhilesti-Fabrica,Rânghileşti,Rînghileşti,Rînghileşti-Fabrică","latitude":"47.6500000","longitude":"27.2333300","fclass":"P","fcode":"PPL","country":"RO","cc2":"RO","admin1":"07","admin2":"38893","admin3":"","admin4":"","population":0,"elevation":0,"gtopo30":132,"timezone":"Europe/Bucharest","moddate":"2020-03-08T00:00:00.000Z"},{"geonameid":668861,"name":"Rânghilești-Deal","asciiname":"Ranghilesti-Deal","alternatenames":"Fotin Enescu,Ringhilesti-Deal,Ringhileşti-Deal","latitude":"47.6635600","longitude":"27.2566300","fclass":"P","fcode":"PPL","country":"RO","cc2":"RO","admin1":"07","admin2":"38893","admin3":"","admin4":"","population":252,"elevation":0,"gtopo30":80,"timezone":"Europe/Bucharest","moddate":"2013-04-21T00:00:00.000Z"},{"geonameid":666942,"name":"Santa Mare","asciiname":"Santa Mare","alternatenames":"","latitude":"47.6166700","longitude":"27.3500000","fclass":"P","fcode":"PPLA2","country":"RO","cc2":"","admin1":"07","admin2":"38893","admin3":"","admin4":"","population":1046,"elevation":0,"gtopo30":102,"timezone":"Europe/Bucharest","moddate":"2015-11-16T00:00:00.000Z"}],"admin3":[],"alternateNames":[]},"__N_SSG":true}