{"pageProps":{"locale":"ro","admin2":{"geonameid":681227,"name":"Comuna Cochirleanca","country":"RO","admin1":"11","admin2":"46377","admin3":"","latitude":"45.2014600","longitude":"27.0112600"},"admin1":{"geonameid":683121,"name":"Buzău","admin1":"11"},"locations":[{"geonameid":684529,"name":"Boboc","asciiname":"Boboc","alternatenames":"Boboc,Bobocu","latitude":"45.1957000","longitude":"26.9813600","fclass":"P","fcode":"PPL","country":"RO","cc2":"RO","admin1":"11","admin2":"46377","admin3":"","admin4":"","population":1655,"elevation":0,"gtopo30":94,"timezone":"Europe/Bucharest","moddate":"2013-04-21T00:00:00.000Z"},{"geonameid":681866,"name":"Câmpia","asciiname":"Campia","alternatenames":"Campia,Cimpia,Câmpia,Cîmpia,Robescu","latitude":"45.2166700","longitude":"27.0333300","fclass":"P","fcode":"PPLX","country":"RO","cc2":"RO","admin1":"11","admin2":"46377","admin3":"","admin4":"","population":0,"elevation":0,"gtopo30":85,"timezone":"Europe/Bucharest","moddate":"2020-03-08T00:00:00.000Z"},{"geonameid":681228,"name":"Cochirleanca","asciiname":"Cochirleanca","alternatenames":"Cochirleanca,Cochirleanca-Gageanu,Cochirleanca-Găgeanu,Gageanu,Gagenul,Găgenul,Regele-Carol II","latitude":"45.2166700","longitude":"27.0333300","fclass":"P","fcode":"PPLA2","country":"RO","cc2":"","admin1":"11","admin2":"46377","admin3":"","admin4":"","population":5712,"elevation":0,"gtopo30":85,"timezone":"Europe/Bucharest","moddate":"2012-06-12T00:00:00.000Z"},{"geonameid":677610,"name":"Gara Bobocu","asciiname":"Gara Bobocu","alternatenames":"Boboc,Gara Boboc,Gara Bobocu","latitude":"45.2108500","longitude":"26.9345200","fclass":"P","fcode":"PPL","country":"RO","cc2":"RO","admin1":"11","admin2":"46377","admin3":"","admin4":"","population":233,"elevation":0,"gtopo30":118,"timezone":"Europe/Bucharest","moddate":"2013-04-21T00:00:00.000Z"},{"geonameid":668604,"name":"Roșioru","asciiname":"Rosioru","alternatenames":"Rosiori,Rosioru,Roşiori,Roşioru","latitude":"45.2115500","longitude":"27.0802700","fclass":"P","fcode":"PPL","country":"RO","cc2":"RO","admin1":"11","admin2":"46377","admin3":"","admin4":"","population":767,"elevation":0,"gtopo30":75,"timezone":"Europe/Bucharest","moddate":"2013-04-21T00:00:00.000Z"},{"geonameid":667838,"name":"Satu Nou","asciiname":"Satu Nou","alternatenames":"","latitude":"45.2166700","longitude":"27.0333300","fclass":"P","fcode":"PPL","country":"RO","cc2":"","admin1":"11","admin2":"46377","admin3":"","admin4":"","population":0,"elevation":0,"gtopo30":85,"timezone":"Europe/Bucharest","moddate":"2016-02-07T00:00:00.000Z"},{"geonameid":667839,"name":"Satu Nou","asciiname":"Satu Nou","alternatenames":"","latitude":"45.2000000","longitude":"26.9833300","fclass":"P","fcode":"PPL","country":"RO","cc2":"","admin1":"11","admin2":"46377","admin3":"","admin4":"","population":0,"elevation":0,"gtopo30":96,"timezone":"Europe/Bucharest","moddate":"2016-02-07T00:00:00.000Z"},{"geonameid":664980,"name":"Târlele","asciiname":"Tarlele","alternatenames":"","latitude":"45.1797400","longitude":"27.0202900","fclass":"P","fcode":"PPL","country":"RO","cc2":"","admin1":"11","admin2":"46377","admin3":"","admin4":"","population":76,"elevation":0,"gtopo30":83,"timezone":"Europe/Bucharest","moddate":"2013-04-21T00:00:00.000Z"}],"admin3":[],"alternateNames":[]},"__N_SSG":true}