{"pageProps":{"locale":"ro","admin2":{"geonameid":672342,"name":"Oraş Negru Vodã","country":"RO","admin1":"14","admin2":"62397","admin3":"","latitude":"43.7953400","longitude":"28.2804100"},"admin1":{"geonameid":680962,"name":"Constanța","admin1":"14","localeAltName":"Constanța"},"locations":[{"geonameid":679737,"name":"Darabani","asciiname":"Darabani","alternatenames":"Darabani,Dauluchiol,Дарабани","latitude":"43.7872300","longitude":"28.2968700","fclass":"P","fcode":"PPL","country":"RO","cc2":"RO","admin1":"14","admin2":"62397","admin3":"","admin4":"","population":659,"elevation":0,"gtopo30":81,"timezone":"Europe/Bucharest","moddate":"2013-04-21T00:00:00.000Z"},{"geonameid":676788,"name":"Grăniceru","asciiname":"Graniceru","alternatenames":"Canli-Cicur,Graniceru,Granicerul,Grăniceru,Grănicerul","latitude":"43.7947700","longitude":"28.2654600","fclass":"P","fcode":"PPL","country":"RO","cc2":"RO","admin1":"14","admin2":"62397","admin3":"","admin4":"","population":0,"elevation":0,"gtopo30":106,"timezone":"Europe/Bucharest","moddate":"2013-04-21T00:00:00.000Z"},{"geonameid":675979,"name":"Hoşcadin","asciiname":"Hoscadin","alternatenames":"","latitude":"43.7666700","longitude":"28.3666700","fclass":"P","fcode":"PPLX","country":"RO","cc2":"","admin1":"14","admin2":"62397","admin3":"","admin4":"","population":0,"elevation":0,"gtopo30":77,"timezone":"Europe/Bucharest","moddate":"2016-02-07T00:00:00.000Z"},{"geonameid":672343,"name":"Negru Vodă","asciiname":"Negru Voda","alternatenames":"Caraomer,Negru Voda,Negru Vodă","latitude":"43.8166700","longitude":"28.2000000","fclass":"P","fcode":"PPLA2","country":"RO","cc2":"","admin1":"14","admin2":"62397","admin3":"","admin4":"","population":5585,"elevation":0,"gtopo30":151,"timezone":"Europe/Bucharest","moddate":"2012-06-12T00:00:00.000Z"},{"geonameid":662890,"name":"Vâlcelele","asciiname":"Valcelele","alternatenames":"Valala,Valali,Valalâ,Valalî,Vilcele,Vilcelele,Vîlcele,Vîlcelele","latitude":"43.7840700","longitude":"28.3426500","fclass":"P","fcode":"PPL","country":"RO","cc2":"","admin1":"14","admin2":"62397","admin3":"","admin4":"","population":270,"elevation":0,"gtopo30":67,"timezone":"Europe/Bucharest","moddate":"2015-11-14T00:00:00.000Z"}],"admin3":[],"alternateNames":[{"alternatenameId":402149,"geonameid":680962,"isoLanguage":"ro","alternateName":"Constanța","isPreferredName":true,"isShortName":true,"isColloquial":false,"isHistoric":false}]},"__N_SSG":true}