{"pageProps":{"locale":"ro","admin2":{"geonameid":680960,"name":"Comuna Constantin Daicoviciu","country":"RO","admin1":"12","admin2":"51877","admin3":"","latitude":"45.5145800","longitude":"22.1637400"},"admin1":{"geonameid":682714,"name":"Caraş-Severin","admin1":"12"},"locations":[{"geonameid":681064,"name":"Colonia Ţiganilor","asciiname":"Colonia Tiganilor","alternatenames":"","latitude":"45.5333300","longitude":"22.1833300","fclass":"P","fcode":"PPLX","country":"RO","cc2":"","admin1":"12","admin2":"51877","admin3":"","admin4":"","population":0,"elevation":0,"gtopo30":214,"timezone":"Europe/Bucharest","moddate":"2016-02-07T00:00:00.000Z"},{"geonameid":680961,"name":"Constantin Daicoviciu","asciiname":"Constantin Daicoviciu","alternatenames":"Cavaran,Constantin Daicoviciu,Căvăran","latitude":"45.5500000","longitude":"22.1500000","fclass":"P","fcode":"PPLA2","country":"RO","cc2":"","admin1":"12","admin2":"51877","admin3":"","admin4":"","population":2854,"elevation":0,"gtopo30":160,"timezone":"Europe/Bucharest","moddate":"2012-06-12T00:00:00.000Z"},{"geonameid":679845,"name":"Cuzniţa","asciiname":"Cuznita","alternatenames":"","latitude":"45.5500000","longitude":"22.1500000","fclass":"P","fcode":"PPLX","country":"RO","cc2":"","admin1":"12","admin2":"51877","admin3":"","admin4":"","population":0,"elevation":0,"gtopo30":160,"timezone":"Europe/Bucharest","moddate":"2016-02-07T00:00:00.000Z"},{"geonameid":674229,"name":"Maciova","asciiname":"Maciova","alternatenames":"","latitude":"45.5215500","longitude":"22.2044600","fclass":"P","fcode":"PPL","country":"RO","cc2":"","admin1":"12","admin2":"51877","admin3":"","admin4":"","population":498,"elevation":0,"gtopo30":205,"timezone":"Europe/Bucharest","moddate":"2013-04-21T00:00:00.000Z"},{"geonameid":673059,"name":"Mâtnicu Mare","asciiname":"Matnicu Mare","alternatenames":"Matnicul Mare,Mitnicu Mare,Mîtnicu Mare","latitude":"45.5096200","longitude":"22.1219300","fclass":"P","fcode":"PPL","country":"RO","cc2":"RO","admin1":"12","admin2":"51877","admin3":"","admin4":"","population":464,"elevation":0,"gtopo30":185,"timezone":"Europe/Bucharest","moddate":"2013-04-21T00:00:00.000Z"},{"geonameid":671059,"name":"Peștere","asciiname":"Pestere","alternatenames":"Pestere,Pesterea,Peştere,Peşterea","latitude":"45.5290500","longitude":"22.1862100","fclass":"P","fcode":"PPL","country":"RO","cc2":"RO","admin1":"12","admin2":"51877","admin3":"","admin4":"","population":298,"elevation":0,"gtopo30":215,"timezone":"Europe/Bucharest","moddate":"2013-04-21T00:00:00.000Z"},{"geonameid":669625,"name":"Prisaca","asciiname":"Prisaca","alternatenames":"","latitude":"45.4994600","longitude":"22.1565800","fclass":"P","fcode":"PPL","country":"RO","cc2":"","admin1":"12","admin2":"51877","admin3":"","admin4":"","population":449,"elevation":0,"gtopo30":176,"timezone":"Europe/Bucharest","moddate":"2013-04-21T00:00:00.000Z"},{"geonameid":662345,"name":"Zăgujeni","asciiname":"Zagujeni","alternatenames":"Zagujeni,Zegujani,Zăgujeni","latitude":"45.4820400","longitude":"22.1628600","fclass":"P","fcode":"PPL","country":"RO","cc2":"RO","admin1":"12","admin2":"51877","admin3":"","admin4":"","population":568,"elevation":0,"gtopo30":185,"timezone":"Europe/Bucharest","moddate":"2013-04-20T00:00:00.000Z"}],"admin3":[],"alternateNames":[]},"__N_SSG":true}