{"pageProps":{"locale":"ro","admin2":{"geonameid":666243,"name":"Comuna Ştefan cel Mare","country":"RO","admin1":"28","admin2":"124411","admin3":"","latitude":"46.9859900","longitude":"26.5129300"},"admin1":{"geonameid":672460,"name":"Neamţ","admin1":"28"},"locations":[{"geonameid":684222,"name":"Bordea","asciiname":"Bordea","alternatenames":"","latitude":"47.0336200","longitude":"26.4918200","fclass":"P","fcode":"PPL","country":"RO","cc2":"","admin1":"28","admin2":"124411","admin3":"","admin4":"","population":228,"elevation":0,"gtopo30":495,"timezone":"Europe/Bucharest","moddate":"2013-04-21T00:00:00.000Z"},{"geonameid":681556,"name":"Cârligi","asciiname":"Carligi","alternatenames":"","latitude":"47.0046700","longitude":"26.5213400","fclass":"P","fcode":"PPL","country":"RO","cc2":"","admin1":"28","admin2":"124411","admin3":"","admin4":"","population":0,"elevation":0,"gtopo30":414,"timezone":"Europe/Bucharest","moddate":"2016-02-07T00:00:00.000Z"},{"geonameid":673917,"name":"Deleni","asciiname":"Deleni","alternatenames":"Manjesti,Mânjești","latitude":"47.0000000","longitude":"26.5166700","fclass":"P","fcode":"PPL","country":"RO","cc2":"","admin1":"28","admin2":"124411","admin3":"","admin4":"","population":14,"elevation":0,"gtopo30":396,"timezone":"Europe/Bucharest","moddate":"2015-12-18T00:00:00.000Z"},{"geonameid":678600,"name":"Dușești","asciiname":"Dusesti","alternatenames":"","latitude":"47.0187700","longitude":"26.5170200","fclass":"P","fcode":"PPL","country":"RO","cc2":"","admin1":"28","admin2":"124411","admin3":"","admin4":"","population":156,"elevation":0,"gtopo30":443,"timezone":"Europe/Bucharest","moddate":"2013-04-21T00:00:00.000Z"},{"geonameid":677397,"name":"Ghigoiești","asciiname":"Ghigoiesti","alternatenames":"","latitude":"46.9828300","longitude":"26.5766800","fclass":"P","fcode":"PPL","country":"RO","cc2":"","admin1":"28","admin2":"124411","admin3":"","admin4":"","population":649,"elevation":0,"gtopo30":360,"timezone":"Europe/Bucharest","moddate":"2013-04-21T00:00:00.000Z"},{"geonameid":666588,"name":"Soci","asciiname":"Soci","alternatenames":"","latitude":"47.0275100","longitude":"26.5046700","fclass":"P","fcode":"PPL","country":"RO","cc2":"","admin1":"28","admin2":"124411","admin3":"","admin4":"","population":163,"elevation":0,"gtopo30":487,"timezone":"Europe/Bucharest","moddate":"2013-04-21T00:00:00.000Z"},{"geonameid":666248,"name":"Ştefan cel Mare","asciiname":"Stefan cel Mare","alternatenames":"Serbesti,Şerbeşti","latitude":"46.9848200","longitude":"26.5107000","fclass":"P","fcode":"PPLA2","country":"RO","cc2":"","admin1":"28","admin2":"124411","admin3":"","admin4":"","population":3386,"elevation":0,"gtopo30":371,"timezone":"Europe/Bucharest","moddate":"2012-06-10T00:00:00.000Z"}],"admin3":[],"alternateNames":[]},"__N_SSG":true}