{"pageProps":{"locale":"ro","admin2":{"geonameid":669316,"name":"Comuna Racoviţa","country":"RO","admin1":"39","admin2":"172509","admin3":"","latitude":"45.4120000","longitude":"24.3179200"},"admin1":{"geonameid":662892,"name":"Vâlcea","admin1":"39"},"locations":[{"geonameid":685597,"name":"Balota","asciiname":"Balota","alternatenames":"Balota,Saracinesti,Sărăcineşti","latitude":"45.4325400","longitude":"24.2956400","fclass":"P","fcode":"PPL","country":"RO","cc2":"RO","admin1":"39","admin2":"172509","admin3":"","admin4":"","population":433,"elevation":0,"gtopo30":328,"timezone":"Europe/Bucharest","moddate":"2013-04-21T00:00:00.000Z"},{"geonameid":684593,"name":"Blănoiu","asciiname":"Blanoiu","alternatenames":"Blanoiu,Blanoiul,Blănoiu,Blănoiul","latitude":"45.4199600","longitude":"24.3308000","fclass":"P","fcode":"PPL","country":"RO","cc2":"RO","admin1":"39","admin2":"172509","admin3":"","admin4":"","population":82,"elevation":0,"gtopo30":538,"timezone":"Europe/Bucharest","moddate":"2013-04-21T00:00:00.000Z"},{"geonameid":684254,"name":"Bolovanu","asciiname":"Bolovanu","alternatenames":"Bolovanu,Bolovanul","latitude":"45.4166700","longitude":"24.3000000","fclass":"P","fcode":"PPLX","country":"RO","cc2":"","admin1":"39","admin2":"172509","admin3":"","admin4":"","population":0,"elevation":0,"gtopo30":367,"timezone":"Europe/Bucharest","moddate":"2016-02-07T00:00:00.000Z"},{"geonameid":683928,"name":"Bradu-Clocotici","asciiname":"Bradu-Clocotici","alternatenames":"Bradu-Clocotici,Bradul-Clocotici,Bredu-Clocotici","latitude":"45.4065500","longitude":"24.3296600","fclass":"P","fcode":"PPL","country":"RO","cc2":"RO","admin1":"39","admin2":"172509","admin3":"","admin4":"","population":264,"elevation":0,"gtopo30":377,"timezone":"Europe/Bucharest","moddate":"2013-04-21T00:00:00.000Z"},{"geonameid":681312,"name":"Clocotici","asciiname":"Clocotici","alternatenames":"","latitude":"45.4000000","longitude":"24.3333300","fclass":"P","fcode":"PPLX","country":"RO","cc2":"","admin1":"39","admin2":"172509","admin3":"","admin4":"","population":0,"elevation":0,"gtopo30":469,"timezone":"Europe/Bucharest","moddate":"2016-02-07T00:00:00.000Z"},{"geonameid":680927,"name":"Copăceni","asciiname":"Copaceni","alternatenames":"","latitude":"45.3938600","longitude":"24.3145500","fclass":"P","fcode":"PPL","country":"RO","cc2":"","admin1":"39","admin2":"172509","admin3":"","admin4":"","population":434,"elevation":0,"gtopo30":332,"timezone":"Europe/Bucharest","moddate":"2013-04-21T00:00:00.000Z"},{"geonameid":676608,"name":"Gruiu Lupului","asciiname":"Gruiu Lupului","alternatenames":"Gruiu Lupului,Gruiul-Lupului","latitude":"45.4284800","longitude":"24.3410400","fclass":"P","fcode":"PPL","country":"RO","cc2":"RO","admin1":"39","admin2":"172509","admin3":"","admin4":"","population":198,"elevation":0,"gtopo30":551,"timezone":"Europe/Bucharest","moddate":"2013-04-21T00:00:00.000Z"},{"geonameid":669322,"name":"Racoviţa","asciiname":"Racovita","alternatenames":"","latitude":"45.4166700","longitude":"24.3166700","fclass":"P","fcode":"PPLA2","country":"RO","cc2":"","admin1":"39","admin2":"172509","admin3":"","admin4":"","population":1824,"elevation":0,"gtopo30":447,"timezone":"Europe/Bucharest","moddate":"2012-06-12T00:00:00.000Z"},{"geonameid":667659,"name":"Schitu Cornet","asciiname":"Schitu Cornet","alternatenames":"Manastirea Cornet,Mânăstirea Cornet,Schitu Cornet","latitude":"45.3833300","longitude":"24.3166700","fclass":"P","fcode":"PPLX","country":"RO","cc2":"","admin1":"39","admin2":"172509","admin3":"","admin4":"","population":0,"elevation":0,"gtopo30":501,"timezone":"Europe/Bucharest","moddate":"2016-02-07T00:00:00.000Z"},{"geonameid":664400,"name":"Tuțulești","asciiname":"Tutulesti","alternatenames":"","latitude":"45.3965900","longitude":"24.3022500","fclass":"P","fcode":"PPL","country":"RO","cc2":"","admin1":"39","admin2":"172509","admin3":"","admin4":"","population":95,"elevation":0,"gtopo30":315,"timezone":"Europe/Bucharest","moddate":"2013-04-21T00:00:00.000Z"},{"geonameid":663369,"name":"Valea Suliţei","asciiname":"Valea Sulitei","alternatenames":"","latitude":"45.4166700","longitude":"24.3166700","fclass":"P","fcode":"PPL","country":"RO","cc2":"","admin1":"39","admin2":"172509","admin3":"","admin4":"","population":0,"elevation":0,"gtopo30":447,"timezone":"Europe/Bucharest","moddate":"2016-02-07T00:00:00.000Z"}],"admin3":[],"alternateNames":[]},"__N_SSG":true}