{"pageProps":{"locale":"ro","admin2":{"geonameid":669521,"name":"Comuna Puchenii Mari","country":"RO","admin1":"30","admin2":"134942","admin3":"","latitude":"44.8238600","longitude":"26.0769700"},"admin1":{"geonameid":669737,"name":"Prahova","admin1":"30"},"locations":[{"geonameid":673097,"name":"Miroslăvești","asciiname":"Miroslavesti","alternatenames":"Miroslavesti,Miroslăveşti,Puchenii-Miroslavesti,Puchenii-Miroslăvesti,Puchienii-Miroslavesti,Puchienii-Miroslăveşti","latitude":"44.8038300","longitude":"26.0868900","fclass":"P","fcode":"PPL","country":"RO","cc2":"RO","admin1":"30","admin2":"134942","admin3":"","admin4":"","population":2005,"elevation":0,"gtopo30":102,"timezone":"Europe/Bucharest","moddate":"2013-04-21T00:00:00.000Z"},{"geonameid":673018,"name":"Moara","asciiname":"Moara","alternatenames":"","latitude":"44.8338700","longitude":"26.0683900","fclass":"P","fcode":"PPL","country":"RO","cc2":"","admin1":"30","admin2":"134942","admin3":"","admin4":"","population":532,"elevation":0,"gtopo30":107,"timezone":"Europe/Bucharest","moddate":"2013-04-21T00:00:00.000Z"},{"geonameid":671985,"name":"Odăile","asciiname":"Odaile","alternatenames":"","latitude":"44.8244500","longitude":"26.0586800","fclass":"P","fcode":"PPL","country":"RO","cc2":"","admin1":"30","admin2":"134942","admin3":"","admin4":"","population":625,"elevation":0,"gtopo30":110,"timezone":"Europe/Bucharest","moddate":"2013-04-21T00:00:00.000Z"},{"geonameid":670820,"name":"Pietroșani","asciiname":"Pietrosani","alternatenames":"","latitude":"44.8396300","longitude":"26.1038200","fclass":"P","fcode":"PPL","country":"RO","cc2":"","admin1":"30","admin2":"134942","admin3":"","admin4":"","population":2516,"elevation":0,"gtopo30":101,"timezone":"Europe/Bucharest","moddate":"2013-04-21T00:00:00.000Z"},{"geonameid":669522,"name":"Puchenii Mari","asciiname":"Puchenii Mari","alternatenames":"Pucheni,Puchenii Mari,Puchenii-Crainici","latitude":"44.8166700","longitude":"26.0833300","fclass":"P","fcode":"PPLA2","country":"RO","cc2":"","admin1":"30","admin2":"134942","admin3":"","admin4":"","population":8869,"elevation":0,"gtopo30":103,"timezone":"Europe/Bucharest","moddate":"2012-06-12T00:00:00.000Z"},{"geonameid":669520,"name":"Puchenii Mici","asciiname":"Puchenii Mici","alternatenames":"","latitude":"44.8288200","longitude":"26.0516400","fclass":"P","fcode":"PPL","country":"RO","cc2":"","admin1":"30","admin2":"134942","admin3":"","admin4":"","population":559,"elevation":0,"gtopo30":112,"timezone":"Europe/Bucharest","moddate":"2013-04-21T00:00:00.000Z"},{"geonameid":669519,"name":"Puchenii Moșneni","asciiname":"Puchenii Mosneni","alternatenames":"Mosneni,Moşneni,Puchenii-Mosneni,Puchenii-Moşneni","latitude":"44.8121300","longitude":"26.0870100","fclass":"P","fcode":"PPL","country":"RO","cc2":"RO","admin1":"30","admin2":"134942","admin3":"","admin4":"","population":1439,"elevation":0,"gtopo30":103,"timezone":"Europe/Bucharest","moddate":"2013-04-21T00:00:00.000Z"}],"admin3":[],"alternateNames":[{"alternatenameId":8326236,"geonameid":669737,"isoLanguage":"en","alternateName":"Prahova","isPreferredName":true,"isShortName":true,"isColloquial":false,"isHistoric":false}]},"__N_SSG":true}