{"pageProps":{"locale":"ro","admin2":{"geonameid":679719,"name":"Oraş Dãrmãneşti","country":"RO","admin1":"04","admin2":"22166","admin3":"","latitude":"46.3755900","longitude":"26.4767300"},"admin1":{"geonameid":685947,"name":"Bacău","admin1":"04"},"locations":[{"geonameid":684325,"name":"Boiştea","asciiname":"Boistea","alternatenames":"","latitude":"46.3666700","longitude":"26.4833300","fclass":"P","fcode":"PPL","country":"RO","cc2":"","admin1":"04","admin2":"22166","admin3":"","admin4":"","population":0,"elevation":0,"gtopo30":347,"timezone":"Europe/Bucharest","moddate":"2016-02-07T00:00:00.000Z"},{"geonameid":683780,"name":"Brătuleşti","asciiname":"Bratulesti","alternatenames":"","latitude":"46.3666700","longitude":"26.4833300","fclass":"P","fcode":"PPL","country":"RO","cc2":"","admin1":"04","admin2":"22166","admin3":"","admin4":"","population":0,"elevation":0,"gtopo30":347,"timezone":"Europe/Bucharest","moddate":"2016-02-07T00:00:00.000Z"},{"geonameid":679727,"name":"Dărmăneasca","asciiname":"Darmaneasca","alternatenames":"","latitude":"46.3871700","longitude":"26.4873400","fclass":"P","fcode":"PPL","country":"RO","cc2":"","admin1":"04","admin2":"22166","admin3":"","admin4":"","population":339,"elevation":0,"gtopo30":348,"timezone":"Europe/Bucharest","moddate":"2013-04-21T00:00:00.000Z"},{"geonameid":679724,"name":"Dărmăneşti","asciiname":"Darmanesti","alternatenames":"Darmanesti,Darmanestii,Dârmaneştii,Dărmăneşti","latitude":"46.3666700","longitude":"26.4833300","fclass":"P","fcode":"PPLA2","country":"RO","cc2":"","admin1":"04","admin2":"22166","admin3":"","admin4":"","population":14290,"elevation":0,"gtopo30":347,"timezone":"Europe/Bucharest","moddate":"2012-06-12T00:00:00.000Z"},{"geonameid":675172,"name":"Joseni","asciiname":"Joseni","alternatenames":"","latitude":"46.3666700","longitude":"26.4833300","fclass":"P","fcode":"PPL","country":"RO","cc2":"","admin1":"04","admin2":"22166","admin3":"","admin4":"","population":0,"elevation":0,"gtopo30":347,"timezone":"Europe/Bucharest","moddate":"2016-02-07T00:00:00.000Z"},{"geonameid":675055,"name":"Lăpoș","asciiname":"Lapos","alternatenames":"Lapos,Laposul,Lapoş,Lapoşul","latitude":"46.3936300","longitude":"26.4624500","fclass":"P","fcode":"PPL","country":"RO","cc2":"RO","admin1":"04","admin2":"22166","admin3":"","admin4":"","population":1455,"elevation":0,"gtopo30":443,"timezone":"Europe/Bucharest","moddate":"2013-04-21T00:00:00.000Z"},{"geonameid":671494,"name":"Păgubeni","asciiname":"Pagubeni","alternatenames":"Pagubeni,Pagubenii,Păgubeni,Păgubenii","latitude":"46.3672300","longitude":"26.5199100","fclass":"P","fcode":"PPL","country":"RO","cc2":"RO","admin1":"04","admin2":"22166","admin3":"","admin4":"","population":366,"elevation":0,"gtopo30":331,"timezone":"Europe/Bucharest","moddate":"2013-04-21T00:00:00.000Z"},{"geonameid":670588,"name":"Pivniceni","asciiname":"Pivniceni","alternatenames":"","latitude":"46.3666700","longitude":"26.4833300","fclass":"P","fcode":"PPL","country":"RO","cc2":"","admin1":"04","admin2":"22166","admin3":"","admin4":"","population":0,"elevation":0,"gtopo30":347,"timezone":"Europe/Bucharest","moddate":"2016-02-07T00:00:00.000Z"},{"geonameid":670419,"name":"Plopu","asciiname":"Plopu","alternatenames":"Plop,Plopu,Plopul","latitude":"46.3925600","longitude":"26.5026800","fclass":"P","fcode":"PPL","country":"RO","cc2":"RO","admin1":"04","admin2":"22166","admin3":"","admin4":"","population":1132,"elevation":0,"gtopo30":368,"timezone":"Europe/Bucharest","moddate":"2013-04-21T00:00:00.000Z"},{"geonameid":670016,"name":"Poiana Uzului","asciiname":"Poiana Uzului","alternatenames":"Poiana Uzul,Poiana Uzului","latitude":"46.3166700","longitude":"26.3500000","fclass":"P","fcode":"PPLX","country":"RO","cc2":"","admin1":"04","admin2":"22166","admin3":"","admin4":"","population":0,"elevation":0,"gtopo30":669,"timezone":"Europe/Bucharest","moddate":"2016-02-07T00:00:00.000Z"},{"geonameid":668232,"name":"Sălătruc","asciiname":"Salatruc","alternatenames":"","latitude":"46.3437900","longitude":"26.4176200","fclass":"P","fcode":"PPL","country":"RO","cc2":"","admin1":"04","admin2":"22166","admin3":"","admin4":"","population":45,"elevation":0,"gtopo30":416,"timezone":"Europe/Bucharest","moddate":"2013-04-21T00:00:00.000Z"}],"admin3":[],"alternateNames":[]},"__N_SSG":true}