{"pageProps":{"locale":"ro","admin2":{"geonameid":667946,"name":"Comuna Săruleşti","country":"RO","admin1":"11","admin2":"49233","admin3":"","latitude":"45.4830400","longitude":"26.7786400"},"admin1":{"geonameid":683121,"name":"Buzău","admin1":"11"},"locations":[{"geonameid":686264,"name":"Apostari","asciiname":"Apostari","alternatenames":"Apostari,Apostarii","latitude":"45.5000000","longitude":"26.8000000","fclass":"P","fcode":"PPLX","country":"RO","cc2":"","admin1":"11","admin2":"49233","admin3":"","admin4":"","population":0,"elevation":0,"gtopo30":577,"timezone":"Europe/Bucharest","moddate":"2016-02-07T00:00:00.000Z"},{"geonameid":682709,"name":"Cărătnău de Jos","asciiname":"Caratnau de Jos","alternatenames":"Caratnau de Jos,Caratnaul de Jos,Cărătnău de Jos,Cărătnăul de Jos","latitude":"45.4641500","longitude":"26.7577000","fclass":"P","fcode":"PPL","country":"RO","cc2":"RO","admin1":"11","admin2":"49233","admin3":"","admin4":"","population":141,"elevation":0,"gtopo30":322,"timezone":"Europe/Bucharest","moddate":"2013-04-21T00:00:00.000Z"},{"geonameid":682708,"name":"Cărătnău de Sus","asciiname":"Caratnau de Sus","alternatenames":"Caratnau de Sus,Caratnaul de Sus,Cărătnău de Sus","latitude":"45.4615500","longitude":"26.7900200","fclass":"P","fcode":"PPL","country":"RO","cc2":"RO","admin1":"11","admin2":"49233","admin3":"","admin4":"","population":92,"elevation":0,"gtopo30":428,"timezone":"Europe/Bucharest","moddate":"2013-04-21T00:00:00.000Z"},{"geonameid":676966,"name":"Goicelu","asciiname":"Goicelu","alternatenames":"Goicelu,Goicelui","latitude":"45.4843900","longitude":"26.7987600","fclass":"P","fcode":"PPL","country":"RO","cc2":"RO","admin1":"11","admin2":"49233","admin3":"","admin4":"","population":273,"elevation":0,"gtopo30":446,"timezone":"Europe/Bucharest","moddate":"2013-04-21T00:00:00.000Z"},{"geonameid":670192,"name":"Poeniţa","asciiname":"Poenita","alternatenames":"Fundu Papi,Fundu Papii,Poenita,Poeniţa","latitude":"45.5000000","longitude":"26.7500000","fclass":"P","fcode":"PPLX","country":"RO","cc2":"","admin1":"11","admin2":"49233","admin3":"","admin4":"","population":0,"elevation":0,"gtopo30":452,"timezone":"Europe/Bucharest","moddate":"2020-06-10T00:00:00.000Z"},{"geonameid":667985,"name":"Sările-Cătun","asciiname":"Sarile-Catun","alternatenames":"","latitude":"45.5027900","longitude":"26.7764600","fclass":"P","fcode":"PPL","country":"RO","cc2":"","admin1":"11","admin2":"49233","admin3":"","admin4":"","population":20,"elevation":0,"gtopo30":446,"timezone":"Europe/Bucharest","moddate":"2013-04-21T00:00:00.000Z"},{"geonameid":667948,"name":"Săruleşti","asciiname":"Sarulesti","alternatenames":"Sarulesti,Săruleşti","latitude":"45.5000000","longitude":"26.7500000","fclass":"P","fcode":"PPLA2","country":"RO","cc2":"","admin1":"11","admin2":"49233","admin3":"","admin4":"","population":1559,"elevation":0,"gtopo30":452,"timezone":"Europe/Bucharest","moddate":"2012-06-12T00:00:00.000Z"},{"geonameid":664444,"name":"Ţurloeşti","asciiname":"Turloesti","alternatenames":"","latitude":"45.4833300","longitude":"26.7666700","fclass":"P","fcode":"PPL","country":"RO","cc2":"","admin1":"11","admin2":"49233","admin3":"","admin4":"","population":0,"elevation":0,"gtopo30":339,"timezone":"Europe/Bucharest","moddate":"2016-02-07T00:00:00.000Z"},{"geonameid":663713,"name":"Valea Largă-Sărulești","asciiname":"Valea Larga-Sarulesti","alternatenames":"","latitude":"45.5098800","longitude":"26.7788300","fclass":"P","fcode":"PPL","country":"RO","cc2":"","admin1":"11","admin2":"49233","admin3":"","admin4":"","population":374,"elevation":0,"gtopo30":553,"timezone":"Europe/Bucharest","moddate":"2013-04-20T00:00:00.000Z"},{"geonameid":663378,"name":"Valea Stânei","asciiname":"Valea Stanei","alternatenames":"Valea Stanei,Valea Stinei,Valea Stânei,Valea Stînei","latitude":"45.4741000","longitude":"26.7825500","fclass":"P","fcode":"PPL","country":"RO","cc2":"RO","admin1":"11","admin2":"49233","admin3":"","admin4":"","population":237,"elevation":0,"gtopo30":376,"timezone":"Europe/Bucharest","moddate":"2013-04-20T00:00:00.000Z"}],"admin3":[],"alternateNames":[]},"__N_SSG":true}