{"pageProps":{"locale":"ro","admin2":{"geonameid":673384,"name":"Comuna Mihăileşti","country":"RO","admin1":"11","admin2":"47578","admin3":"","latitude":"44.9251800","longitude":"26.6733000"},"admin1":{"geonameid":683121,"name":"Buzău","admin1":"11"},"locations":[{"geonameid":681058,"name":"Colțăneni","asciiname":"Coltaneni","alternatenames":"","latitude":"44.9255700","longitude":"26.6689900","fclass":"P","fcode":"PPL","country":"RO","cc2":"","admin1":"11","admin2":"47578","admin3":"","admin4":"","population":257,"elevation":0,"gtopo30":71,"timezone":"Europe/Bucharest","moddate":"2013-04-21T00:00:00.000Z"},{"geonameid":673801,"name":"Mărgineanu","asciiname":"Margineanu","alternatenames":"Mardineanu,Margineanu,Mărdineanu,Mărgineanu","latitude":"44.9400700","longitude":"26.6657000","fclass":"P","fcode":"PPL","country":"RO","cc2":"RO","admin1":"11","admin2":"47578","admin3":"","admin4":"","population":760,"elevation":0,"gtopo30":66,"timezone":"Europe/Bucharest","moddate":"2013-04-21T00:00:00.000Z"},{"geonameid":673386,"name":"Mihăileşti","asciiname":"Mihailesti","alternatenames":"Mihailesti,Mihăileşti","latitude":"44.9166700","longitude":"26.6666700","fclass":"P","fcode":"PPLA2","country":"RO","cc2":"","admin1":"11","admin2":"47578","admin3":"","admin4":"","population":3719,"elevation":0,"gtopo30":70,"timezone":"Europe/Bucharest","moddate":"2012-06-12T00:00:00.000Z"},{"geonameid":668035,"name":"Sărata-Mărgineanca","asciiname":"Sarata-Margineanca","alternatenames":"","latitude":"44.9166700","longitude":"26.6666700","fclass":"P","fcode":"PPLX","country":"RO","cc2":"","admin1":"11","admin2":"47578","admin3":"","admin4":"","population":0,"elevation":0,"gtopo30":70,"timezone":"Europe/Bucharest","moddate":"2016-02-07T00:00:00.000Z"},{"geonameid":667845,"name":"Satu Nou","asciiname":"Satu Nou","alternatenames":"","latitude":"44.9200300","longitude":"26.6808200","fclass":"P","fcode":"PPL","country":"RO","cc2":"","admin1":"11","admin2":"47578","admin3":"","admin4":"","population":484,"elevation":0,"gtopo30":74,"timezone":"Europe/Bucharest","moddate":"2013-04-21T00:00:00.000Z"}],"admin3":[],"alternateNames":[]},"__N_SSG":true}