{"pageProps":{"locale":"ro","admin2":{"geonameid":670887,"name":"Oraş Piatra-Olt","country":"RO","admin1":"29","admin2":"128105","admin3":"","latitude":"44.3756000","longitude":"24.2833200"},"admin1":{"geonameid":671857,"name":"Olt","admin1":"29"},"locations":[{"geonameid":684646,"name":"Bistrița Nouă","asciiname":"Bistrita Noua","alternatenames":"","latitude":"44.3991600","longitude":"24.2288200","fclass":"P","fcode":"PPL","country":"RO","cc2":"","admin1":"29","admin2":"128105","admin3":"","admin4":"","population":749,"elevation":0,"gtopo30":151,"timezone":"Europe/Bucharest","moddate":"2013-04-21T00:00:00.000Z"},{"geonameid":680137,"name":"Criva de Jos","asciiname":"Criva de Jos","alternatenames":"","latitude":"44.3702500","longitude":"24.3141500","fclass":"P","fcode":"PPL","country":"RO","cc2":"","admin1":"29","admin2":"128105","admin3":"","admin4":"","population":563,"elevation":0,"gtopo30":101,"timezone":"Europe/Bucharest","moddate":"2013-04-21T00:00:00.000Z"},{"geonameid":680136,"name":"Criva de Sus","asciiname":"Criva de Sus","alternatenames":"","latitude":"44.3772700","longitude":"24.3185400","fclass":"P","fcode":"PPL","country":"RO","cc2":"","admin1":"29","admin2":"128105","admin3":"","admin4":"","population":613,"elevation":0,"gtopo30":104,"timezone":"Europe/Bucharest","moddate":"2013-04-21T00:00:00.000Z"},{"geonameid":678566,"name":"Enoșești","asciiname":"Enosesti","alternatenames":"","latitude":"44.3788300","longitude":"24.2848000","fclass":"P","fcode":"PPL","country":"RO","cc2":"","admin1":"29","admin2":"128105","admin3":"","admin4":"","population":394,"elevation":0,"gtopo30":118,"timezone":"Europe/Bucharest","moddate":"2013-04-21T00:00:00.000Z"},{"geonameid":670922,"name":"Piatra","asciiname":"Piatra","alternatenames":"Petra,Piatra,Pintra","latitude":"44.3605400","longitude":"24.2955700","fclass":"P","fcode":"PPL","country":"RO","cc2":"RO","admin1":"29","admin2":"128105","admin3":"","admin4":"","population":2097,"elevation":0,"gtopo30":123,"timezone":"Europe/Bucharest","moddate":"2013-04-21T00:00:00.000Z"},{"geonameid":670888,"name":"Piatra Olt","asciiname":"Piatra Olt","alternatenames":"Piatra Olt","latitude":"44.3666700","longitude":"24.2666700","fclass":"P","fcode":"PPLA2","country":"RO","cc2":"","admin1":"29","admin2":"128105","admin3":"","admin4":"","population":6313,"elevation":0,"gtopo30":132,"timezone":"Europe/Bucharest","moddate":"2012-06-12T00:00:00.000Z"}],"admin3":[],"alternateNames":[]},"__N_SSG":true}