{"pageProps":{"locale":"ro","admin2":{"geonameid":664818,"name":"Comuna Tomeşti","country":"RO","admin1":"36","admin2":"158895","admin3":"","latitude":"45.7667000","longitude":"22.3097400"},"admin1":{"geonameid":665091,"name":"Timiş","admin1":"36"},"locations":[{"geonameid":685598,"name":"Baloșești","asciiname":"Balosesti","alternatenames":"","latitude":"45.7824800","longitude":"22.2911400","fclass":"P","fcode":"PPL","country":"RO","cc2":"","admin1":"36","admin2":"158895","admin3":"","admin4":"","population":178,"elevation":0,"gtopo30":289,"timezone":"Europe/Bucharest","moddate":"2013-04-21T00:00:00.000Z"},{"geonameid":681083,"name":"Colonia Fabricii","asciiname":"Colonia Fabricii","alternatenames":"","latitude":"45.7662000","longitude":"22.3146300","fclass":"P","fcode":"PPL","country":"RO","cc2":"","admin1":"36","admin2":"158895","admin3":"","admin4":"","population":1133,"elevation":0,"gtopo30":269,"timezone":"Europe/Bucharest","moddate":"2013-04-21T00:00:00.000Z"},{"geonameid":674374,"name":"Luncanii de Jos","asciiname":"Luncanii de Jos","alternatenames":"Luncani,Luncanii de Jos","latitude":"45.7198500","longitude":"22.3133500","fclass":"P","fcode":"PPL","country":"RO","cc2":"RO","admin1":"36","admin2":"158895","admin3":"","admin4":"","population":477,"elevation":0,"gtopo30":404,"timezone":"Europe/Bucharest","moddate":"2013-04-21T00:00:00.000Z"},{"geonameid":674373,"name":"Luncanii de Sus","asciiname":"Luncanii de Sus","alternatenames":"Luncani de Sus,Luncanii de Sus","latitude":"45.7398200","longitude":"22.3103000","fclass":"P","fcode":"PPL","country":"RO","cc2":"RO","admin1":"36","admin2":"158895","admin3":"","admin4":"","population":51,"elevation":0,"gtopo30":519,"timezone":"Europe/Bucharest","moddate":"2013-04-21T00:00:00.000Z"},{"geonameid":668713,"name":"Românești","asciiname":"Romanesti","alternatenames":"Rominesti,Romîneşti,Rumanesti,Rumunyest,Rumăneşti","latitude":"45.8000000","longitude":"22.3166700","fclass":"P","fcode":"PPL","country":"RO","cc2":"","admin1":"36","admin2":"158895","admin3":"","admin4":"","population":541,"elevation":0,"gtopo30":286,"timezone":"Europe/Bucharest","moddate":"2015-11-12T00:00:00.000Z"},{"geonameid":664825,"name":"Tomeşti","asciiname":"Tomesti","alternatenames":"","latitude":"45.7833300","longitude":"22.3000000","fclass":"P","fcode":"PPLA2","country":"RO","cc2":"","admin1":"36","admin2":"158895","admin3":"","admin4":"","population":2226,"elevation":0,"gtopo30":276,"timezone":"Europe/Bucharest","moddate":"2012-06-12T00:00:00.000Z"}],"admin3":[],"alternateNames":[]},"__N_SSG":true}