{"pageProps":{"locale":"ro","admin2":{"geonameid":673358,"name":"Comuna Mihălăşeni","country":"RO","admin1":"07","admin2":"38241","admin3":"","latitude":"47.8795600","longitude":"27.0962000"},"admin1":{"geonameid":684038,"name":"Botoşani","admin1":"07"},"locations":[{"geonameid":682738,"name":"Caraiman","asciiname":"Caraiman","alternatenames":"","latitude":"47.9227700","longitude":"27.0855100","fclass":"P","fcode":"PPL","country":"RO","cc2":"","admin1":"07","admin2":"38241","admin3":"","admin4":"","population":204,"elevation":0,"gtopo30":119,"timezone":"Europe/Bucharest","moddate":"2013-04-21T00:00:00.000Z"},{"geonameid":673359,"name":"Mihălăşeni","asciiname":"Mihalaseni","alternatenames":"Mihalasceni,Mihalaseni,Mihalasenii,Mihălăşceni,Mihălăşeni,Mihălăşenii","latitude":"47.8833300","longitude":"27.0666700","fclass":"P","fcode":"PPLA2","country":"RO","cc2":"","admin1":"07","admin2":"38241","admin3":"","admin4":"","population":2438,"elevation":0,"gtopo30":90,"timezone":"Europe/Bucharest","moddate":"2012-06-12T00:00:00.000Z"},{"geonameid":672496,"name":"Năstase","asciiname":"Nastase","alternatenames":"","latitude":"47.8546600","longitude":"27.1314900","fclass":"P","fcode":"PPL","country":"RO","cc2":"","admin1":"07","admin2":"38241","admin3":"","admin4":"","population":243,"elevation":0,"gtopo30":75,"timezone":"Europe/Bucharest","moddate":"2013-04-21T00:00:00.000Z"},{"geonameid":672372,"name":"Negrești","asciiname":"Negresti","alternatenames":"","latitude":"47.8646500","longitude":"27.1071100","fclass":"P","fcode":"PPL","country":"RO","cc2":"","admin1":"07","admin2":"38241","admin3":"","admin4":"","population":299,"elevation":0,"gtopo30":76,"timezone":"Europe/Bucharest","moddate":"2013-04-21T00:00:00.000Z"},{"geonameid":671516,"name":"Pădureni","asciiname":"Padureni","alternatenames":"","latitude":"47.8833300","longitude":"27.0666700","fclass":"P","fcode":"PPL","country":"RO","cc2":"","admin1":"07","admin2":"38241","admin3":"","admin4":"","population":0,"elevation":0,"gtopo30":90,"timezone":"Europe/Bucharest","moddate":"2016-02-07T00:00:00.000Z"},{"geonameid":671214,"name":"Păun","asciiname":"Paun","alternatenames":"","latitude":"47.8553400","longitude":"27.1155700","fclass":"P","fcode":"PPL","country":"RO","cc2":"","admin1":"07","admin2":"38241","admin3":"","admin4":"","population":267,"elevation":0,"gtopo30":68,"timezone":"Europe/Bucharest","moddate":"2013-04-21T00:00:00.000Z"},{"geonameid":668043,"name":"Sarata","asciiname":"Sarata","alternatenames":"","latitude":"47.9152600","longitude":"27.0784100","fclass":"P","fcode":"PPL","country":"RO","cc2":"","admin1":"07","admin2":"38241","admin3":"","admin4":"","population":328,"elevation":0,"gtopo30":104,"timezone":"Europe/Bucharest","moddate":"2013-04-21T00:00:00.000Z"},{"geonameid":666656,"name":"Slobozia Silișcani","asciiname":"Slobozia Siliscani","alternatenames":"","latitude":"47.8608600","longitude":"27.0818300","fclass":"P","fcode":"PPL","country":"RO","cc2":"","admin1":"07","admin2":"38241","admin3":"","admin4":"","population":249,"elevation":0,"gtopo30":110,"timezone":"Europe/Bucharest","moddate":"2013-04-21T00:00:00.000Z"}],"admin3":[],"alternateNames":[]},"__N_SSG":true}